{
  "generated_utc": "2026-04-28T17:05:01Z",
  "top": [
    {
      "lon": 14.25,
      "lat": 50.25,
      "type": "hotspot_cell",
      "score": 980.19,
      "count": 1761,
      "cell_deg": 0.5,
      "sources": {
        "GDELT": 205,
        "GDELT_DOC": 1555,
        "DIRECT_FEED": 1,
        "USGS": 0,
        "GDACS": 0
      },
      "last7_score": 967.26,
      "prev7_score": 12.93,
      "trend": "up",
      "trend_arrow": "🔺",
      "change_pct": 7380.7,
      "place": "SO ORP Kralupy nad Vltavou, Czechia"
    },
    {
      "lon": 26.25,
      "lat": 44.25,
      "type": "hotspot_cell",
      "score": 947.664,
      "count": 1596,
      "cell_deg": 0.5,
      "sources": {
        "GDELT": 159,
        "GDELT_DOC": 1429,
        "DIRECT_FEED": 8,
        "USGS": 0,
        "GDACS": 0
      },
      "last7_score": 936.353,
      "prev7_score": 11.311,
      "trend": "up",
      "trend_arrow": "🔺",
      "change_pct": 8177.9,
      "place": "Giurgiu, Romania"
    },
    {
      "lon": 25.25,
      "lat": 54.75,
      "type": "hotspot_cell",
      "score": 678.687,
      "count": 1156,
      "cell_deg": 0.5,
      "sources": {
        "GDELT": 71,
        "GDELT_DOC": 1085,
        "DIRECT_FEED": 0,
        "USGS": 0,
        "GDACS": 0
      },
      "last7_score": 674.501,
      "prev7_score": 4.186,
      "trend": "up",
      "trend_arrow": "🔺",
      "change_pct": 16013.0,
      "place": "Vilnius County, Lithuania"
    },
    {
      "lon": 19.25,
      "lat": 47.75,
      "type": "hotspot_cell",
      "score": 268.589,
      "count": 689,
      "cell_deg": 0.5,
      "sources": {
        "GDELT": 463,
        "GDELT_DOC": 0,
        "DIRECT_FEED": 226,
        "USGS": 0,
        "GDACS": 0
      },
      "last7_score": 229.587,
      "prev7_score": 39.002,
      "trend": "up",
      "trend_arrow": "🔺",
      "change_pct": 488.6,
      "place": "Pest, Hungary"
    },
    {
      "lon": 20.25,
      "lat": 47.25,
      "type": "hotspot_cell",
      "score": 189.594,
      "count": 629,
      "cell_deg": 0.5,
      "sources": {
        "GDELT": 629,
        "GDELT_DOC": 0,
        "DIRECT_FEED": 0,
        "USGS": 0,
        "GDACS": 0
      },
      "last7_score": 144.159,
      "prev7_score": 45.435,
      "trend": "up",
      "trend_arrow": "🔺",
      "change_pct": 217.3,
      "place": "Jász-Nagykun-Szolnok, Hungary"
    },
    {
      "lon": 20.25,
      "lat": 52.25,
      "type": "hotspot_cell",
      "score": 160.688,
      "count": 455,
      "cell_deg": 0.5,
      "sources": {
        "GDELT": 455,
        "GDELT_DOC": 0,
        "DIRECT_FEED": 0,
        "USGS": 0,
        "GDACS": 0
      },
      "last7_score": 132.015,
      "prev7_score": 28.673,
      "trend": "up",
      "trend_arrow": "🔺",
      "change_pct": 360.4,
      "place": "Sochaczew County, Poland"
    },
    {
      "lon": 24.25,
      "lat": 56.75,
      "type": "hotspot_cell",
      "score": 116.822,
      "count": 171,
      "cell_deg": 0.5,
      "sources": {
        "GDELT": 32,
        "GDELT_DOC": 0,
        "DIRECT_FEED": 139,
        "USGS": 0,
        "GDACS": 0
      },
      "last7_score": 115.09,
      "prev7_score": 1.732,
      "trend": "up",
      "trend_arrow": "🔺",
      "change_pct": 6543.7,
      "place": "Ķekavas novads, Latvia"
    },
    {
      "lon": 25.25,
      "lat": 46.25,
      "type": "hotspot_cell",
      "score": 114.604,
      "count": 290,
      "cell_deg": 0.5,
      "sources": {
        "GDELT": 290,
        "GDELT_DOC": 0,
        "DIRECT_FEED": 0,
        "USGS": 0,
        "GDACS": 0
      },
      "last7_score": 98.178,
      "prev7_score": 16.426,
      "trend": "up",
      "trend_arrow": "🔺",
      "change_pct": 497.7,
      "place": "Harghita, Romania"
    },
    {
      "lon": 26.75,
      "lat": 47.75,
      "type": "hotspot_cell",
      "score": 102.31,
      "count": 157,
      "cell_deg": 0.5,
      "sources": {
        "GDELT": 2,
        "GDELT_DOC": 152,
        "DIRECT_FEED": 3,
        "USGS": 0,
        "GDACS": 0
      },
      "last7_score": 102.041,
      "prev7_score": 0.269,
      "trend": "up",
      "trend_arrow": "🔺",
      "change_pct": 37802.9,
      "place": "Botoșani, Romania"
    },
    {
      "lon": 21.25,
      "lat": 52.25,
      "type": "hotspot_cell",
      "score": 75.495,
      "count": 192,
      "cell_deg": 0.5,
      "sources": {
        "GDELT": 192,
        "GDELT_DOC": 0,
        "DIRECT_FEED": 0,
        "USGS": 0,
        "GDACS": 0
      },
      "last7_score": 64.656,
      "prev7_score": 10.838,
      "trend": "up",
      "trend_arrow": "🔺",
      "change_pct": 496.5,
      "place": "Warsaw, Poland"
    }
  ]
}