{
  "generated_utc": "2026-04-20T02:50:06Z",
  "top": [
    {
      "lon": 14.25,
      "lat": 50.25,
      "type": "hotspot_cell",
      "score": 764.547,
      "count": 1372,
      "cell_deg": 0.5,
      "sources": {
        "GDELT": 125,
        "GDELT_DOC": 1245,
        "DIRECT_FEED": 2,
        "USGS": 0,
        "GDACS": 0
      },
      "last7_score": 759.833,
      "prev7_score": 4.715,
      "trend": "up",
      "trend_arrow": "🔺",
      "change_pct": 16016.3,
      "place": "SO ORP Kralupy nad Vltavou, Czechia"
    },
    {
      "lon": 26.25,
      "lat": 44.25,
      "type": "hotspot_cell",
      "score": 665.481,
      "count": 1199,
      "cell_deg": 0.5,
      "sources": {
        "GDELT": 95,
        "GDELT_DOC": 1102,
        "DIRECT_FEED": 2,
        "USGS": 0,
        "GDACS": 0
      },
      "last7_score": 661.016,
      "prev7_score": 4.465,
      "trend": "up",
      "trend_arrow": "🔺",
      "change_pct": 14704.2,
      "place": "Giurgiu, Romania"
    },
    {
      "lon": 25.25,
      "lat": 54.75,
      "type": "hotspot_cell",
      "score": 500.326,
      "count": 832,
      "cell_deg": 0.5,
      "sources": {
        "GDELT": 73,
        "GDELT_DOC": 759,
        "DIRECT_FEED": 0,
        "USGS": 0,
        "GDACS": 0
      },
      "last7_score": 494.713,
      "prev7_score": 5.613,
      "trend": "up",
      "trend_arrow": "🔺",
      "change_pct": 8712.9,
      "place": "Vilnius County, Lithuania"
    },
    {
      "lon": 19.25,
      "lat": 47.75,
      "type": "hotspot_cell",
      "score": 464.733,
      "count": 1463,
      "cell_deg": 0.5,
      "sources": {
        "GDELT": 1169,
        "GDELT_DOC": 0,
        "DIRECT_FEED": 294,
        "USGS": 0,
        "GDACS": 0
      },
      "last7_score": 322.844,
      "prev7_score": 141.889,
      "trend": "up",
      "trend_arrow": "🔺",
      "change_pct": 127.5,
      "place": "Pest, Hungary"
    },
    {
      "lon": 20.25,
      "lat": 47.25,
      "type": "hotspot_cell",
      "score": 253.416,
      "count": 793,
      "cell_deg": 0.5,
      "sources": {
        "GDELT": 793,
        "GDELT_DOC": 0,
        "DIRECT_FEED": 0,
        "USGS": 0,
        "GDACS": 0
      },
      "last7_score": 176.395,
      "prev7_score": 77.021,
      "trend": "up",
      "trend_arrow": "🔺",
      "change_pct": 129.0,
      "place": "Jász-Nagykun-Szolnok, Hungary"
    },
    {
      "lon": 20.25,
      "lat": 52.25,
      "type": "hotspot_cell",
      "score": 147.194,
      "count": 404,
      "cell_deg": 0.5,
      "sources": {
        "GDELT": 404,
        "GDELT_DOC": 0,
        "DIRECT_FEED": 0,
        "USGS": 0,
        "GDACS": 0
      },
      "last7_score": 117.017,
      "prev7_score": 30.177,
      "trend": "up",
      "trend_arrow": "🔺",
      "change_pct": 287.8,
      "place": "Sochaczew County, Poland"
    },
    {
      "lon": 24.25,
      "lat": 56.75,
      "type": "hotspot_cell",
      "score": 88.41,
      "count": 157,
      "cell_deg": 0.5,
      "sources": {
        "GDELT": 32,
        "GDELT_DOC": 0,
        "DIRECT_FEED": 125,
        "USGS": 0,
        "GDACS": 0
      },
      "last7_score": 86.028,
      "prev7_score": 2.382,
      "trend": "up",
      "trend_arrow": "🔺",
      "change_pct": 3512.2,
      "place": "Ķekavas novads, Latvia"
    },
    {
      "lon": 25.25,
      "lat": 46.25,
      "type": "hotspot_cell",
      "score": 78.048,
      "count": 238,
      "cell_deg": 0.5,
      "sources": {
        "GDELT": 238,
        "GDELT_DOC": 0,
        "DIRECT_FEED": 0,
        "USGS": 0,
        "GDACS": 0
      },
      "last7_score": 64.973,
      "prev7_score": 13.074,
      "trend": "up",
      "trend_arrow": "🔺",
      "change_pct": 397.0,
      "place": "Harghita, Romania"
    },
    {
      "lon": 15.25,
      "lat": 49.75,
      "type": "hotspot_cell",
      "score": 74.937,
      "count": 181,
      "cell_deg": 0.5,
      "sources": {
        "GDELT": 181,
        "GDELT_DOC": 0,
        "DIRECT_FEED": 0,
        "USGS": 0,
        "GDACS": 0
      },
      "last7_score": 62.093,
      "prev7_score": 12.845,
      "trend": "up",
      "trend_arrow": "🔺",
      "change_pct": 383.4,
      "place": "Vysočina Region, Czechia"
    },
    {
      "lon": 21.25,
      "lat": 52.25,
      "type": "hotspot_cell",
      "score": 61.065,
      "count": 171,
      "cell_deg": 0.5,
      "sources": {
        "GDELT": 171,
        "GDELT_DOC": 0,
        "DIRECT_FEED": 0,
        "USGS": 0,
        "GDACS": 0
      },
      "last7_score": 49.116,
      "prev7_score": 11.949,
      "trend": "up",
      "trend_arrow": "🔺",
      "change_pct": 311.0,
      "place": "Warsaw, Poland"
    }
  ]
}