{
  "generated_utc": "2026-04-16T07:51:15Z",
  "top": [
    {
      "lon": 14.25,
      "lat": 50.25,
      "type": "hotspot_cell",
      "score": 897.515,
      "count": 1385,
      "cell_deg": 0.5,
      "sources": {
        "GDELT": 79,
        "GDELT_DOC": 1306,
        "DIRECT_FEED": 0,
        "USGS": 0,
        "GDACS": 0
      },
      "last7_score": 891.83,
      "prev7_score": 5.685,
      "trend": "up",
      "trend_arrow": "🔺",
      "change_pct": 15587.6,
      "place": "SO ORP Kralupy nad Vltavou, Czechia"
    },
    {
      "lon": 26.25,
      "lat": 44.25,
      "type": "hotspot_cell",
      "score": 786.121,
      "count": 1334,
      "cell_deg": 0.5,
      "sources": {
        "GDELT": 101,
        "GDELT_DOC": 1232,
        "DIRECT_FEED": 1,
        "USGS": 0,
        "GDACS": 0
      },
      "last7_score": 776.802,
      "prev7_score": 9.319,
      "trend": "up",
      "trend_arrow": "🔺",
      "change_pct": 8235.8,
      "place": "Giurgiu, Romania"
    },
    {
      "lon": 19.25,
      "lat": 47.75,
      "type": "hotspot_cell",
      "score": 759.657,
      "count": 1458,
      "cell_deg": 0.5,
      "sources": {
        "GDELT": 1130,
        "GDELT_DOC": 0,
        "DIRECT_FEED": 328,
        "USGS": 0,
        "GDACS": 0
      },
      "last7_score": 688.536,
      "prev7_score": 71.121,
      "trend": "up",
      "trend_arrow": "🔺",
      "change_pct": 868.1,
      "place": "Pest, Hungary"
    },
    {
      "lon": 25.25,
      "lat": 54.75,
      "type": "hotspot_cell",
      "score": 512.966,
      "count": 879,
      "cell_deg": 0.5,
      "sources": {
        "GDELT": 70,
        "GDELT_DOC": 807,
        "DIRECT_FEED": 2,
        "USGS": 0,
        "GDACS": 0
      },
      "last7_score": 508.148,
      "prev7_score": 4.818,
      "trend": "up",
      "trend_arrow": "🔺",
      "change_pct": 10447.0,
      "place": "Vilnius County, Lithuania"
    },
    {
      "lon": 20.25,
      "lat": 47.25,
      "type": "hotspot_cell",
      "score": 357.589,
      "count": 727,
      "cell_deg": 0.5,
      "sources": {
        "GDELT": 727,
        "GDELT_DOC": 0,
        "DIRECT_FEED": 0,
        "USGS": 0,
        "GDACS": 0
      },
      "last7_score": 315.846,
      "prev7_score": 41.742,
      "trend": "up",
      "trend_arrow": "🔺",
      "change_pct": 656.7,
      "place": "Jász-Nagykun-Szolnok, Hungary"
    },
    {
      "lon": 20.25,
      "lat": 52.25,
      "type": "hotspot_cell",
      "score": 142.617,
      "count": 362,
      "cell_deg": 0.5,
      "sources": {
        "GDELT": 362,
        "GDELT_DOC": 0,
        "DIRECT_FEED": 0,
        "USGS": 0,
        "GDACS": 0
      },
      "last7_score": 114.404,
      "prev7_score": 28.213,
      "trend": "up",
      "trend_arrow": "🔺",
      "change_pct": 305.5,
      "place": "Sochaczew County, Poland"
    },
    {
      "lon": 24.25,
      "lat": 56.75,
      "type": "hotspot_cell",
      "score": 111.346,
      "count": 155,
      "cell_deg": 0.5,
      "sources": {
        "GDELT": 25,
        "GDELT_DOC": 0,
        "DIRECT_FEED": 130,
        "USGS": 0,
        "GDACS": 0
      },
      "last7_score": 109.344,
      "prev7_score": 2.002,
      "trend": "up",
      "trend_arrow": "🔺",
      "change_pct": 5362.6,
      "place": "Ķekavas novads, Latvia"
    },
    {
      "lon": 25.25,
      "lat": 46.25,
      "type": "hotspot_cell",
      "score": 97.425,
      "count": 234,
      "cell_deg": 0.5,
      "sources": {
        "GDELT": 234,
        "GDELT_DOC": 0,
        "DIRECT_FEED": 0,
        "USGS": 0,
        "GDACS": 0
      },
      "last7_score": 76.74,
      "prev7_score": 20.685,
      "trend": "up",
      "trend_arrow": "🔺",
      "change_pct": 271.0,
      "place": "Harghita, Romania"
    },
    {
      "lon": 21.25,
      "lat": 52.25,
      "type": "hotspot_cell",
      "score": 85.424,
      "count": 158,
      "cell_deg": 0.5,
      "sources": {
        "GDELT": 158,
        "GDELT_DOC": 0,
        "DIRECT_FEED": 0,
        "USGS": 0,
        "GDACS": 0
      },
      "last7_score": 77.358,
      "prev7_score": 8.065,
      "trend": "up",
      "trend_arrow": "🔺",
      "change_pct": 859.1,
      "place": "Warsaw, Poland"
    },
    {
      "lon": 15.25,
      "lat": 49.75,
      "type": "hotspot_cell",
      "score": 65.776,
      "count": 143,
      "cell_deg": 0.5,
      "sources": {
        "GDELT": 143,
        "GDELT_DOC": 0,
        "DIRECT_FEED": 0,
        "USGS": 0,
        "GDACS": 0
      },
      "last7_score": 56.709,
      "prev7_score": 9.067,
      "trend": "up",
      "trend_arrow": "🔺",
      "change_pct": 525.4,
      "place": "Vysočina Region, Czechia"
    }
  ]
}