{
  "generated_utc": "2026-03-15T07:03:09Z",
  "top": [
    {
      "lon": 26.25,
      "lat": 44.25,
      "type": "hotspot_cell",
      "score": 809.663,
      "count": 1391,
      "cell_deg": 0.5,
      "sources": {
        "GDELT": 204,
        "GDELT_DOC": 1183,
        "DIRECT_FEED": 4,
        "USGS": 0,
        "GDACS": 0
      },
      "last7_score": 799.507,
      "prev7_score": 10.156,
      "trend": "up",
      "trend_arrow": "🔺",
      "change_pct": 7772.4,
      "place": "Giurgiu, Romania"
    },
    {
      "lon": 14.25,
      "lat": 50.25,
      "type": "hotspot_cell",
      "score": 736.309,
      "count": 1243,
      "cell_deg": 0.5,
      "sources": {
        "GDELT": 139,
        "GDELT_DOC": 1098,
        "DIRECT_FEED": 6,
        "USGS": 0,
        "GDACS": 0
      },
      "last7_score": 725.645,
      "prev7_score": 10.663,
      "trend": "up",
      "trend_arrow": "🔺",
      "change_pct": 6705.0,
      "place": "SO ORP Kralupy nad Vltavou, Czechia"
    },
    {
      "lon": 25.25,
      "lat": 54.75,
      "type": "hotspot_cell",
      "score": 523.91,
      "count": 886,
      "cell_deg": 0.5,
      "sources": {
        "GDELT": 73,
        "GDELT_DOC": 813,
        "DIRECT_FEED": 0,
        "USGS": 0,
        "GDACS": 0
      },
      "last7_score": 519.905,
      "prev7_score": 4.005,
      "trend": "up",
      "trend_arrow": "🔺",
      "change_pct": 12881.4,
      "place": "Vilnius County, Lithuania"
    },
    {
      "lon": 19.25,
      "lat": 47.75,
      "type": "hotspot_cell",
      "score": 243.858,
      "count": 579,
      "cell_deg": 0.5,
      "sources": {
        "GDELT": 402,
        "GDELT_DOC": 0,
        "DIRECT_FEED": 177,
        "USGS": 0,
        "GDACS": 0
      },
      "last7_score": 209.064,
      "prev7_score": 34.793,
      "trend": "up",
      "trend_arrow": "🔺",
      "change_pct": 500.9,
      "place": "Pest, Hungary"
    },
    {
      "lon": 20.25,
      "lat": 52.25,
      "type": "hotspot_cell",
      "score": 146.148,
      "count": 448,
      "cell_deg": 0.5,
      "sources": {
        "GDELT": 448,
        "GDELT_DOC": 0,
        "DIRECT_FEED": 0,
        "USGS": 0,
        "GDACS": 0
      },
      "last7_score": 112.812,
      "prev7_score": 33.336,
      "trend": "up",
      "trend_arrow": "🔺",
      "change_pct": 238.4,
      "place": "Sochaczew County, Poland"
    },
    {
      "lon": 20.25,
      "lat": 47.25,
      "type": "hotspot_cell",
      "score": 136.044,
      "count": 354,
      "cell_deg": 0.5,
      "sources": {
        "GDELT": 354,
        "GDELT_DOC": 0,
        "DIRECT_FEED": 0,
        "USGS": 0,
        "GDACS": 0
      },
      "last7_score": 112.591,
      "prev7_score": 23.453,
      "trend": "up",
      "trend_arrow": "🔺",
      "change_pct": 380.1,
      "place": "Jász-Nagykun-Szolnok, Hungary"
    },
    {
      "lon": 24.25,
      "lat": 56.75,
      "type": "hotspot_cell",
      "score": 120.387,
      "count": 193,
      "cell_deg": 0.5,
      "sources": {
        "GDELT": 31,
        "GDELT_DOC": 0,
        "DIRECT_FEED": 162,
        "USGS": 0,
        "GDACS": 0
      },
      "last7_score": 118.509,
      "prev7_score": 1.877,
      "trend": "up",
      "trend_arrow": "🔺",
      "change_pct": 6213.1,
      "place": "Ķekavas novads, Latvia"
    },
    {
      "lon": 25.25,
      "lat": 46.25,
      "type": "hotspot_cell",
      "score": 106.662,
      "count": 316,
      "cell_deg": 0.5,
      "sources": {
        "GDELT": 316,
        "GDELT_DOC": 0,
        "DIRECT_FEED": 0,
        "USGS": 0,
        "GDACS": 0
      },
      "last7_score": 89.558,
      "prev7_score": 17.105,
      "trend": "up",
      "trend_arrow": "🔺",
      "change_pct": 423.6,
      "place": "Harghita, Romania"
    },
    {
      "lon": 21.25,
      "lat": 52.25,
      "type": "hotspot_cell",
      "score": 76.18,
      "count": 220,
      "cell_deg": 0.5,
      "sources": {
        "GDELT": 220,
        "GDELT_DOC": 0,
        "DIRECT_FEED": 0,
        "USGS": 0,
        "GDACS": 0
      },
      "last7_score": 60.679,
      "prev7_score": 15.501,
      "trend": "up",
      "trend_arrow": "🔺",
      "change_pct": 291.5,
      "place": "Warsaw, Poland"
    },
    {
      "lon": 27.75,
      "lat": 47.25,
      "type": "hotspot_cell",
      "score": 58.041,
      "count": 86,
      "cell_deg": 0.5,
      "sources": {
        "GDELT": 0,
        "GDELT_DOC": 86,
        "DIRECT_FEED": 0,
        "USGS": 0,
        "GDACS": 0
      },
      "last7_score": 58.041,
      "prev7_score": 0.0,
      "trend": "new",
      "trend_arrow": "🆕",
      "change_pct": null,
      "place": "Iași, Romania"
    }
  ]
}