{
  "generated_utc": "2026-05-23T19:21:47Z",
  "top": [
    {
      "lon": 14.25,
      "lat": 50.25,
      "type": "hotspot_cell",
      "score": 974.953,
      "count": 1497,
      "cell_deg": 0.5,
      "sources": {
        "GDELT": 140,
        "GDELT_DOC": 1340,
        "DIRECT_FEED": 17,
        "USGS": 0,
        "GDACS": 0
      },
      "last7_score": 967.105,
      "prev7_score": 7.849,
      "trend": "up",
      "trend_arrow": "🔺",
      "change_pct": 12221.8,
      "place": "SO ORP Kralupy nad Vltavou, Czechia"
    },
    {
      "lon": 26.25,
      "lat": 44.25,
      "type": "hotspot_cell",
      "score": 971.905,
      "count": 1632,
      "cell_deg": 0.5,
      "sources": {
        "GDELT": 192,
        "GDELT_DOC": 1438,
        "DIRECT_FEED": 2,
        "USGS": 0,
        "GDACS": 0
      },
      "last7_score": 955.717,
      "prev7_score": 16.188,
      "trend": "up",
      "trend_arrow": "🔺",
      "change_pct": 5803.8,
      "place": "Giurgiu, Romania"
    },
    {
      "lon": 25.25,
      "lat": 54.75,
      "type": "hotspot_cell",
      "score": 723.482,
      "count": 1091,
      "cell_deg": 0.5,
      "sources": {
        "GDELT": 102,
        "GDELT_DOC": 988,
        "DIRECT_FEED": 1,
        "USGS": 0,
        "GDACS": 0
      },
      "last7_score": 718.943,
      "prev7_score": 4.539,
      "trend": "up",
      "trend_arrow": "🔺",
      "change_pct": 15738.9,
      "place": "Vilnius County, Lithuania"
    },
    {
      "lon": 20.25,
      "lat": 52.25,
      "type": "hotspot_cell",
      "score": 394.702,
      "count": 808,
      "cell_deg": 0.5,
      "sources": {
        "GDELT": 808,
        "GDELT_DOC": 0,
        "DIRECT_FEED": 0,
        "USGS": 0,
        "GDACS": 0
      },
      "last7_score": 349.902,
      "prev7_score": 44.799,
      "trend": "up",
      "trend_arrow": "🔺",
      "change_pct": 681.0,
      "place": "Sochaczew County, Poland"
    },
    {
      "lon": 19.25,
      "lat": 47.75,
      "type": "hotspot_cell",
      "score": 244.576,
      "count": 496,
      "cell_deg": 0.5,
      "sources": {
        "GDELT": 259,
        "GDELT_DOC": 0,
        "DIRECT_FEED": 237,
        "USGS": 0,
        "GDACS": 0
      },
      "last7_score": 227.401,
      "prev7_score": 17.175,
      "trend": "up",
      "trend_arrow": "🔺",
      "change_pct": 1224.0,
      "place": "Pest, Hungary"
    },
    {
      "lon": 21.25,
      "lat": 52.25,
      "type": "hotspot_cell",
      "score": 123.766,
      "count": 275,
      "cell_deg": 0.5,
      "sources": {
        "GDELT": 275,
        "GDELT_DOC": 0,
        "DIRECT_FEED": 0,
        "USGS": 0,
        "GDACS": 0
      },
      "last7_score": 107.244,
      "prev7_score": 16.522,
      "trend": "up",
      "trend_arrow": "🔺",
      "change_pct": 549.1,
      "place": "Warsaw, Poland"
    },
    {
      "lon": 25.25,
      "lat": 46.25,
      "type": "hotspot_cell",
      "score": 114.513,
      "count": 312,
      "cell_deg": 0.5,
      "sources": {
        "GDELT": 312,
        "GDELT_DOC": 0,
        "DIRECT_FEED": 0,
        "USGS": 0,
        "GDACS": 0
      },
      "last7_score": 96.17,
      "prev7_score": 18.342,
      "trend": "up",
      "trend_arrow": "🔺",
      "change_pct": 424.3,
      "place": "Harghita, Romania"
    },
    {
      "lon": 24.25,
      "lat": 56.75,
      "type": "hotspot_cell",
      "score": 111.857,
      "count": 177,
      "cell_deg": 0.5,
      "sources": {
        "GDELT": 52,
        "GDELT_DOC": 0,
        "DIRECT_FEED": 125,
        "USGS": 0,
        "GDACS": 0
      },
      "last7_score": 108.543,
      "prev7_score": 3.313,
      "trend": "up",
      "trend_arrow": "🔺",
      "change_pct": 3175.9,
      "place": "Ķekavas novads, Latvia"
    },
    {
      "lon": 20.25,
      "lat": 47.25,
      "type": "hotspot_cell",
      "score": 101.669,
      "count": 292,
      "cell_deg": 0.5,
      "sources": {
        "GDELT": 292,
        "GDELT_DOC": 0,
        "DIRECT_FEED": 0,
        "USGS": 0,
        "GDACS": 0
      },
      "last7_score": 83.141,
      "prev7_score": 18.527,
      "trend": "up",
      "trend_arrow": "🔺",
      "change_pct": 348.8,
      "place": "Jász-Nagykun-Szolnok, Hungary"
    },
    {
      "lon": 26.25,
      "lat": 59.25,
      "type": "hotspot_cell",
      "score": 75.271,
      "count": 160,
      "cell_deg": 0.5,
      "sources": {
        "GDELT": 160,
        "GDELT_DOC": 0,
        "DIRECT_FEED": 0,
        "USGS": 0,
        "GDACS": 0
      },
      "last7_score": 67.709,
      "prev7_score": 7.562,
      "trend": "up",
      "trend_arrow": "🔺",
      "change_pct": 795.4,
      "place": "Lääne-Viru County, Estonia"
    }
  ]
}