{
  "generated_utc": "2026-05-31T02:43:05Z",
  "top": [
    {
      "lon": 14.25,
      "lat": 50.25,
      "type": "hotspot_cell",
      "score": 794.719,
      "count": 1438,
      "cell_deg": 0.5,
      "sources": {
        "GDELT": 145,
        "GDELT_DOC": 1282,
        "DIRECT_FEED": 11,
        "USGS": 0,
        "GDACS": 0
      },
      "last7_score": 782.044,
      "prev7_score": 12.675,
      "trend": "up",
      "trend_arrow": "🔺",
      "change_pct": 6069.9,
      "place": "SO ORP Kralupy nad Vltavou, Czechia"
    },
    {
      "lon": 25.25,
      "lat": 54.75,
      "type": "hotspot_cell",
      "score": 730.284,
      "count": 1187,
      "cell_deg": 0.5,
      "sources": {
        "GDELT": 105,
        "GDELT_DOC": 1080,
        "DIRECT_FEED": 2,
        "USGS": 0,
        "GDACS": 0
      },
      "last7_score": 721.031,
      "prev7_score": 9.253,
      "trend": "up",
      "trend_arrow": "🔺",
      "change_pct": 7692.6,
      "place": "Vilnius County, Lithuania"
    },
    {
      "lon": 26.25,
      "lat": 44.25,
      "type": "hotspot_cell",
      "score": 724.093,
      "count": 1187,
      "cell_deg": 0.5,
      "sources": {
        "GDELT": 209,
        "GDELT_DOC": 967,
        "DIRECT_FEED": 11,
        "USGS": 0,
        "GDACS": 0
      },
      "last7_score": 717.292,
      "prev7_score": 6.801,
      "trend": "up",
      "trend_arrow": "🔺",
      "change_pct": 10447.1,
      "place": "Giurgiu, Romania"
    },
    {
      "lon": 20.25,
      "lat": 52.25,
      "type": "hotspot_cell",
      "score": 239.315,
      "count": 757,
      "cell_deg": 0.5,
      "sources": {
        "GDELT": 757,
        "GDELT_DOC": 0,
        "DIRECT_FEED": 0,
        "USGS": 0,
        "GDACS": 0
      },
      "last7_score": 168.265,
      "prev7_score": 71.05,
      "trend": "up",
      "trend_arrow": "🔺",
      "change_pct": 136.8,
      "place": "Sochaczew County, Poland"
    },
    {
      "lon": 19.25,
      "lat": 47.75,
      "type": "hotspot_cell",
      "score": 234.336,
      "count": 430,
      "cell_deg": 0.5,
      "sources": {
        "GDELT": 226,
        "GDELT_DOC": 0,
        "DIRECT_FEED": 204,
        "USGS": 0,
        "GDACS": 0
      },
      "last7_score": 221.565,
      "prev7_score": 12.772,
      "trend": "up",
      "trend_arrow": "🔺",
      "change_pct": 1634.8,
      "place": "Pest, Hungary"
    },
    {
      "lon": 25.25,
      "lat": 46.25,
      "type": "hotspot_cell",
      "score": 220.123,
      "count": 442,
      "cell_deg": 0.5,
      "sources": {
        "GDELT": 442,
        "GDELT_DOC": 0,
        "DIRECT_FEED": 0,
        "USGS": 0,
        "GDACS": 0
      },
      "last7_score": 196.695,
      "prev7_score": 23.429,
      "trend": "up",
      "trend_arrow": "🔺",
      "change_pct": 739.5,
      "place": "Harghita, Romania"
    },
    {
      "lon": 24.25,
      "lat": 56.75,
      "type": "hotspot_cell",
      "score": 107.771,
      "count": 179,
      "cell_deg": 0.5,
      "sources": {
        "GDELT": 53,
        "GDELT_DOC": 0,
        "DIRECT_FEED": 126,
        "USGS": 0,
        "GDACS": 0
      },
      "last7_score": 104.286,
      "prev7_score": 3.485,
      "trend": "up",
      "trend_arrow": "🔺",
      "change_pct": 2892.8,
      "place": "Ķekavas novads, Latvia"
    },
    {
      "lon": 20.25,
      "lat": 47.25,
      "type": "hotspot_cell",
      "score": 100.05,
      "count": 260,
      "cell_deg": 0.5,
      "sources": {
        "GDELT": 260,
        "GDELT_DOC": 0,
        "DIRECT_FEED": 0,
        "USGS": 0,
        "GDACS": 0
      },
      "last7_score": 82.305,
      "prev7_score": 17.745,
      "trend": "up",
      "trend_arrow": "🔺",
      "change_pct": 363.8,
      "place": "Jász-Nagykun-Szolnok, Hungary"
    },
    {
      "lon": 21.25,
      "lat": 52.25,
      "type": "hotspot_cell",
      "score": 97.876,
      "count": 267,
      "cell_deg": 0.5,
      "sources": {
        "GDELT": 267,
        "GDELT_DOC": 0,
        "DIRECT_FEED": 0,
        "USGS": 0,
        "GDACS": 0
      },
      "last7_score": 75.915,
      "prev7_score": 21.96,
      "trend": "up",
      "trend_arrow": "🔺",
      "change_pct": 245.7,
      "place": "Warsaw, Poland"
    },
    {
      "lon": 15.25,
      "lat": 49.75,
      "type": "hotspot_cell",
      "score": 63.781,
      "count": 163,
      "cell_deg": 0.5,
      "sources": {
        "GDELT": 163,
        "GDELT_DOC": 0,
        "DIRECT_FEED": 0,
        "USGS": 0,
        "GDACS": 0
      },
      "last7_score": 53.844,
      "prev7_score": 9.938,
      "trend": "up",
      "trend_arrow": "🔺",
      "change_pct": 441.8,
      "place": "Vysočina Region, Czechia"
    }
  ]
}