{
  "generated_utc": "2026-05-31T19:10:03Z",
  "top": [
    {
      "lon": 26.25,
      "lat": 44.25,
      "type": "hotspot_cell",
      "score": 776.969,
      "count": 1287,
      "cell_deg": 0.5,
      "sources": {
        "GDELT": 214,
        "GDELT_DOC": 1061,
        "DIRECT_FEED": 12,
        "USGS": 0,
        "GDACS": 0
      },
      "last7_score": 771.165,
      "prev7_score": 5.805,
      "trend": "up",
      "trend_arrow": "🔺",
      "change_pct": 13184.9,
      "place": "Giurgiu, Romania"
    },
    {
      "lon": 25.25,
      "lat": 54.75,
      "type": "hotspot_cell",
      "score": 709.435,
      "count": 1181,
      "cell_deg": 0.5,
      "sources": {
        "GDELT": 106,
        "GDELT_DOC": 1073,
        "DIRECT_FEED": 2,
        "USGS": 0,
        "GDACS": 0
      },
      "last7_score": 701.537,
      "prev7_score": 7.898,
      "trend": "up",
      "trend_arrow": "🔺",
      "change_pct": 8782.9,
      "place": "Vilnius County, Lithuania"
    },
    {
      "lon": 14.25,
      "lat": 50.25,
      "type": "hotspot_cell",
      "score": 676.311,
      "count": 1290,
      "cell_deg": 0.5,
      "sources": {
        "GDELT": 153,
        "GDELT_DOC": 1126,
        "DIRECT_FEED": 11,
        "USGS": 0,
        "GDACS": 0
      },
      "last7_score": 665.492,
      "prev7_score": 10.819,
      "trend": "up",
      "trend_arrow": "🔺",
      "change_pct": 6051.3,
      "place": "SO ORP Kralupy nad Vltavou, Czechia"
    },
    {
      "lon": 20.25,
      "lat": 52.25,
      "type": "hotspot_cell",
      "score": 225.703,
      "count": 776,
      "cell_deg": 0.5,
      "sources": {
        "GDELT": 776,
        "GDELT_DOC": 0,
        "DIRECT_FEED": 0,
        "USGS": 0,
        "GDACS": 0
      },
      "last7_score": 165.059,
      "prev7_score": 60.644,
      "trend": "up",
      "trend_arrow": "🔺",
      "change_pct": 172.2,
      "place": "Sochaczew County, Poland"
    },
    {
      "lon": 19.25,
      "lat": 47.75,
      "type": "hotspot_cell",
      "score": 225.49,
      "count": 436,
      "cell_deg": 0.5,
      "sources": {
        "GDELT": 233,
        "GDELT_DOC": 0,
        "DIRECT_FEED": 203,
        "USGS": 0,
        "GDACS": 0
      },
      "last7_score": 214.588,
      "prev7_score": 10.901,
      "trend": "up",
      "trend_arrow": "🔺",
      "change_pct": 1868.5,
      "place": "Pest, Hungary"
    },
    {
      "lon": 25.25,
      "lat": 46.25,
      "type": "hotspot_cell",
      "score": 193.83,
      "count": 447,
      "cell_deg": 0.5,
      "sources": {
        "GDELT": 447,
        "GDELT_DOC": 0,
        "DIRECT_FEED": 0,
        "USGS": 0,
        "GDACS": 0
      },
      "last7_score": 173.832,
      "prev7_score": 19.997,
      "trend": "up",
      "trend_arrow": "🔺",
      "change_pct": 769.3,
      "place": "Harghita, Romania"
    },
    {
      "lon": 24.25,
      "lat": 56.75,
      "type": "hotspot_cell",
      "score": 111.248,
      "count": 188,
      "cell_deg": 0.5,
      "sources": {
        "GDELT": 55,
        "GDELT_DOC": 0,
        "DIRECT_FEED": 133,
        "USGS": 0,
        "GDACS": 0
      },
      "last7_score": 108.274,
      "prev7_score": 2.974,
      "trend": "up",
      "trend_arrow": "🔺",
      "change_pct": 3540.4,
      "place": "Ķekavas novads, Latvia"
    },
    {
      "lon": 20.25,
      "lat": 47.25,
      "type": "hotspot_cell",
      "score": 95.666,
      "count": 269,
      "cell_deg": 0.5,
      "sources": {
        "GDELT": 269,
        "GDELT_DOC": 0,
        "DIRECT_FEED": 0,
        "USGS": 0,
        "GDACS": 0
      },
      "last7_score": 80.52,
      "prev7_score": 15.146,
      "trend": "up",
      "trend_arrow": "🔺",
      "change_pct": 431.6,
      "place": "Jász-Nagykun-Szolnok, Hungary"
    },
    {
      "lon": 21.25,
      "lat": 52.25,
      "type": "hotspot_cell",
      "score": 93.737,
      "count": 276,
      "cell_deg": 0.5,
      "sources": {
        "GDELT": 276,
        "GDELT_DOC": 0,
        "DIRECT_FEED": 0,
        "USGS": 0,
        "GDACS": 0
      },
      "last7_score": 74.993,
      "prev7_score": 18.744,
      "trend": "up",
      "trend_arrow": "🔺",
      "change_pct": 300.1,
      "place": "Warsaw, Poland"
    },
    {
      "lon": 22.25,
      "lat": 55.25,
      "type": "hotspot_cell",
      "score": 77.323,
      "count": 93,
      "cell_deg": 0.5,
      "sources": {
        "GDELT": 0,
        "GDELT_DOC": 93,
        "DIRECT_FEED": 0,
        "USGS": 0,
        "GDACS": 0
      },
      "last7_score": 77.323,
      "prev7_score": 0.0,
      "trend": "new",
      "trend_arrow": "🆕",
      "change_pct": null,
      "place": "Tauragės seniūnija, Lithuania"
    }
  ]
}