{
  "generated_utc": "2026-06-01T21:29:51Z",
  "top": [
    {
      "lon": 14.25,
      "lat": 50.25,
      "type": "hotspot_cell",
      "score": 721.938,
      "count": 1325,
      "cell_deg": 0.5,
      "sources": {
        "GDELT": 156,
        "GDELT_DOC": 1159,
        "DIRECT_FEED": 10,
        "USGS": 0,
        "GDACS": 0
      },
      "last7_score": 712.227,
      "prev7_score": 9.711,
      "trend": "up",
      "trend_arrow": "🔺",
      "change_pct": 7234.0,
      "place": "SO ORP Kralupy nad Vltavou, Czechia"
    },
    {
      "lon": 25.25,
      "lat": 54.75,
      "type": "hotspot_cell",
      "score": 700.078,
      "count": 1203,
      "cell_deg": 0.5,
      "sources": {
        "GDELT": 113,
        "GDELT_DOC": 1089,
        "DIRECT_FEED": 1,
        "USGS": 0,
        "GDACS": 0
      },
      "last7_score": 692.69,
      "prev7_score": 7.388,
      "trend": "up",
      "trend_arrow": "🔺",
      "change_pct": 9275.4,
      "place": "Vilnius County, Lithuania"
    },
    {
      "lon": 26.25,
      "lat": 44.25,
      "type": "hotspot_cell",
      "score": 569.724,
      "count": 1096,
      "cell_deg": 0.5,
      "sources": {
        "GDELT": 217,
        "GDELT_DOC": 868,
        "DIRECT_FEED": 11,
        "USGS": 0,
        "GDACS": 0
      },
      "last7_score": 563.787,
      "prev7_score": 5.937,
      "trend": "up",
      "trend_arrow": "🔺",
      "change_pct": 9396.5,
      "place": "Giurgiu, Romania"
    },
    {
      "lon": 19.25,
      "lat": 47.75,
      "type": "hotspot_cell",
      "score": 230.151,
      "count": 449,
      "cell_deg": 0.5,
      "sources": {
        "GDELT": 236,
        "GDELT_DOC": 0,
        "DIRECT_FEED": 213,
        "USGS": 0,
        "GDACS": 0
      },
      "last7_score": 220.628,
      "prev7_score": 9.523,
      "trend": "up",
      "trend_arrow": "🔺",
      "change_pct": 2216.8,
      "place": "Pest, Hungary"
    },
    {
      "lon": 20.25,
      "lat": 52.25,
      "type": "hotspot_cell",
      "score": 226.071,
      "count": 793,
      "cell_deg": 0.5,
      "sources": {
        "GDELT": 793,
        "GDELT_DOC": 0,
        "DIRECT_FEED": 0,
        "USGS": 0,
        "GDACS": 0
      },
      "last7_score": 170.46,
      "prev7_score": 55.611,
      "trend": "up",
      "trend_arrow": "🔺",
      "change_pct": 206.5,
      "place": "Sochaczew County, Poland"
    },
    {
      "lon": 25.25,
      "lat": 46.25,
      "type": "hotspot_cell",
      "score": 188.24,
      "count": 463,
      "cell_deg": 0.5,
      "sources": {
        "GDELT": 463,
        "GDELT_DOC": 0,
        "DIRECT_FEED": 0,
        "USGS": 0,
        "GDACS": 0
      },
      "last7_score": 165.821,
      "prev7_score": 22.419,
      "trend": "up",
      "trend_arrow": "🔺",
      "change_pct": 639.6,
      "place": "Harghita, Romania"
    },
    {
      "lon": 24.25,
      "lat": 56.75,
      "type": "hotspot_cell",
      "score": 118.952,
      "count": 196,
      "cell_deg": 0.5,
      "sources": {
        "GDELT": 54,
        "GDELT_DOC": 0,
        "DIRECT_FEED": 142,
        "USGS": 0,
        "GDACS": 0
      },
      "last7_score": 116.16,
      "prev7_score": 2.792,
      "trend": "up",
      "trend_arrow": "🔺",
      "change_pct": 4060.5,
      "place": "Ķekavas novads, Latvia"
    },
    {
      "lon": 20.25,
      "lat": 47.25,
      "type": "hotspot_cell",
      "score": 102.707,
      "count": 273,
      "cell_deg": 0.5,
      "sources": {
        "GDELT": 273,
        "GDELT_DOC": 0,
        "DIRECT_FEED": 0,
        "USGS": 0,
        "GDACS": 0
      },
      "last7_score": 89.282,
      "prev7_score": 13.425,
      "trend": "up",
      "trend_arrow": "🔺",
      "change_pct": 565.0,
      "place": "Jász-Nagykun-Szolnok, Hungary"
    },
    {
      "lon": 21.25,
      "lat": 52.25,
      "type": "hotspot_cell",
      "score": 89.031,
      "count": 283,
      "cell_deg": 0.5,
      "sources": {
        "GDELT": 283,
        "GDELT_DOC": 0,
        "DIRECT_FEED": 0,
        "USGS": 0,
        "GDACS": 0
      },
      "last7_score": 73.341,
      "prev7_score": 15.691,
      "trend": "up",
      "trend_arrow": "🔺",
      "change_pct": 367.4,
      "place": "Warsaw, Poland"
    },
    {
      "lon": 22.25,
      "lat": 55.25,
      "type": "hotspot_cell",
      "score": 62.366,
      "count": 90,
      "cell_deg": 0.5,
      "sources": {
        "GDELT": 0,
        "GDELT_DOC": 90,
        "DIRECT_FEED": 0,
        "USGS": 0,
        "GDACS": 0
      },
      "last7_score": 62.366,
      "prev7_score": 0.0,
      "trend": "new",
      "trend_arrow": "🆕",
      "change_pct": null,
      "place": "Tauragės seniūnija, Lithuania"
    }
  ]
}