{
  "generated_utc": "2026-05-05T19:25:27Z",
  "top": [
    {
      "lon": 14.25,
      "lat": 50.25,
      "type": "hotspot_cell",
      "score": 852.882,
      "count": 1442,
      "cell_deg": 0.5,
      "sources": {
        "GDELT": 181,
        "GDELT_DOC": 1257,
        "DIRECT_FEED": 4,
        "USGS": 0,
        "GDACS": 0
      },
      "last7_score": 839.007,
      "prev7_score": 13.875,
      "trend": "up",
      "trend_arrow": "🔺",
      "change_pct": 5946.8,
      "place": "SO ORP Kralupy nad Vltavou, Czechia"
    },
    {
      "lon": 26.25,
      "lat": 44.25,
      "type": "hotspot_cell",
      "score": 738.191,
      "count": 1250,
      "cell_deg": 0.5,
      "sources": {
        "GDELT": 147,
        "GDELT_DOC": 1099,
        "DIRECT_FEED": 4,
        "USGS": 0,
        "GDACS": 0
      },
      "last7_score": 728.097,
      "prev7_score": 10.094,
      "trend": "up",
      "trend_arrow": "🔺",
      "change_pct": 7113.2,
      "place": "Giurgiu, Romania"
    },
    {
      "lon": 25.25,
      "lat": 54.75,
      "type": "hotspot_cell",
      "score": 624.711,
      "count": 1014,
      "cell_deg": 0.5,
      "sources": {
        "GDELT": 62,
        "GDELT_DOC": 952,
        "DIRECT_FEED": 0,
        "USGS": 0,
        "GDACS": 0
      },
      "last7_score": 619.845,
      "prev7_score": 4.867,
      "trend": "up",
      "trend_arrow": "🔺",
      "change_pct": 12636.8,
      "place": "Vilnius County, Lithuania"
    },
    {
      "lon": 20.25,
      "lat": 52.25,
      "type": "hotspot_cell",
      "score": 203.34,
      "count": 517,
      "cell_deg": 0.5,
      "sources": {
        "GDELT": 517,
        "GDELT_DOC": 0,
        "DIRECT_FEED": 0,
        "USGS": 0,
        "GDACS": 0
      },
      "last7_score": 173.913,
      "prev7_score": 29.427,
      "trend": "up",
      "trend_arrow": "🔺",
      "change_pct": 491.0,
      "place": "Sochaczew County, Poland"
    },
    {
      "lon": 19.25,
      "lat": 47.75,
      "type": "hotspot_cell",
      "score": 168.786,
      "count": 413,
      "cell_deg": 0.5,
      "sources": {
        "GDELT": 252,
        "GDELT_DOC": 0,
        "DIRECT_FEED": 161,
        "USGS": 0,
        "GDACS": 0
      },
      "last7_score": 152.567,
      "prev7_score": 16.219,
      "trend": "up",
      "trend_arrow": "🔺",
      "change_pct": 840.7,
      "place": "Pest, Hungary"
    },
    {
      "lon": 25.25,
      "lat": 46.25,
      "type": "hotspot_cell",
      "score": 140.46,
      "count": 354,
      "cell_deg": 0.5,
      "sources": {
        "GDELT": 354,
        "GDELT_DOC": 0,
        "DIRECT_FEED": 0,
        "USGS": 0,
        "GDACS": 0
      },
      "last7_score": 120.483,
      "prev7_score": 19.977,
      "trend": "up",
      "trend_arrow": "🔺",
      "change_pct": 503.1,
      "place": "Harghita, Romania"
    },
    {
      "lon": 24.25,
      "lat": 56.75,
      "type": "hotspot_cell",
      "score": 103.891,
      "count": 158,
      "cell_deg": 0.5,
      "sources": {
        "GDELT": 31,
        "GDELT_DOC": 0,
        "DIRECT_FEED": 127,
        "USGS": 0,
        "GDACS": 0
      },
      "last7_score": 101.61,
      "prev7_score": 2.28,
      "trend": "up",
      "trend_arrow": "🔺",
      "change_pct": 4355.9,
      "place": "Ķekavas novads, Latvia"
    },
    {
      "lon": 20.25,
      "lat": 47.25,
      "type": "hotspot_cell",
      "score": 97.892,
      "count": 405,
      "cell_deg": 0.5,
      "sources": {
        "GDELT": 405,
        "GDELT_DOC": 0,
        "DIRECT_FEED": 0,
        "USGS": 0,
        "GDACS": 0
      },
      "last7_score": 67.593,
      "prev7_score": 30.299,
      "trend": "up",
      "trend_arrow": "🔺",
      "change_pct": 123.1,
      "place": "Jász-Nagykun-Szolnok, Hungary"
    },
    {
      "lon": 15.25,
      "lat": 49.75,
      "type": "hotspot_cell",
      "score": 70.213,
      "count": 200,
      "cell_deg": 0.5,
      "sources": {
        "GDELT": 200,
        "GDELT_DOC": 0,
        "DIRECT_FEED": 0,
        "USGS": 0,
        "GDACS": 0
      },
      "last7_score": 58.158,
      "prev7_score": 12.054,
      "trend": "up",
      "trend_arrow": "🔺",
      "change_pct": 382.5,
      "place": "Vysočina Region, Czechia"
    },
    {
      "lon": 21.25,
      "lat": 52.25,
      "type": "hotspot_cell",
      "score": 52.91,
      "count": 159,
      "cell_deg": 0.5,
      "sources": {
        "GDELT": 159,
        "GDELT_DOC": 0,
        "DIRECT_FEED": 0,
        "USGS": 0,
        "GDACS": 0
      },
      "last7_score": 39.511,
      "prev7_score": 13.399,
      "trend": "up",
      "trend_arrow": "🔺",
      "change_pct": 194.9,
      "place": "Warsaw, Poland"
    }
  ]
}