{
  "generated_utc": "2026-05-04T14:09:16Z",
  "top": [
    {
      "lon": 14.25,
      "lat": 50.25,
      "type": "hotspot_cell",
      "score": 875.501,
      "count": 1478,
      "cell_deg": 0.5,
      "sources": {
        "GDELT": 180,
        "GDELT_DOC": 1294,
        "DIRECT_FEED": 4,
        "USGS": 0,
        "GDACS": 0
      },
      "last7_score": 864.505,
      "prev7_score": 10.996,
      "trend": "up",
      "trend_arrow": "🔺",
      "change_pct": 7762.3,
      "place": "SO ORP Kralupy nad Vltavou, Czechia"
    },
    {
      "lon": 26.25,
      "lat": 44.25,
      "type": "hotspot_cell",
      "score": 738.327,
      "count": 1289,
      "cell_deg": 0.5,
      "sources": {
        "GDELT": 131,
        "GDELT_DOC": 1157,
        "DIRECT_FEED": 1,
        "USGS": 0,
        "GDACS": 0
      },
      "last7_score": 729.357,
      "prev7_score": 8.97,
      "trend": "up",
      "trend_arrow": "🔺",
      "change_pct": 8031.2,
      "place": "Giurgiu, Romania"
    },
    {
      "lon": 25.25,
      "lat": 54.75,
      "type": "hotspot_cell",
      "score": 643.683,
      "count": 1060,
      "cell_deg": 0.5,
      "sources": {
        "GDELT": 61,
        "GDELT_DOC": 999,
        "DIRECT_FEED": 0,
        "USGS": 0,
        "GDACS": 0
      },
      "last7_score": 639.189,
      "prev7_score": 4.495,
      "trend": "up",
      "trend_arrow": "🔺",
      "change_pct": 14121.4,
      "place": "Vilnius County, Lithuania"
    },
    {
      "lon": 20.25,
      "lat": 52.25,
      "type": "hotspot_cell",
      "score": 183.698,
      "count": 496,
      "cell_deg": 0.5,
      "sources": {
        "GDELT": 496,
        "GDELT_DOC": 0,
        "DIRECT_FEED": 0,
        "USGS": 0,
        "GDACS": 0
      },
      "last7_score": 154.137,
      "prev7_score": 29.561,
      "trend": "up",
      "trend_arrow": "🔺",
      "change_pct": 421.4,
      "place": "Sochaczew County, Poland"
    },
    {
      "lon": 19.25,
      "lat": 47.75,
      "type": "hotspot_cell",
      "score": 172.721,
      "count": 472,
      "cell_deg": 0.5,
      "sources": {
        "GDELT": 300,
        "GDELT_DOC": 0,
        "DIRECT_FEED": 172,
        "USGS": 0,
        "GDACS": 0
      },
      "last7_score": 151.592,
      "prev7_score": 21.13,
      "trend": "up",
      "trend_arrow": "🔺",
      "change_pct": 617.4,
      "place": "Pest, Hungary"
    },
    {
      "lon": 25.25,
      "lat": 46.25,
      "type": "hotspot_cell",
      "score": 124.765,
      "count": 331,
      "cell_deg": 0.5,
      "sources": {
        "GDELT": 331,
        "GDELT_DOC": 0,
        "DIRECT_FEED": 0,
        "USGS": 0,
        "GDACS": 0
      },
      "last7_score": 106.117,
      "prev7_score": 18.648,
      "trend": "up",
      "trend_arrow": "🔺",
      "change_pct": 469.1,
      "place": "Harghita, Romania"
    },
    {
      "lon": 20.25,
      "lat": 47.25,
      "type": "hotspot_cell",
      "score": 106.463,
      "count": 450,
      "cell_deg": 0.5,
      "sources": {
        "GDELT": 450,
        "GDELT_DOC": 0,
        "DIRECT_FEED": 0,
        "USGS": 0,
        "GDACS": 0
      },
      "last7_score": 72.735,
      "prev7_score": 33.728,
      "trend": "up",
      "trend_arrow": "🔺",
      "change_pct": 115.7,
      "place": "Jász-Nagykun-Szolnok, Hungary"
    },
    {
      "lon": 24.25,
      "lat": 56.75,
      "type": "hotspot_cell",
      "score": 94.564,
      "count": 159,
      "cell_deg": 0.5,
      "sources": {
        "GDELT": 26,
        "GDELT_DOC": 0,
        "DIRECT_FEED": 133,
        "USGS": 0,
        "GDACS": 0
      },
      "last7_score": 91.963,
      "prev7_score": 2.601,
      "trend": "up",
      "trend_arrow": "🔺",
      "change_pct": 3435.0,
      "place": "Ķekavas novads, Latvia"
    },
    {
      "lon": 15.25,
      "lat": 49.75,
      "type": "hotspot_cell",
      "score": 78.056,
      "count": 208,
      "cell_deg": 0.5,
      "sources": {
        "GDELT": 208,
        "GDELT_DOC": 0,
        "DIRECT_FEED": 0,
        "USGS": 0,
        "GDACS": 0
      },
      "last7_score": 67.033,
      "prev7_score": 11.023,
      "trend": "up",
      "trend_arrow": "🔺",
      "change_pct": 508.1,
      "place": "Vysočina Region, Czechia"
    },
    {
      "lon": 21.25,
      "lat": 52.25,
      "type": "hotspot_cell",
      "score": 45.335,
      "count": 152,
      "cell_deg": 0.5,
      "sources": {
        "GDELT": 152,
        "GDELT_DOC": 0,
        "DIRECT_FEED": 0,
        "USGS": 0,
        "GDACS": 0
      },
      "last7_score": 35.307,
      "prev7_score": 10.029,
      "trend": "up",
      "trend_arrow": "🔺",
      "change_pct": 252.1,
      "place": "Warsaw, Poland"
    }
  ]
}