{
  "generated_utc": "2026-04-20T08:15:02Z",
  "top": [
    {
      "lon": 14.25,
      "lat": 50.25,
      "type": "hotspot_cell",
      "score": 729.709,
      "count": 1375,
      "cell_deg": 0.5,
      "sources": {
        "GDELT": 128,
        "GDELT_DOC": 1245,
        "DIRECT_FEED": 2,
        "USGS": 0,
        "GDACS": 0
      },
      "last7_score": 725.234,
      "prev7_score": 4.475,
      "trend": "up",
      "trend_arrow": "🔺",
      "change_pct": 16105.7,
      "place": "SO ORP Kralupy nad Vltavou, Czechia"
    },
    {
      "lon": 26.25,
      "lat": 44.25,
      "type": "hotspot_cell",
      "score": 705.348,
      "count": 1212,
      "cell_deg": 0.5,
      "sources": {
        "GDELT": 95,
        "GDELT_DOC": 1115,
        "DIRECT_FEED": 2,
        "USGS": 0,
        "GDACS": 0
      },
      "last7_score": 701.11,
      "prev7_score": 4.238,
      "trend": "up",
      "trend_arrow": "🔺",
      "change_pct": 16442.6,
      "place": "Giurgiu, Romania"
    },
    {
      "lon": 25.25,
      "lat": 54.75,
      "type": "hotspot_cell",
      "score": 523.198,
      "count": 856,
      "cell_deg": 0.5,
      "sources": {
        "GDELT": 75,
        "GDELT_DOC": 781,
        "DIRECT_FEED": 0,
        "USGS": 0,
        "GDACS": 0
      },
      "last7_score": 517.87,
      "prev7_score": 5.328,
      "trend": "up",
      "trend_arrow": "🔺",
      "change_pct": 9619.2,
      "place": "Vilnius County, Lithuania"
    },
    {
      "lon": 19.25,
      "lat": 47.75,
      "type": "hotspot_cell",
      "score": 453.657,
      "count": 1460,
      "cell_deg": 0.5,
      "sources": {
        "GDELT": 1174,
        "GDELT_DOC": 0,
        "DIRECT_FEED": 286,
        "USGS": 0,
        "GDACS": 0
      },
      "last7_score": 318.976,
      "prev7_score": 134.681,
      "trend": "up",
      "trend_arrow": "🔺",
      "change_pct": 136.8,
      "place": "Pest, Hungary"
    },
    {
      "lon": 20.25,
      "lat": 47.25,
      "type": "hotspot_cell",
      "score": 248.107,
      "count": 799,
      "cell_deg": 0.5,
      "sources": {
        "GDELT": 799,
        "GDELT_DOC": 0,
        "DIRECT_FEED": 0,
        "USGS": 0,
        "GDACS": 0
      },
      "last7_score": 174.999,
      "prev7_score": 73.109,
      "trend": "up",
      "trend_arrow": "🔺",
      "change_pct": 139.4,
      "place": "Jász-Nagykun-Szolnok, Hungary"
    },
    {
      "lon": 20.25,
      "lat": 52.25,
      "type": "hotspot_cell",
      "score": 148.242,
      "count": 411,
      "cell_deg": 0.5,
      "sources": {
        "GDELT": 411,
        "GDELT_DOC": 0,
        "DIRECT_FEED": 0,
        "USGS": 0,
        "GDACS": 0
      },
      "last7_score": 119.598,
      "prev7_score": 28.644,
      "trend": "up",
      "trend_arrow": "🔺",
      "change_pct": 317.5,
      "place": "Sochaczew County, Poland"
    },
    {
      "lon": 24.25,
      "lat": 56.75,
      "type": "hotspot_cell",
      "score": 89.605,
      "count": 156,
      "cell_deg": 0.5,
      "sources": {
        "GDELT": 32,
        "GDELT_DOC": 0,
        "DIRECT_FEED": 124,
        "USGS": 0,
        "GDACS": 0
      },
      "last7_score": 87.345,
      "prev7_score": 2.261,
      "trend": "up",
      "trend_arrow": "🔺",
      "change_pct": 3763.7,
      "place": "Ķekavas novads, Latvia"
    },
    {
      "lon": 15.25,
      "lat": 49.75,
      "type": "hotspot_cell",
      "score": 77.254,
      "count": 186,
      "cell_deg": 0.5,
      "sources": {
        "GDELT": 186,
        "GDELT_DOC": 0,
        "DIRECT_FEED": 0,
        "USGS": 0,
        "GDACS": 0
      },
      "last7_score": 65.062,
      "prev7_score": 12.192,
      "trend": "up",
      "trend_arrow": "🔺",
      "change_pct": 433.6,
      "place": "Vysočina Region, Czechia"
    },
    {
      "lon": 25.25,
      "lat": 46.25,
      "type": "hotspot_cell",
      "score": 76.605,
      "count": 240,
      "cell_deg": 0.5,
      "sources": {
        "GDELT": 240,
        "GDELT_DOC": 0,
        "DIRECT_FEED": 0,
        "USGS": 0,
        "GDACS": 0
      },
      "last7_score": 64.194,
      "prev7_score": 12.41,
      "trend": "up",
      "trend_arrow": "🔺",
      "change_pct": 417.3,
      "place": "Harghita, Romania"
    },
    {
      "lon": 21.25,
      "lat": 52.25,
      "type": "hotspot_cell",
      "score": 59.164,
      "count": 172,
      "cell_deg": 0.5,
      "sources": {
        "GDELT": 172,
        "GDELT_DOC": 0,
        "DIRECT_FEED": 0,
        "USGS": 0,
        "GDACS": 0
      },
      "last7_score": 47.822,
      "prev7_score": 11.342,
      "trend": "up",
      "trend_arrow": "🔺",
      "change_pct": 321.6,
      "place": "Warsaw, Poland"
    }
  ]
}