{
  "generated_utc": "2026-04-25T10:52:17Z",
  "top": [
    {
      "lon": 14.25,
      "lat": 50.25,
      "type": "hotspot_cell",
      "score": 1092.115,
      "count": 1647,
      "cell_deg": 0.5,
      "sources": {
        "GDELT": 180,
        "GDELT_DOC": 1463,
        "DIRECT_FEED": 4,
        "USGS": 0,
        "GDACS": 0
      },
      "last7_score": 1077.317,
      "prev7_score": 14.798,
      "trend": "up",
      "trend_arrow": "🔺",
      "change_pct": 7180.0,
      "place": "SO ORP Kralupy nad Vltavou, Czechia"
    },
    {
      "lon": 26.25,
      "lat": 44.25,
      "type": "hotspot_cell",
      "score": 919.652,
      "count": 1385,
      "cell_deg": 0.5,
      "sources": {
        "GDELT": 135,
        "GDELT_DOC": 1243,
        "DIRECT_FEED": 7,
        "USGS": 0,
        "GDACS": 0
      },
      "last7_score": 911.959,
      "prev7_score": 7.693,
      "trend": "up",
      "trend_arrow": "🔺",
      "change_pct": 11754.2,
      "place": "Giurgiu, Romania"
    },
    {
      "lon": 25.25,
      "lat": 54.75,
      "type": "hotspot_cell",
      "score": 762.005,
      "count": 1187,
      "cell_deg": 0.5,
      "sources": {
        "GDELT": 76,
        "GDELT_DOC": 1111,
        "DIRECT_FEED": 0,
        "USGS": 0,
        "GDACS": 0
      },
      "last7_score": 756.335,
      "prev7_score": 5.67,
      "trend": "up",
      "trend_arrow": "🔺",
      "change_pct": 13239.1,
      "place": "Vilnius County, Lithuania"
    },
    {
      "lon": 19.25,
      "lat": 47.75,
      "type": "hotspot_cell",
      "score": 379.146,
      "count": 1218,
      "cell_deg": 0.5,
      "sources": {
        "GDELT": 963,
        "GDELT_DOC": 0,
        "DIRECT_FEED": 255,
        "USGS": 0,
        "GDACS": 0
      },
      "last7_score": 309.876,
      "prev7_score": 69.27,
      "trend": "up",
      "trend_arrow": "🔺",
      "change_pct": 347.3,
      "place": "Pest, Hungary"
    },
    {
      "lon": 20.25,
      "lat": 47.25,
      "type": "hotspot_cell",
      "score": 265.154,
      "count": 860,
      "cell_deg": 0.5,
      "sources": {
        "GDELT": 860,
        "GDELT_DOC": 0,
        "DIRECT_FEED": 0,
        "USGS": 0,
        "GDACS": 0
      },
      "last7_score": 206.918,
      "prev7_score": 58.235,
      "trend": "up",
      "trend_arrow": "🔺",
      "change_pct": 255.3,
      "place": "Jász-Nagykun-Szolnok, Hungary"
    },
    {
      "lon": 20.25,
      "lat": 52.25,
      "type": "hotspot_cell",
      "score": 196.407,
      "count": 473,
      "cell_deg": 0.5,
      "sources": {
        "GDELT": 473,
        "GDELT_DOC": 0,
        "DIRECT_FEED": 0,
        "USGS": 0,
        "GDACS": 0
      },
      "last7_score": 166.148,
      "prev7_score": 30.259,
      "trend": "up",
      "trend_arrow": "🔺",
      "change_pct": 449.1,
      "place": "Sochaczew County, Poland"
    },
    {
      "lon": 24.25,
      "lat": 56.75,
      "type": "hotspot_cell",
      "score": 113.436,
      "count": 171,
      "cell_deg": 0.5,
      "sources": {
        "GDELT": 33,
        "GDELT_DOC": 0,
        "DIRECT_FEED": 138,
        "USGS": 0,
        "GDACS": 0
      },
      "last7_score": 110.643,
      "prev7_score": 2.793,
      "trend": "up",
      "trend_arrow": "🔺",
      "change_pct": 3860.9,
      "place": "Ķekavas novads, Latvia"
    },
    {
      "lon": 25.25,
      "lat": 46.25,
      "type": "hotspot_cell",
      "score": 98.768,
      "count": 267,
      "cell_deg": 0.5,
      "sources": {
        "GDELT": 267,
        "GDELT_DOC": 0,
        "DIRECT_FEED": 0,
        "USGS": 0,
        "GDACS": 0
      },
      "last7_score": 79.897,
      "prev7_score": 18.871,
      "trend": "up",
      "trend_arrow": "🔺",
      "change_pct": 323.4,
      "place": "Harghita, Romania"
    },
    {
      "lon": 27.75,
      "lat": 47.25,
      "type": "hotspot_cell",
      "score": 94.708,
      "count": 130,
      "cell_deg": 0.5,
      "sources": {
        "GDELT": 0,
        "GDELT_DOC": 130,
        "DIRECT_FEED": 0,
        "USGS": 0,
        "GDACS": 0
      },
      "last7_score": 94.708,
      "prev7_score": 0.0,
      "trend": "new",
      "trend_arrow": "🆕",
      "change_pct": null,
      "place": "Iași, Romania"
    },
    {
      "lon": 26.75,
      "lat": 47.75,
      "type": "hotspot_cell",
      "score": 71.244,
      "count": 72,
      "cell_deg": 0.5,
      "sources": {
        "GDELT": 2,
        "GDELT_DOC": 69,
        "DIRECT_FEED": 1,
        "USGS": 0,
        "GDACS": 0
      },
      "last7_score": 71.041,
      "prev7_score": 0.203,
      "trend": "up",
      "trend_arrow": "🔺",
      "change_pct": 34924.8,
      "place": "Botoșani, Romania"
    }
  ]
}