{
  "generated_utc": "2026-06-19T14:51:19Z",
  "top": [
    {
      "lon": 25.25,
      "lat": 54.75,
      "type": "hotspot_cell",
      "score": 666.612,
      "count": 915,
      "cell_deg": 0.5,
      "sources": {
        "GDELT": 53,
        "GDELT_DOC": 861,
        "DIRECT_FEED": 1,
        "USGS": 0,
        "GDACS": 0
      },
      "last7_score": 662.563,
      "prev7_score": 4.048,
      "trend": "up",
      "trend_arrow": "🔺",
      "change_pct": 16267.3,
      "place": "Vilnius County, Lithuania"
    },
    {
      "lon": 26.25,
      "lat": 44.25,
      "type": "hotspot_cell",
      "score": 544.955,
      "count": 967,
      "cell_deg": 0.5,
      "sources": {
        "GDELT": 151,
        "GDELT_DOC": 810,
        "DIRECT_FEED": 6,
        "USGS": 0,
        "GDACS": 0
      },
      "last7_score": 532.88,
      "prev7_score": 12.075,
      "trend": "up",
      "trend_arrow": "🔺",
      "change_pct": 4312.9,
      "place": "Giurgiu, Romania"
    },
    {
      "lon": 14.25,
      "lat": 50.25,
      "type": "hotspot_cell",
      "score": 339.944,
      "count": 602,
      "cell_deg": 0.5,
      "sources": {
        "GDELT": 99,
        "GDELT_DOC": 493,
        "DIRECT_FEED": 10,
        "USGS": 0,
        "GDACS": 0
      },
      "last7_score": 334.513,
      "prev7_score": 5.431,
      "trend": "up",
      "trend_arrow": "🔺",
      "change_pct": 6059.4,
      "place": "SO ORP Kralupy nad Vltavou, Czechia"
    },
    {
      "lon": 19.25,
      "lat": 47.75,
      "type": "hotspot_cell",
      "score": 196.157,
      "count": 336,
      "cell_deg": 0.5,
      "sources": {
        "GDELT": 160,
        "GDELT_DOC": 0,
        "DIRECT_FEED": 176,
        "USGS": 0,
        "GDACS": 0
      },
      "last7_score": 185.49,
      "prev7_score": 10.667,
      "trend": "up",
      "trend_arrow": "🔺",
      "change_pct": 1638.8,
      "place": "Pest, Hungary"
    },
    {
      "lon": 20.25,
      "lat": 52.25,
      "type": "hotspot_cell",
      "score": 183.995,
      "count": 443,
      "cell_deg": 0.5,
      "sources": {
        "GDELT": 443,
        "GDELT_DOC": 0,
        "DIRECT_FEED": 0,
        "USGS": 0,
        "GDACS": 0
      },
      "last7_score": 151.446,
      "prev7_score": 32.549,
      "trend": "up",
      "trend_arrow": "🔺",
      "change_pct": 365.3,
      "place": "Sochaczew County, Poland"
    },
    {
      "lon": 25.25,
      "lat": 46.25,
      "type": "hotspot_cell",
      "score": 176.656,
      "count": 419,
      "cell_deg": 0.5,
      "sources": {
        "GDELT": 419,
        "GDELT_DOC": 0,
        "DIRECT_FEED": 0,
        "USGS": 0,
        "GDACS": 0
      },
      "last7_score": 148.143,
      "prev7_score": 28.513,
      "trend": "up",
      "trend_arrow": "🔺",
      "change_pct": 419.6,
      "place": "Harghita, Romania"
    },
    {
      "lon": 24.25,
      "lat": 56.75,
      "type": "hotspot_cell",
      "score": 117.451,
      "count": 175,
      "cell_deg": 0.5,
      "sources": {
        "GDELT": 40,
        "GDELT_DOC": 0,
        "DIRECT_FEED": 135,
        "USGS": 0,
        "GDACS": 0
      },
      "last7_score": 114.215,
      "prev7_score": 3.236,
      "trend": "up",
      "trend_arrow": "🔺",
      "change_pct": 3429.4,
      "place": "Ķekavas novads, Latvia"
    },
    {
      "lon": 20.25,
      "lat": 47.25,
      "type": "hotspot_cell",
      "score": 98.151,
      "count": 252,
      "cell_deg": 0.5,
      "sources": {
        "GDELT": 252,
        "GDELT_DOC": 0,
        "DIRECT_FEED": 0,
        "USGS": 0,
        "GDACS": 0
      },
      "last7_score": 79.262,
      "prev7_score": 18.889,
      "trend": "up",
      "trend_arrow": "🔺",
      "change_pct": 319.6,
      "place": "Jász-Nagykun-Szolnok, Hungary"
    },
    {
      "lon": 21.25,
      "lat": 52.25,
      "type": "hotspot_cell",
      "score": 94.702,
      "count": 196,
      "cell_deg": 0.5,
      "sources": {
        "GDELT": 196,
        "GDELT_DOC": 0,
        "DIRECT_FEED": 0,
        "USGS": 0,
        "GDACS": 0
      },
      "last7_score": 83.42,
      "prev7_score": 11.282,
      "trend": "up",
      "trend_arrow": "🔺",
      "change_pct": 639.4,
      "place": "Warsaw, Poland"
    },
    {
      "lon": 17.25,
      "lat": 48.25,
      "type": "hotspot_cell",
      "score": 78.507,
      "count": 167,
      "cell_deg": 0.5,
      "sources": {
        "GDELT": 165,
        "GDELT_DOC": 0,
        "DIRECT_FEED": 2,
        "USGS": 0,
        "GDACS": 0
      },
      "last7_score": 75.166,
      "prev7_score": 3.341,
      "trend": "up",
      "trend_arrow": "🔺",
      "change_pct": 2150.0,
      "place": "District of Pezinok, Slovakia"
    }
  ]
}