{
  "generated_utc": "2026-05-22T03:49:10Z",
  "top": [
    {
      "lon": 26.25,
      "lat": 44.25,
      "type": "hotspot_cell",
      "score": 947.518,
      "count": 1521,
      "cell_deg": 0.5,
      "sources": {
        "GDELT": 185,
        "GDELT_DOC": 1332,
        "DIRECT_FEED": 4,
        "USGS": 0,
        "GDACS": 0
      },
      "last7_score": 923.982,
      "prev7_score": 23.536,
      "trend": "up",
      "trend_arrow": "🔺",
      "change_pct": 3825.8,
      "place": "Giurgiu, Romania"
    },
    {
      "lon": 14.25,
      "lat": 50.25,
      "type": "hotspot_cell",
      "score": 885.11,
      "count": 1439,
      "cell_deg": 0.5,
      "sources": {
        "GDELT": 113,
        "GDELT_DOC": 1313,
        "DIRECT_FEED": 13,
        "USGS": 0,
        "GDACS": 0
      },
      "last7_score": 876.042,
      "prev7_score": 9.068,
      "trend": "up",
      "trend_arrow": "🔺",
      "change_pct": 9561.3,
      "place": "SO ORP Kralupy nad Vltavou, Czechia"
    },
    {
      "lon": 25.25,
      "lat": 54.75,
      "type": "hotspot_cell",
      "score": 666.212,
      "count": 1057,
      "cell_deg": 0.5,
      "sources": {
        "GDELT": 94,
        "GDELT_DOC": 962,
        "DIRECT_FEED": 1,
        "USGS": 0,
        "GDACS": 0
      },
      "last7_score": 659.79,
      "prev7_score": 6.422,
      "trend": "up",
      "trend_arrow": "🔺",
      "change_pct": 10174.3,
      "place": "Vilnius County, Lithuania"
    },
    {
      "lon": 20.25,
      "lat": 52.25,
      "type": "hotspot_cell",
      "score": 326.894,
      "count": 662,
      "cell_deg": 0.5,
      "sources": {
        "GDELT": 662,
        "GDELT_DOC": 0,
        "DIRECT_FEED": 0,
        "USGS": 0,
        "GDACS": 0
      },
      "last7_score": 273.614,
      "prev7_score": 53.28,
      "trend": "up",
      "trend_arrow": "🔺",
      "change_pct": 413.5,
      "place": "Sochaczew County, Poland"
    },
    {
      "lon": 19.25,
      "lat": 47.75,
      "type": "hotspot_cell",
      "score": 254.731,
      "count": 504,
      "cell_deg": 0.5,
      "sources": {
        "GDELT": 276,
        "GDELT_DOC": 0,
        "DIRECT_FEED": 228,
        "USGS": 0,
        "GDACS": 0
      },
      "last7_score": 228.32,
      "prev7_score": 26.411,
      "trend": "up",
      "trend_arrow": "🔺",
      "change_pct": 764.5,
      "place": "Pest, Hungary"
    },
    {
      "lon": 25.25,
      "lat": 46.25,
      "type": "hotspot_cell",
      "score": 123.979,
      "count": 285,
      "cell_deg": 0.5,
      "sources": {
        "GDELT": 285,
        "GDELT_DOC": 0,
        "DIRECT_FEED": 0,
        "USGS": 0,
        "GDACS": 0
      },
      "last7_score": 100.074,
      "prev7_score": 23.905,
      "trend": "up",
      "trend_arrow": "🔺",
      "change_pct": 318.6,
      "place": "Harghita, Romania"
    },
    {
      "lon": 24.25,
      "lat": 56.75,
      "type": "hotspot_cell",
      "score": 120.655,
      "count": 175,
      "cell_deg": 0.5,
      "sources": {
        "GDELT": 47,
        "GDELT_DOC": 0,
        "DIRECT_FEED": 128,
        "USGS": 0,
        "GDACS": 0
      },
      "last7_score": 117.399,
      "prev7_score": 3.257,
      "trend": "up",
      "trend_arrow": "🔺",
      "change_pct": 3505.0,
      "place": "Ķekavas novads, Latvia"
    },
    {
      "lon": 21.25,
      "lat": 52.25,
      "type": "hotspot_cell",
      "score": 106.105,
      "count": 235,
      "cell_deg": 0.5,
      "sources": {
        "GDELT": 235,
        "GDELT_DOC": 0,
        "DIRECT_FEED": 0,
        "USGS": 0,
        "GDACS": 0
      },
      "last7_score": 84.993,
      "prev7_score": 21.112,
      "trend": "up",
      "trend_arrow": "🔺",
      "change_pct": 302.6,
      "place": "Warsaw, Poland"
    },
    {
      "lon": 20.25,
      "lat": 47.25,
      "type": "hotspot_cell",
      "score": 101.543,
      "count": 277,
      "cell_deg": 0.5,
      "sources": {
        "GDELT": 277,
        "GDELT_DOC": 0,
        "DIRECT_FEED": 0,
        "USGS": 0,
        "GDACS": 0
      },
      "last7_score": 76.992,
      "prev7_score": 24.551,
      "trend": "up",
      "trend_arrow": "🔺",
      "change_pct": 213.6,
      "place": "Jász-Nagykun-Szolnok, Hungary"
    },
    {
      "lon": 26.25,
      "lat": 59.25,
      "type": "hotspot_cell",
      "score": 78.965,
      "count": 144,
      "cell_deg": 0.5,
      "sources": {
        "GDELT": 144,
        "GDELT_DOC": 0,
        "DIRECT_FEED": 0,
        "USGS": 0,
        "GDACS": 0
      },
      "last7_score": 69.613,
      "prev7_score": 9.352,
      "trend": "up",
      "trend_arrow": "🔺",
      "change_pct": 644.4,
      "place": "Lääne-Viru County, Estonia"
    }
  ]
}