{
  "generated_utc": "2026-06-27T02:33:38Z",
  "top": [
    {
      "lon": 14.25,
      "lat": 50.25,
      "type": "hotspot_cell",
      "score": 677.96,
      "count": 1109,
      "cell_deg": 0.5,
      "sources": {
        "GDELT": 124,
        "GDELT_DOC": 973,
        "DIRECT_FEED": 12,
        "USGS": 0,
        "GDACS": 0
      },
      "last7_score": 670.365,
      "prev7_score": 7.595,
      "trend": "up",
      "trend_arrow": "🔺",
      "change_pct": 8725.9,
      "place": "SO ORP Kralupy nad Vltavou, Czechia"
    },
    {
      "lon": 26.25,
      "lat": 44.25,
      "type": "hotspot_cell",
      "score": 634.412,
      "count": 1069,
      "cell_deg": 0.5,
      "sources": {
        "GDELT": 142,
        "GDELT_DOC": 917,
        "DIRECT_FEED": 10,
        "USGS": 0,
        "GDACS": 0
      },
      "last7_score": 624.591,
      "prev7_score": 9.82,
      "trend": "up",
      "trend_arrow": "🔺",
      "change_pct": 6260.2,
      "place": "Giurgiu, Romania"
    },
    {
      "lon": 25.25,
      "lat": 54.75,
      "type": "hotspot_cell",
      "score": 306.959,
      "count": 538,
      "cell_deg": 0.5,
      "sources": {
        "GDELT": 55,
        "GDELT_DOC": 483,
        "DIRECT_FEED": 0,
        "USGS": 0,
        "GDACS": 0
      },
      "last7_score": 303.356,
      "prev7_score": 3.603,
      "trend": "up",
      "trend_arrow": "🔺",
      "change_pct": 8318.7,
      "place": "Vilnius County, Lithuania"
    },
    {
      "lon": 20.25,
      "lat": 52.25,
      "type": "hotspot_cell",
      "score": 210.436,
      "count": 501,
      "cell_deg": 0.5,
      "sources": {
        "GDELT": 501,
        "GDELT_DOC": 0,
        "DIRECT_FEED": 0,
        "USGS": 0,
        "GDACS": 0
      },
      "last7_score": 171.573,
      "prev7_score": 38.863,
      "trend": "up",
      "trend_arrow": "🔺",
      "change_pct": 341.5,
      "place": "Sochaczew County, Poland"
    },
    {
      "lon": 19.25,
      "lat": 47.75,
      "type": "hotspot_cell",
      "score": 183.593,
      "count": 343,
      "cell_deg": 0.5,
      "sources": {
        "GDELT": 184,
        "GDELT_DOC": 0,
        "DIRECT_FEED": 159,
        "USGS": 0,
        "GDACS": 0
      },
      "last7_score": 170.95,
      "prev7_score": 12.643,
      "trend": "up",
      "trend_arrow": "🔺",
      "change_pct": 1252.1,
      "place": "Pest, Hungary"
    },
    {
      "lon": 25.25,
      "lat": 46.25,
      "type": "hotspot_cell",
      "score": 145.977,
      "count": 398,
      "cell_deg": 0.5,
      "sources": {
        "GDELT": 398,
        "GDELT_DOC": 0,
        "DIRECT_FEED": 0,
        "USGS": 0,
        "GDACS": 0
      },
      "last7_score": 115.256,
      "prev7_score": 30.721,
      "trend": "up",
      "trend_arrow": "🔺",
      "change_pct": 275.2,
      "place": "Harghita, Romania"
    },
    {
      "lon": 21.25,
      "lat": 52.25,
      "type": "hotspot_cell",
      "score": 136.494,
      "count": 340,
      "cell_deg": 0.5,
      "sources": {
        "GDELT": 340,
        "GDELT_DOC": 0,
        "DIRECT_FEED": 0,
        "USGS": 0,
        "GDACS": 0
      },
      "last7_score": 106.621,
      "prev7_score": 29.873,
      "trend": "up",
      "trend_arrow": "🔺",
      "change_pct": 256.9,
      "place": "Warsaw, Poland"
    },
    {
      "lon": 24.25,
      "lat": 56.75,
      "type": "hotspot_cell",
      "score": 117.408,
      "count": 174,
      "cell_deg": 0.5,
      "sources": {
        "GDELT": 31,
        "GDELT_DOC": 0,
        "DIRECT_FEED": 143,
        "USGS": 0,
        "GDACS": 0
      },
      "last7_score": 115.005,
      "prev7_score": 2.403,
      "trend": "up",
      "trend_arrow": "🔺",
      "change_pct": 4686.8,
      "place": "Ķekavas novads, Latvia"
    },
    {
      "lon": 20.25,
      "lat": 47.25,
      "type": "hotspot_cell",
      "score": 85.804,
      "count": 229,
      "cell_deg": 0.5,
      "sources": {
        "GDELT": 228,
        "GDELT_DOC": 0,
        "DIRECT_FEED": 0,
        "USGS": 0,
        "GDACS": 1
      },
      "last7_score": 68.738,
      "prev7_score": 17.066,
      "trend": "up",
      "trend_arrow": "🔺",
      "change_pct": 302.8,
      "place": "Jász-Nagykun-Szolnok, Hungary"
    },
    {
      "lon": 15.25,
      "lat": 49.75,
      "type": "hotspot_cell",
      "score": 61.59,
      "count": 151,
      "cell_deg": 0.5,
      "sources": {
        "GDELT": 151,
        "GDELT_DOC": 0,
        "DIRECT_FEED": 0,
        "USGS": 0,
        "GDACS": 0
      },
      "last7_score": 49.677,
      "prev7_score": 11.913,
      "trend": "up",
      "trend_arrow": "🔺",
      "change_pct": 317.0,
      "place": "Vysočina Region, Czechia"
    }
  ]
}