{
  "generated_utc": "2026-06-16T16:32:44Z",
  "top": [
    {
      "lon": 26.25,
      "lat": 44.25,
      "type": "hotspot_cell",
      "score": 571.545,
      "count": 976,
      "cell_deg": 0.5,
      "sources": {
        "GDELT": 173,
        "GDELT_DOC": 793,
        "DIRECT_FEED": 10,
        "USGS": 0,
        "GDACS": 0
      },
      "last7_score": 560.248,
      "prev7_score": 11.297,
      "trend": "up",
      "trend_arrow": "🔺",
      "change_pct": 4859.4,
      "place": "Giurgiu, Romania"
    },
    {
      "lon": 14.25,
      "lat": 50.25,
      "type": "hotspot_cell",
      "score": 444.978,
      "count": 861,
      "cell_deg": 0.5,
      "sources": {
        "GDELT": 101,
        "GDELT_DOC": 753,
        "DIRECT_FEED": 7,
        "USGS": 0,
        "GDACS": 0
      },
      "last7_score": 440.068,
      "prev7_score": 4.91,
      "trend": "up",
      "trend_arrow": "🔺",
      "change_pct": 8863.5,
      "place": "SO ORP Kralupy nad Vltavou, Czechia"
    },
    {
      "lon": 25.25,
      "lat": 54.75,
      "type": "hotspot_cell",
      "score": 335.727,
      "count": 583,
      "cell_deg": 0.5,
      "sources": {
        "GDELT": 51,
        "GDELT_DOC": 531,
        "DIRECT_FEED": 1,
        "USGS": 0,
        "GDACS": 0
      },
      "last7_score": 331.443,
      "prev7_score": 4.284,
      "trend": "up",
      "trend_arrow": "🔺",
      "change_pct": 7637.6,
      "place": "Vilnius County, Lithuania"
    },
    {
      "lon": 19.25,
      "lat": 47.75,
      "type": "hotspot_cell",
      "score": 185.945,
      "count": 369,
      "cell_deg": 0.5,
      "sources": {
        "GDELT": 197,
        "GDELT_DOC": 0,
        "DIRECT_FEED": 172,
        "USGS": 0,
        "GDACS": 0
      },
      "last7_score": 174.828,
      "prev7_score": 11.117,
      "trend": "up",
      "trend_arrow": "🔺",
      "change_pct": 1472.6,
      "place": "Pest, Hungary"
    },
    {
      "lon": 25.25,
      "lat": 46.25,
      "type": "hotspot_cell",
      "score": 169.578,
      "count": 444,
      "cell_deg": 0.5,
      "sources": {
        "GDELT": 444,
        "GDELT_DOC": 0,
        "DIRECT_FEED": 0,
        "USGS": 0,
        "GDACS": 0
      },
      "last7_score": 140.367,
      "prev7_score": 29.211,
      "trend": "up",
      "trend_arrow": "🔺",
      "change_pct": 380.5,
      "place": "Harghita, Romania"
    },
    {
      "lon": 20.25,
      "lat": 52.25,
      "type": "hotspot_cell",
      "score": 157.552,
      "count": 444,
      "cell_deg": 0.5,
      "sources": {
        "GDELT": 444,
        "GDELT_DOC": 0,
        "DIRECT_FEED": 0,
        "USGS": 0,
        "GDACS": 0
      },
      "last7_score": 132.076,
      "prev7_score": 25.476,
      "trend": "up",
      "trend_arrow": "🔺",
      "change_pct": 418.4,
      "place": "Sochaczew County, Poland"
    },
    {
      "lon": 17.25,
      "lat": 48.25,
      "type": "hotspot_cell",
      "score": 124.141,
      "count": 159,
      "cell_deg": 0.5,
      "sources": {
        "GDELT": 159,
        "GDELT_DOC": 0,
        "DIRECT_FEED": 0,
        "USGS": 0,
        "GDACS": 0
      },
      "last7_score": 123.426,
      "prev7_score": 0.715,
      "trend": "up",
      "trend_arrow": "🔺",
      "change_pct": 17171.9,
      "place": "District of Pezinok, Slovakia"
    },
    {
      "lon": 24.25,
      "lat": 56.75,
      "type": "hotspot_cell",
      "score": 115.629,
      "count": 179,
      "cell_deg": 0.5,
      "sources": {
        "GDELT": 42,
        "GDELT_DOC": 0,
        "DIRECT_FEED": 137,
        "USGS": 0,
        "GDACS": 0
      },
      "last7_score": 112.791,
      "prev7_score": 2.838,
      "trend": "up",
      "trend_arrow": "🔺",
      "change_pct": 3874.3,
      "place": "Ķekavas novads, Latvia"
    },
    {
      "lon": 20.25,
      "lat": 47.25,
      "type": "hotspot_cell",
      "score": 92.951,
      "count": 250,
      "cell_deg": 0.5,
      "sources": {
        "GDELT": 250,
        "GDELT_DOC": 0,
        "DIRECT_FEED": 0,
        "USGS": 0,
        "GDACS": 0
      },
      "last7_score": 78.029,
      "prev7_score": 14.922,
      "trend": "up",
      "trend_arrow": "🔺",
      "change_pct": 422.9,
      "place": "Jász-Nagykun-Szolnok, Hungary"
    },
    {
      "lon": 21.25,
      "lat": 52.25,
      "type": "hotspot_cell",
      "score": 58.592,
      "count": 167,
      "cell_deg": 0.5,
      "sources": {
        "GDELT": 167,
        "GDELT_DOC": 0,
        "DIRECT_FEED": 0,
        "USGS": 0,
        "GDACS": 0
      },
      "last7_score": 48.226,
      "prev7_score": 10.366,
      "trend": "up",
      "trend_arrow": "🔺",
      "change_pct": 365.2,
      "place": "Warsaw, Poland"
    }
  ]
}