{
  "generated_utc": "2026-04-04T13:03:52Z",
  "top": [
    {
      "lon": 26.25,
      "lat": 44.25,
      "type": "hotspot_cell",
      "score": 829.432,
      "count": 1404,
      "cell_deg": 0.5,
      "sources": {
        "GDELT": 168,
        "GDELT_DOC": 1231,
        "DIRECT_FEED": 5,
        "USGS": 0,
        "GDACS": 0
      },
      "last7_score": 821.876,
      "prev7_score": 7.556,
      "trend": "up",
      "trend_arrow": "🔺",
      "change_pct": 10777.7,
      "place": "Giurgiu, Romania"
    },
    {
      "lon": 14.25,
      "lat": 50.25,
      "type": "hotspot_cell",
      "score": 827.897,
      "count": 1401,
      "cell_deg": 0.5,
      "sources": {
        "GDELT": 108,
        "GDELT_DOC": 1291,
        "DIRECT_FEED": 2,
        "USGS": 0,
        "GDACS": 0
      },
      "last7_score": 818.836,
      "prev7_score": 9.062,
      "trend": "up",
      "trend_arrow": "🔺",
      "change_pct": 8936.3,
      "place": "SO ORP Kralupy nad Vltavou, Czechia"
    },
    {
      "lon": 25.25,
      "lat": 54.75,
      "type": "hotspot_cell",
      "score": 618.08,
      "count": 1098,
      "cell_deg": 0.5,
      "sources": {
        "GDELT": 88,
        "GDELT_DOC": 1010,
        "DIRECT_FEED": 0,
        "USGS": 0,
        "GDACS": 0
      },
      "last7_score": 611.851,
      "prev7_score": 6.229,
      "trend": "up",
      "trend_arrow": "🔺",
      "change_pct": 9722.3,
      "place": "Vilnius County, Lithuania"
    },
    {
      "lon": 19.25,
      "lat": 47.75,
      "type": "hotspot_cell",
      "score": 234.453,
      "count": 486,
      "cell_deg": 0.5,
      "sources": {
        "GDELT": 267,
        "GDELT_DOC": 0,
        "DIRECT_FEED": 219,
        "USGS": 0,
        "GDACS": 0
      },
      "last7_score": 213.389,
      "prev7_score": 21.063,
      "trend": "up",
      "trend_arrow": "🔺",
      "change_pct": 913.1,
      "place": "Pest, Hungary"
    },
    {
      "lon": 20.25,
      "lat": 52.25,
      "type": "hotspot_cell",
      "score": 172.839,
      "count": 461,
      "cell_deg": 0.5,
      "sources": {
        "GDELT": 461,
        "GDELT_DOC": 0,
        "DIRECT_FEED": 0,
        "USGS": 0,
        "GDACS": 0
      },
      "last7_score": 139.386,
      "prev7_score": 33.453,
      "trend": "up",
      "trend_arrow": "🔺",
      "change_pct": 316.7,
      "place": "Sochaczew County, Poland"
    },
    {
      "lon": 20.25,
      "lat": 47.25,
      "type": "hotspot_cell",
      "score": 107.501,
      "count": 311,
      "cell_deg": 0.5,
      "sources": {
        "GDELT": 311,
        "GDELT_DOC": 0,
        "DIRECT_FEED": 0,
        "USGS": 0,
        "GDACS": 0
      },
      "last7_score": 86.931,
      "prev7_score": 20.57,
      "trend": "up",
      "trend_arrow": "🔺",
      "change_pct": 322.6,
      "place": "Jász-Nagykun-Szolnok, Hungary"
    },
    {
      "lon": 25.25,
      "lat": 46.25,
      "type": "hotspot_cell",
      "score": 105.078,
      "count": 305,
      "cell_deg": 0.5,
      "sources": {
        "GDELT": 305,
        "GDELT_DOC": 0,
        "DIRECT_FEED": 0,
        "USGS": 0,
        "GDACS": 0
      },
      "last7_score": 84.579,
      "prev7_score": 20.499,
      "trend": "up",
      "trend_arrow": "🔺",
      "change_pct": 312.6,
      "place": "Harghita, Romania"
    },
    {
      "lon": 24.25,
      "lat": 56.75,
      "type": "hotspot_cell",
      "score": 99.472,
      "count": 167,
      "cell_deg": 0.5,
      "sources": {
        "GDELT": 42,
        "GDELT_DOC": 0,
        "DIRECT_FEED": 125,
        "USGS": 0,
        "GDACS": 0
      },
      "last7_score": 96.446,
      "prev7_score": 3.026,
      "trend": "up",
      "trend_arrow": "🔺",
      "change_pct": 3086.9,
      "place": "Ķekavas novads, Latvia"
    },
    {
      "lon": 27.75,
      "lat": 47.25,
      "type": "hotspot_cell",
      "score": 52.454,
      "count": 85,
      "cell_deg": 0.5,
      "sources": {
        "GDELT": 0,
        "GDELT_DOC": 85,
        "DIRECT_FEED": 0,
        "USGS": 0,
        "GDACS": 0
      },
      "last7_score": 52.454,
      "prev7_score": 0.0,
      "trend": "new",
      "trend_arrow": "🆕",
      "change_pct": null,
      "place": "Iași, Romania"
    },
    {
      "lon": 21.25,
      "lat": 52.25,
      "type": "hotspot_cell",
      "score": 48.842,
      "count": 131,
      "cell_deg": 0.5,
      "sources": {
        "GDELT": 131,
        "GDELT_DOC": 0,
        "DIRECT_FEED": 0,
        "USGS": 0,
        "GDACS": 0
      },
      "last7_score": 40.543,
      "prev7_score": 8.299,
      "trend": "up",
      "trend_arrow": "🔺",
      "change_pct": 388.5,
      "place": "Warsaw, Poland"
    }
  ]
}