{
  "generated_utc": "2026-03-09T02:14:48Z",
  "top": [
    {
      "lon": 14.25,
      "lat": 50.25,
      "type": "hotspot_cell",
      "score": 465.927,
      "count": 624,
      "cell_deg": 0.5,
      "sources": {
        "GDELT": 150,
        "GDELT_DOC": 474,
        "DIRECT_FEED": 0,
        "USGS": 0,
        "GDACS": 0
      },
      "last7_score": 455.897,
      "prev7_score": 10.03,
      "trend": "up",
      "trend_arrow": "🔺",
      "change_pct": 4445.2,
      "place": "SO ORP Kralupy nad Vltavou, Czechia"
    },
    {
      "lon": 26.25,
      "lat": 44.25,
      "type": "hotspot_cell",
      "score": 449.101,
      "count": 597,
      "cell_deg": 0.5,
      "sources": {
        "GDELT": 165,
        "GDELT_DOC": 432,
        "DIRECT_FEED": 0,
        "USGS": 0,
        "GDACS": 0
      },
      "last7_score": 437.489,
      "prev7_score": 11.612,
      "trend": "up",
      "trend_arrow": "🔺",
      "change_pct": 3667.7,
      "place": "Giurgiu, Romania"
    },
    {
      "lon": 25.25,
      "lat": 54.75,
      "type": "hotspot_cell",
      "score": 294.468,
      "count": 380,
      "cell_deg": 0.5,
      "sources": {
        "GDELT": 69,
        "GDELT_DOC": 311,
        "DIRECT_FEED": 0,
        "USGS": 0,
        "GDACS": 0
      },
      "last7_score": 288.938,
      "prev7_score": 5.531,
      "trend": "up",
      "trend_arrow": "🔺",
      "change_pct": 5124.4,
      "place": "Vilnius County, Lithuania"
    },
    {
      "lon": 19.25,
      "lat": 47.75,
      "type": "hotspot_cell",
      "score": 225.811,
      "count": 476,
      "cell_deg": 0.5,
      "sources": {
        "GDELT": 410,
        "GDELT_DOC": 0,
        "DIRECT_FEED": 66,
        "USGS": 0,
        "GDACS": 0
      },
      "last7_score": 203.701,
      "prev7_score": 22.11,
      "trend": "up",
      "trend_arrow": "🔺",
      "change_pct": 821.3,
      "place": "Pest, Hungary"
    },
    {
      "lon": 20.25,
      "lat": 52.25,
      "type": "hotspot_cell",
      "score": 170.057,
      "count": 523,
      "cell_deg": 0.5,
      "sources": {
        "GDELT": 523,
        "GDELT_DOC": 0,
        "DIRECT_FEED": 0,
        "USGS": 0,
        "GDACS": 0
      },
      "last7_score": 128.024,
      "prev7_score": 42.033,
      "trend": "up",
      "trend_arrow": "🔺",
      "change_pct": 204.6,
      "place": "Sochaczew County, Poland"
    },
    {
      "lon": 20.25,
      "lat": 47.25,
      "type": "hotspot_cell",
      "score": 117.054,
      "count": 367,
      "cell_deg": 0.5,
      "sources": {
        "GDELT": 367,
        "GDELT_DOC": 0,
        "DIRECT_FEED": 0,
        "USGS": 0,
        "GDACS": 0
      },
      "last7_score": 93.506,
      "prev7_score": 23.548,
      "trend": "up",
      "trend_arrow": "🔺",
      "change_pct": 297.1,
      "place": "Jász-Nagykun-Szolnok, Hungary"
    },
    {
      "lon": 25.25,
      "lat": 46.25,
      "type": "hotspot_cell",
      "score": 86.618,
      "count": 293,
      "cell_deg": 0.5,
      "sources": {
        "GDELT": 293,
        "GDELT_DOC": 0,
        "DIRECT_FEED": 0,
        "USGS": 0,
        "GDACS": 0
      },
      "last7_score": 63.371,
      "prev7_score": 23.248,
      "trend": "up",
      "trend_arrow": "🔺",
      "change_pct": 172.6,
      "place": "Harghita, Romania"
    },
    {
      "lon": 21.25,
      "lat": 52.25,
      "type": "hotspot_cell",
      "score": 78.294,
      "count": 239,
      "cell_deg": 0.5,
      "sources": {
        "GDELT": 239,
        "GDELT_DOC": 0,
        "DIRECT_FEED": 0,
        "USGS": 0,
        "GDACS": 0
      },
      "last7_score": 61.051,
      "prev7_score": 17.243,
      "trend": "up",
      "trend_arrow": "🔺",
      "change_pct": 254.1,
      "place": "Warsaw, Poland"
    },
    {
      "lon": 15.25,
      "lat": 49.75,
      "type": "hotspot_cell",
      "score": 59.5,
      "count": 165,
      "cell_deg": 0.5,
      "sources": {
        "GDELT": 165,
        "GDELT_DOC": 0,
        "DIRECT_FEED": 0,
        "USGS": 0,
        "GDACS": 0
      },
      "last7_score": 46.858,
      "prev7_score": 12.641,
      "trend": "up",
      "trend_arrow": "🔺",
      "change_pct": 270.7,
      "place": "Vysočina Region, Czechia"
    },
    {
      "lon": 24.25,
      "lat": 56.75,
      "type": "hotspot_cell",
      "score": 50.616,
      "count": 70,
      "cell_deg": 0.5,
      "sources": {
        "GDELT": 29,
        "GDELT_DOC": 0,
        "DIRECT_FEED": 41,
        "USGS": 0,
        "GDACS": 0
      },
      "last7_score": 48.29,
      "prev7_score": 2.326,
      "trend": "up",
      "trend_arrow": "🔺",
      "change_pct": 1976.2,
      "place": "Ķekavas novads, Latvia"
    }
  ]
}