{
  "generated_utc": "2026-06-22T02:56:56Z",
  "top": [
    {
      "lon": 26.25,
      "lat": 44.25,
      "type": "hotspot_cell",
      "score": 533.165,
      "count": 959,
      "cell_deg": 0.5,
      "sources": {
        "GDELT": 140,
        "GDELT_DOC": 815,
        "DIRECT_FEED": 4,
        "USGS": 0,
        "GDACS": 0
      },
      "last7_score": 521.899,
      "prev7_score": 11.266,
      "trend": "up",
      "trend_arrow": "🔺",
      "change_pct": 4532.4,
      "place": "Giurgiu, Romania"
    },
    {
      "lon": 25.25,
      "lat": 54.75,
      "type": "hotspot_cell",
      "score": 489.652,
      "count": 885,
      "cell_deg": 0.5,
      "sources": {
        "GDELT": 51,
        "GDELT_DOC": 833,
        "DIRECT_FEED": 1,
        "USGS": 0,
        "GDACS": 0
      },
      "last7_score": 487.061,
      "prev7_score": 2.591,
      "trend": "up",
      "trend_arrow": "🔺",
      "change_pct": 18695.8,
      "place": "Vilnius County, Lithuania"
    },
    {
      "lon": 14.25,
      "lat": 50.25,
      "type": "hotspot_cell",
      "score": 414.656,
      "count": 643,
      "cell_deg": 0.5,
      "sources": {
        "GDELT": 105,
        "GDELT_DOC": 528,
        "DIRECT_FEED": 10,
        "USGS": 0,
        "GDACS": 0
      },
      "last7_score": 406.659,
      "prev7_score": 7.996,
      "trend": "up",
      "trend_arrow": "🔺",
      "change_pct": 4985.5,
      "place": "SO ORP Kralupy nad Vltavou, Czechia"
    },
    {
      "lon": 20.25,
      "lat": 52.25,
      "type": "hotspot_cell",
      "score": 162.942,
      "count": 450,
      "cell_deg": 0.5,
      "sources": {
        "GDELT": 450,
        "GDELT_DOC": 0,
        "DIRECT_FEED": 0,
        "USGS": 0,
        "GDACS": 0
      },
      "last7_score": 134.228,
      "prev7_score": 28.714,
      "trend": "up",
      "trend_arrow": "🔺",
      "change_pct": 367.5,
      "place": "Sochaczew County, Poland"
    },
    {
      "lon": 19.25,
      "lat": 47.75,
      "type": "hotspot_cell",
      "score": 150.078,
      "count": 315,
      "cell_deg": 0.5,
      "sources": {
        "GDELT": 152,
        "GDELT_DOC": 0,
        "DIRECT_FEED": 163,
        "USGS": 0,
        "GDACS": 0
      },
      "last7_score": 138.386,
      "prev7_score": 11.692,
      "trend": "up",
      "trend_arrow": "🔺",
      "change_pct": 1083.6,
      "place": "Pest, Hungary"
    },
    {
      "lon": 25.25,
      "lat": 46.25,
      "type": "hotspot_cell",
      "score": 124.36,
      "count": 377,
      "cell_deg": 0.5,
      "sources": {
        "GDELT": 377,
        "GDELT_DOC": 0,
        "DIRECT_FEED": 0,
        "USGS": 0,
        "GDACS": 0
      },
      "last7_score": 94.518,
      "prev7_score": 29.842,
      "trend": "up",
      "trend_arrow": "🔺",
      "change_pct": 216.7,
      "place": "Harghita, Romania"
    },
    {
      "lon": 21.25,
      "lat": 52.25,
      "type": "hotspot_cell",
      "score": 123.816,
      "count": 249,
      "cell_deg": 0.5,
      "sources": {
        "GDELT": 249,
        "GDELT_DOC": 0,
        "DIRECT_FEED": 0,
        "USGS": 0,
        "GDACS": 0
      },
      "last7_score": 113.366,
      "prev7_score": 10.449,
      "trend": "up",
      "trend_arrow": "🔺",
      "change_pct": 984.9,
      "place": "Warsaw, Poland"
    },
    {
      "lon": 24.25,
      "lat": 56.75,
      "type": "hotspot_cell",
      "score": 97.036,
      "count": 170,
      "cell_deg": 0.5,
      "sources": {
        "GDELT": 35,
        "GDELT_DOC": 0,
        "DIRECT_FEED": 135,
        "USGS": 0,
        "GDACS": 0
      },
      "last7_score": 94.32,
      "prev7_score": 2.716,
      "trend": "up",
      "trend_arrow": "🔺",
      "change_pct": 3373.4,
      "place": "Ķekavas novads, Latvia"
    },
    {
      "lon": 20.25,
      "lat": 47.25,
      "type": "hotspot_cell",
      "score": 75.588,
      "count": 232,
      "cell_deg": 0.5,
      "sources": {
        "GDELT": 232,
        "GDELT_DOC": 0,
        "DIRECT_FEED": 0,
        "USGS": 0,
        "GDACS": 0
      },
      "last7_score": 59.422,
      "prev7_score": 16.166,
      "trend": "up",
      "trend_arrow": "🔺",
      "change_pct": 267.6,
      "place": "Jász-Nagykun-Szolnok, Hungary"
    },
    {
      "lon": 15.25,
      "lat": 49.75,
      "type": "hotspot_cell",
      "score": 51.084,
      "count": 138,
      "cell_deg": 0.5,
      "sources": {
        "GDELT": 138,
        "GDELT_DOC": 0,
        "DIRECT_FEED": 0,
        "USGS": 0,
        "GDACS": 0
      },
      "last7_score": 40.431,
      "prev7_score": 10.653,
      "trend": "up",
      "trend_arrow": "🔺",
      "change_pct": 279.5,
      "place": "Vysočina Region, Czechia"
    }
  ]
}