{
  "generated_utc": "2026-03-26T13:25:51Z",
  "top": [
    {
      "lon": 14.25,
      "lat": 50.25,
      "type": "hotspot_cell",
      "score": 864.197,
      "count": 1322,
      "cell_deg": 0.5,
      "sources": {
        "GDELT": 114,
        "GDELT_DOC": 1205,
        "DIRECT_FEED": 3,
        "USGS": 0,
        "GDACS": 0
      },
      "last7_score": 855.79,
      "prev7_score": 8.407,
      "trend": "up",
      "trend_arrow": "🔺",
      "change_pct": 10079.0,
      "place": "SO ORP Kralupy nad Vltavou, Czechia"
    },
    {
      "lon": 26.25,
      "lat": 44.25,
      "type": "hotspot_cell",
      "score": 815.397,
      "count": 1256,
      "cell_deg": 0.5,
      "sources": {
        "GDELT": 166,
        "GDELT_DOC": 1088,
        "DIRECT_FEED": 2,
        "USGS": 0,
        "GDACS": 0
      },
      "last7_score": 803.528,
      "prev7_score": 11.868,
      "trend": "up",
      "trend_arrow": "🔺",
      "change_pct": 6670.4,
      "place": "Giurgiu, Romania"
    },
    {
      "lon": 25.25,
      "lat": 54.75,
      "type": "hotspot_cell",
      "score": 597.194,
      "count": 972,
      "cell_deg": 0.5,
      "sources": {
        "GDELT": 83,
        "GDELT_DOC": 889,
        "DIRECT_FEED": 0,
        "USGS": 0,
        "GDACS": 0
      },
      "last7_score": 591.96,
      "prev7_score": 5.234,
      "trend": "up",
      "trend_arrow": "🔺",
      "change_pct": 11209.3,
      "place": "Vilnius County, Lithuania"
    },
    {
      "lon": 19.25,
      "lat": 47.75,
      "type": "hotspot_cell",
      "score": 287.289,
      "count": 558,
      "cell_deg": 0.5,
      "sources": {
        "GDELT": 342,
        "GDELT_DOC": 0,
        "DIRECT_FEED": 216,
        "USGS": 0,
        "GDACS": 0
      },
      "last7_score": 259.083,
      "prev7_score": 28.206,
      "trend": "up",
      "trend_arrow": "🔺",
      "change_pct": 818.5,
      "place": "Pest, Hungary"
    },
    {
      "lon": 20.25,
      "lat": 52.25,
      "type": "hotspot_cell",
      "score": 149.51,
      "count": 418,
      "cell_deg": 0.5,
      "sources": {
        "GDELT": 418,
        "GDELT_DOC": 0,
        "DIRECT_FEED": 0,
        "USGS": 0,
        "GDACS": 0
      },
      "last7_score": 116.894,
      "prev7_score": 32.615,
      "trend": "up",
      "trend_arrow": "🔺",
      "change_pct": 258.4,
      "place": "Sochaczew County, Poland"
    },
    {
      "lon": 20.25,
      "lat": 47.25,
      "type": "hotspot_cell",
      "score": 146.194,
      "count": 398,
      "cell_deg": 0.5,
      "sources": {
        "GDELT": 398,
        "GDELT_DOC": 0,
        "DIRECT_FEED": 0,
        "USGS": 0,
        "GDACS": 0
      },
      "last7_score": 114.614,
      "prev7_score": 31.579,
      "trend": "up",
      "trend_arrow": "🔺",
      "change_pct": 262.9,
      "place": "Jász-Nagykun-Szolnok, Hungary"
    },
    {
      "lon": 25.25,
      "lat": 46.25,
      "type": "hotspot_cell",
      "score": 140.588,
      "count": 320,
      "cell_deg": 0.5,
      "sources": {
        "GDELT": 320,
        "GDELT_DOC": 0,
        "DIRECT_FEED": 0,
        "USGS": 0,
        "GDACS": 0
      },
      "last7_score": 118.372,
      "prev7_score": 22.217,
      "trend": "up",
      "trend_arrow": "🔺",
      "change_pct": 432.8,
      "place": "Harghita, Romania"
    },
    {
      "lon": 24.25,
      "lat": 56.75,
      "type": "hotspot_cell",
      "score": 136.742,
      "count": 190,
      "cell_deg": 0.5,
      "sources": {
        "GDELT": 41,
        "GDELT_DOC": 0,
        "DIRECT_FEED": 149,
        "USGS": 0,
        "GDACS": 0
      },
      "last7_score": 134.459,
      "prev7_score": 2.283,
      "trend": "up",
      "trend_arrow": "🔺",
      "change_pct": 5789.1,
      "place": "Ķekavas novads, Latvia"
    },
    {
      "lon": 27.75,
      "lat": 47.25,
      "type": "hotspot_cell",
      "score": 72.066,
      "count": 99,
      "cell_deg": 0.5,
      "sources": {
        "GDELT": 0,
        "GDELT_DOC": 99,
        "DIRECT_FEED": 0,
        "USGS": 0,
        "GDACS": 0
      },
      "last7_score": 72.066,
      "prev7_score": 0.0,
      "trend": "new",
      "trend_arrow": "🆕",
      "change_pct": null,
      "place": "Iași, Romania"
    },
    {
      "lon": 22.25,
      "lat": 55.25,
      "type": "hotspot_cell",
      "score": 68.06,
      "count": 68,
      "cell_deg": 0.5,
      "sources": {
        "GDELT": 0,
        "GDELT_DOC": 67,
        "DIRECT_FEED": 1,
        "USGS": 0,
        "GDACS": 0
      },
      "last7_score": 68.06,
      "prev7_score": 0.0,
      "trend": "new",
      "trend_arrow": "🆕",
      "change_pct": null,
      "place": "Tauragės seniūnija, Lithuania"
    }
  ]
}