{
  "generated_utc": "2026-06-23T19:57:37Z",
  "top": [
    {
      "lon": 26.25,
      "lat": 44.25,
      "type": "hotspot_cell",
      "score": 690.654,
      "count": 1084,
      "cell_deg": 0.5,
      "sources": {
        "GDELT": 147,
        "GDELT_DOC": 932,
        "DIRECT_FEED": 5,
        "USGS": 0,
        "GDACS": 0
      },
      "last7_score": 680.815,
      "prev7_score": 9.839,
      "trend": "up",
      "trend_arrow": "🔺",
      "change_pct": 6819.4,
      "place": "Giurgiu, Romania"
    },
    {
      "lon": 14.25,
      "lat": 50.25,
      "type": "hotspot_cell",
      "score": 521.066,
      "count": 789,
      "cell_deg": 0.5,
      "sources": {
        "GDELT": 124,
        "GDELT_DOC": 654,
        "DIRECT_FEED": 11,
        "USGS": 0,
        "GDACS": 0
      },
      "last7_score": 513.673,
      "prev7_score": 7.393,
      "trend": "up",
      "trend_arrow": "🔺",
      "change_pct": 6848.0,
      "place": "SO ORP Kralupy nad Vltavou, Czechia"
    },
    {
      "lon": 25.25,
      "lat": 54.75,
      "type": "hotspot_cell",
      "score": 433.924,
      "count": 831,
      "cell_deg": 0.5,
      "sources": {
        "GDELT": 59,
        "GDELT_DOC": 772,
        "DIRECT_FEED": 0,
        "USGS": 0,
        "GDACS": 0
      },
      "last7_score": 431.097,
      "prev7_score": 2.827,
      "trend": "up",
      "trend_arrow": "🔺",
      "change_pct": 15150.6,
      "place": "Vilnius County, Lithuania"
    },
    {
      "lon": 19.25,
      "lat": 47.75,
      "type": "hotspot_cell",
      "score": 196.833,
      "count": 353,
      "cell_deg": 0.5,
      "sources": {
        "GDELT": 179,
        "GDELT_DOC": 0,
        "DIRECT_FEED": 174,
        "USGS": 0,
        "GDACS": 0
      },
      "last7_score": 185.526,
      "prev7_score": 11.308,
      "trend": "up",
      "trend_arrow": "🔺",
      "change_pct": 1540.7,
      "place": "Pest, Hungary"
    },
    {
      "lon": 20.25,
      "lat": 52.25,
      "type": "hotspot_cell",
      "score": 180.132,
      "count": 498,
      "cell_deg": 0.5,
      "sources": {
        "GDELT": 498,
        "GDELT_DOC": 0,
        "DIRECT_FEED": 0,
        "USGS": 0,
        "GDACS": 0
      },
      "last7_score": 150.827,
      "prev7_score": 29.305,
      "trend": "up",
      "trend_arrow": "🔺",
      "change_pct": 414.7,
      "place": "Sochaczew County, Poland"
    },
    {
      "lon": 25.25,
      "lat": 46.25,
      "type": "hotspot_cell",
      "score": 152.078,
      "count": 417,
      "cell_deg": 0.5,
      "sources": {
        "GDELT": 417,
        "GDELT_DOC": 0,
        "DIRECT_FEED": 0,
        "USGS": 0,
        "GDACS": 0
      },
      "last7_score": 123.594,
      "prev7_score": 28.484,
      "trend": "up",
      "trend_arrow": "🔺",
      "change_pct": 333.9,
      "place": "Harghita, Romania"
    },
    {
      "lon": 21.25,
      "lat": 52.25,
      "type": "hotspot_cell",
      "score": 142.986,
      "count": 301,
      "cell_deg": 0.5,
      "sources": {
        "GDELT": 301,
        "GDELT_DOC": 0,
        "DIRECT_FEED": 0,
        "USGS": 0,
        "GDACS": 0
      },
      "last7_score": 132.064,
      "prev7_score": 10.922,
      "trend": "up",
      "trend_arrow": "🔺",
      "change_pct": 1109.1,
      "place": "Warsaw, Poland"
    },
    {
      "lon": 24.25,
      "lat": 56.75,
      "type": "hotspot_cell",
      "score": 112.991,
      "count": 176,
      "cell_deg": 0.5,
      "sources": {
        "GDELT": 39,
        "GDELT_DOC": 0,
        "DIRECT_FEED": 137,
        "USGS": 0,
        "GDACS": 0
      },
      "last7_score": 111.298,
      "prev7_score": 1.693,
      "trend": "up",
      "trend_arrow": "🔺",
      "change_pct": 6473.2,
      "place": "Ķekavas novads, Latvia"
    },
    {
      "lon": 20.25,
      "lat": 47.25,
      "type": "hotspot_cell",
      "score": 95.929,
      "count": 261,
      "cell_deg": 0.5,
      "sources": {
        "GDELT": 260,
        "GDELT_DOC": 0,
        "DIRECT_FEED": 0,
        "USGS": 0,
        "GDACS": 1
      },
      "last7_score": 78.733,
      "prev7_score": 17.196,
      "trend": "up",
      "trend_arrow": "🔺",
      "change_pct": 357.9,
      "place": "Jász-Nagykun-Szolnok, Hungary"
    },
    {
      "lon": 15.25,
      "lat": 49.75,
      "type": "hotspot_cell",
      "score": 55.208,
      "count": 147,
      "cell_deg": 0.5,
      "sources": {
        "GDELT": 147,
        "GDELT_DOC": 0,
        "DIRECT_FEED": 0,
        "USGS": 0,
        "GDACS": 0
      },
      "last7_score": 46.387,
      "prev7_score": 8.821,
      "trend": "up",
      "trend_arrow": "🔺",
      "change_pct": 425.9,
      "place": "Vysočina Region, Czechia"
    }
  ]
}