{
  "generated_utc": "2026-03-27T19:04:43Z",
  "top": [
    {
      "lon": 14.25,
      "lat": 50.25,
      "type": "hotspot_cell",
      "score": 983.757,
      "count": 1438,
      "cell_deg": 0.5,
      "sources": {
        "GDELT": 130,
        "GDELT_DOC": 1305,
        "DIRECT_FEED": 3,
        "USGS": 0,
        "GDACS": 0
      },
      "last7_score": 974.853,
      "prev7_score": 8.904,
      "trend": "up",
      "trend_arrow": "🔺",
      "change_pct": 10848.7,
      "place": "SO ORP Kralupy nad Vltavou, Czechia"
    },
    {
      "lon": 26.25,
      "lat": 44.25,
      "type": "hotspot_cell",
      "score": 665.86,
      "count": 1160,
      "cell_deg": 0.5,
      "sources": {
        "GDELT": 151,
        "GDELT_DOC": 1007,
        "DIRECT_FEED": 2,
        "USGS": 0,
        "GDACS": 0
      },
      "last7_score": 655.681,
      "prev7_score": 10.179,
      "trend": "up",
      "trend_arrow": "🔺",
      "change_pct": 6341.7,
      "place": "Giurgiu, Romania"
    },
    {
      "lon": 25.25,
      "lat": 54.75,
      "type": "hotspot_cell",
      "score": 645.5,
      "count": 1018,
      "cell_deg": 0.5,
      "sources": {
        "GDELT": 90,
        "GDELT_DOC": 928,
        "DIRECT_FEED": 0,
        "USGS": 0,
        "GDACS": 0
      },
      "last7_score": 638.006,
      "prev7_score": 7.494,
      "trend": "up",
      "trend_arrow": "🔺",
      "change_pct": 8413.3,
      "place": "Vilnius County, Lithuania"
    },
    {
      "lon": 19.25,
      "lat": 47.75,
      "type": "hotspot_cell",
      "score": 293.31,
      "count": 574,
      "cell_deg": 0.5,
      "sources": {
        "GDELT": 361,
        "GDELT_DOC": 0,
        "DIRECT_FEED": 213,
        "USGS": 0,
        "GDACS": 0
      },
      "last7_score": 266.178,
      "prev7_score": 27.132,
      "trend": "up",
      "trend_arrow": "🔺",
      "change_pct": 881.1,
      "place": "Pest, Hungary"
    },
    {
      "lon": 20.25,
      "lat": 52.25,
      "type": "hotspot_cell",
      "score": 171.795,
      "count": 432,
      "cell_deg": 0.5,
      "sources": {
        "GDELT": 432,
        "GDELT_DOC": 0,
        "DIRECT_FEED": 0,
        "USGS": 0,
        "GDACS": 0
      },
      "last7_score": 139.443,
      "prev7_score": 32.352,
      "trend": "up",
      "trend_arrow": "🔺",
      "change_pct": 331.0,
      "place": "Sochaczew County, Poland"
    },
    {
      "lon": 20.25,
      "lat": 47.25,
      "type": "hotspot_cell",
      "score": 142.514,
      "count": 398,
      "cell_deg": 0.5,
      "sources": {
        "GDELT": 398,
        "GDELT_DOC": 0,
        "DIRECT_FEED": 0,
        "USGS": 0,
        "GDACS": 0
      },
      "last7_score": 110.012,
      "prev7_score": 32.502,
      "trend": "up",
      "trend_arrow": "🔺",
      "change_pct": 238.5,
      "place": "Jász-Nagykun-Szolnok, Hungary"
    },
    {
      "lon": 24.25,
      "lat": 56.75,
      "type": "hotspot_cell",
      "score": 142.386,
      "count": 197,
      "cell_deg": 0.5,
      "sources": {
        "GDELT": 45,
        "GDELT_DOC": 0,
        "DIRECT_FEED": 152,
        "USGS": 0,
        "GDACS": 0
      },
      "last7_score": 139.742,
      "prev7_score": 2.644,
      "trend": "up",
      "trend_arrow": "🔺",
      "change_pct": 5185.9,
      "place": "Ķekavas novads, Latvia"
    },
    {
      "lon": 25.25,
      "lat": 46.25,
      "type": "hotspot_cell",
      "score": 139.72,
      "count": 330,
      "cell_deg": 0.5,
      "sources": {
        "GDELT": 330,
        "GDELT_DOC": 0,
        "DIRECT_FEED": 0,
        "USGS": 0,
        "GDACS": 0
      },
      "last7_score": 117.514,
      "prev7_score": 22.206,
      "trend": "up",
      "trend_arrow": "🔺",
      "change_pct": 429.2,
      "place": "Harghita, Romania"
    },
    {
      "lon": 15.25,
      "lat": 49.75,
      "type": "hotspot_cell",
      "score": 68.341,
      "count": 178,
      "cell_deg": 0.5,
      "sources": {
        "GDELT": 178,
        "GDELT_DOC": 0,
        "DIRECT_FEED": 0,
        "USGS": 0,
        "GDACS": 0
      },
      "last7_score": 53.82,
      "prev7_score": 14.521,
      "trend": "up",
      "trend_arrow": "🔺",
      "change_pct": 270.6,
      "place": "Vysočina Region, Czechia"
    },
    {
      "lon": 22.25,
      "lat": 55.25,
      "type": "hotspot_cell",
      "score": 63.824,
      "count": 77,
      "cell_deg": 0.5,
      "sources": {
        "GDELT": 0,
        "GDELT_DOC": 76,
        "DIRECT_FEED": 1,
        "USGS": 0,
        "GDACS": 0
      },
      "last7_score": 63.824,
      "prev7_score": 0.0,
      "trend": "new",
      "trend_arrow": "🆕",
      "change_pct": null,
      "place": "Tauragės seniūnija, Lithuania"
    }
  ]
}