{
  "generated_utc": "2026-06-07T08:53:48Z",
  "top": [
    {
      "lon": 26.25,
      "lat": 44.25,
      "type": "hotspot_cell",
      "score": 686.171,
      "count": 1150,
      "cell_deg": 0.5,
      "sources": {
        "GDELT": 251,
        "GDELT_DOC": 892,
        "DIRECT_FEED": 7,
        "USGS": 0,
        "GDACS": 0
      },
      "last7_score": 660.921,
      "prev7_score": 25.25,
      "trend": "up",
      "trend_arrow": "🔺",
      "change_pct": 2517.5,
      "place": "Giurgiu, Romania"
    },
    {
      "lon": 25.25,
      "lat": 54.75,
      "type": "hotspot_cell",
      "score": 566.109,
      "count": 994,
      "cell_deg": 0.5,
      "sources": {
        "GDELT": 83,
        "GDELT_DOC": 908,
        "DIRECT_FEED": 3,
        "USGS": 0,
        "GDACS": 0
      },
      "last7_score": 561.945,
      "prev7_score": 4.164,
      "trend": "up",
      "trend_arrow": "🔺",
      "change_pct": 13395.5,
      "place": "Vilnius County, Lithuania"
    },
    {
      "lon": 14.25,
      "lat": 50.25,
      "type": "hotspot_cell",
      "score": 497.953,
      "count": 965,
      "cell_deg": 0.5,
      "sources": {
        "GDELT": 123,
        "GDELT_DOC": 838,
        "DIRECT_FEED": 4,
        "USGS": 0,
        "GDACS": 0
      },
      "last7_score": 489.172,
      "prev7_score": 8.782,
      "trend": "up",
      "trend_arrow": "🔺",
      "change_pct": 5470.3,
      "place": "SO ORP Kralupy nad Vltavou, Czechia"
    },
    {
      "lon": 19.25,
      "lat": 47.75,
      "type": "hotspot_cell",
      "score": 201.744,
      "count": 434,
      "cell_deg": 0.5,
      "sources": {
        "GDELT": 256,
        "GDELT_DOC": 0,
        "DIRECT_FEED": 178,
        "USGS": 0,
        "GDACS": 0
      },
      "last7_score": 184.29,
      "prev7_score": 17.454,
      "trend": "up",
      "trend_arrow": "🔺",
      "change_pct": 955.9,
      "place": "Pest, Hungary"
    },
    {
      "lon": 20.25,
      "lat": 52.25,
      "type": "hotspot_cell",
      "score": 182.85,
      "count": 551,
      "cell_deg": 0.5,
      "sources": {
        "GDELT": 551,
        "GDELT_DOC": 0,
        "DIRECT_FEED": 0,
        "USGS": 0,
        "GDACS": 0
      },
      "last7_score": 144.942,
      "prev7_score": 37.908,
      "trend": "up",
      "trend_arrow": "🔺",
      "change_pct": 282.4,
      "place": "Sochaczew County, Poland"
    },
    {
      "lon": 25.25,
      "lat": 46.25,
      "type": "hotspot_cell",
      "score": 181.128,
      "count": 505,
      "cell_deg": 0.5,
      "sources": {
        "GDELT": 505,
        "GDELT_DOC": 0,
        "DIRECT_FEED": 0,
        "USGS": 0,
        "GDACS": 0
      },
      "last7_score": 142.353,
      "prev7_score": 38.776,
      "trend": "up",
      "trend_arrow": "🔺",
      "change_pct": 267.1,
      "place": "Harghita, Romania"
    },
    {
      "lon": 24.25,
      "lat": 56.75,
      "type": "hotspot_cell",
      "score": 116.87,
      "count": 196,
      "cell_deg": 0.5,
      "sources": {
        "GDELT": 52,
        "GDELT_DOC": 0,
        "DIRECT_FEED": 144,
        "USGS": 0,
        "GDACS": 0
      },
      "last7_score": 113.402,
      "prev7_score": 3.469,
      "trend": "up",
      "trend_arrow": "🔺",
      "change_pct": 3169.4,
      "place": "Ķekavas novads, Latvia"
    },
    {
      "lon": 20.25,
      "lat": 47.25,
      "type": "hotspot_cell",
      "score": 90.187,
      "count": 259,
      "cell_deg": 0.5,
      "sources": {
        "GDELT": 259,
        "GDELT_DOC": 0,
        "DIRECT_FEED": 0,
        "USGS": 0,
        "GDACS": 0
      },
      "last7_score": 72.289,
      "prev7_score": 17.898,
      "trend": "up",
      "trend_arrow": "🔺",
      "change_pct": 303.9,
      "place": "Jász-Nagykun-Szolnok, Hungary"
    },
    {
      "lon": 21.25,
      "lat": 52.25,
      "type": "hotspot_cell",
      "score": 72.583,
      "count": 217,
      "cell_deg": 0.5,
      "sources": {
        "GDELT": 217,
        "GDELT_DOC": 0,
        "DIRECT_FEED": 0,
        "USGS": 0,
        "GDACS": 0
      },
      "last7_score": 56.156,
      "prev7_score": 16.427,
      "trend": "up",
      "trend_arrow": "🔺",
      "change_pct": 241.9,
      "place": "Warsaw, Poland"
    },
    {
      "lon": 15.25,
      "lat": 49.75,
      "type": "hotspot_cell",
      "score": 49.797,
      "count": 156,
      "cell_deg": 0.5,
      "sources": {
        "GDELT": 156,
        "GDELT_DOC": 0,
        "DIRECT_FEED": 0,
        "USGS": 0,
        "GDACS": 0
      },
      "last7_score": 39.138,
      "prev7_score": 10.659,
      "trend": "up",
      "trend_arrow": "🔺",
      "change_pct": 267.2,
      "place": "Vysočina Region, Czechia"
    }
  ]
}