{
  "generated_utc": "2026-07-10T02:09:42Z",
  "top": [
    {
      "lon": 14.25,
      "lat": 50.25,
      "type": "hotspot_cell",
      "score": 760.58,
      "count": 953,
      "cell_deg": 0.5,
      "sources": {
        "GDELT": 107,
        "GDELT_DOC": 842,
        "DIRECT_FEED": 4,
        "USGS": 0,
        "GDACS": 0
      },
      "last7_score": 750.636,
      "prev7_score": 9.944,
      "trend": "up",
      "trend_arrow": "🔺",
      "change_pct": 7448.3,
      "place": "SO ORP Kralupy nad Vltavou, Czechia"
    },
    {
      "lon": 26.25,
      "lat": 44.25,
      "type": "hotspot_cell",
      "score": 533.706,
      "count": 788,
      "cell_deg": 0.5,
      "sources": {
        "GDELT": 123,
        "GDELT_DOC": 660,
        "DIRECT_FEED": 5,
        "USGS": 0,
        "GDACS": 0
      },
      "last7_score": 522.024,
      "prev7_score": 11.683,
      "trend": "up",
      "trend_arrow": "🔺",
      "change_pct": 4368.4,
      "place": "Giurgiu, Romania"
    },
    {
      "lon": 25.25,
      "lat": 54.75,
      "type": "hotspot_cell",
      "score": 504.976,
      "count": 613,
      "cell_deg": 0.5,
      "sources": {
        "GDELT": 69,
        "GDELT_DOC": 542,
        "DIRECT_FEED": 2,
        "USGS": 0,
        "GDACS": 0
      },
      "last7_score": 497.975,
      "prev7_score": 7.001,
      "trend": "up",
      "trend_arrow": "🔺",
      "change_pct": 7013.0,
      "place": "Vilnius County, Lithuania"
    },
    {
      "lon": 20.25,
      "lat": 52.25,
      "type": "hotspot_cell",
      "score": 195.924,
      "count": 508,
      "cell_deg": 0.5,
      "sources": {
        "GDELT": 508,
        "GDELT_DOC": 0,
        "DIRECT_FEED": 0,
        "USGS": 0,
        "GDACS": 0
      },
      "last7_score": 148.758,
      "prev7_score": 47.165,
      "trend": "up",
      "trend_arrow": "🔺",
      "change_pct": 215.4,
      "place": "Sochaczew County, Poland"
    },
    {
      "lon": 19.25,
      "lat": 47.75,
      "type": "hotspot_cell",
      "score": 177.756,
      "count": 308,
      "cell_deg": 0.5,
      "sources": {
        "GDELT": 149,
        "GDELT_DOC": 0,
        "DIRECT_FEED": 159,
        "USGS": 0,
        "GDACS": 0
      },
      "last7_score": 165.823,
      "prev7_score": 11.933,
      "trend": "up",
      "trend_arrow": "🔺",
      "change_pct": 1289.6,
      "place": "Pest, Hungary"
    },
    {
      "lon": 25.25,
      "lat": 46.25,
      "type": "hotspot_cell",
      "score": 140.016,
      "count": 329,
      "cell_deg": 0.5,
      "sources": {
        "GDELT": 329,
        "GDELT_DOC": 0,
        "DIRECT_FEED": 0,
        "USGS": 0,
        "GDACS": 0
      },
      "last7_score": 111.902,
      "prev7_score": 28.114,
      "trend": "up",
      "trend_arrow": "🔺",
      "change_pct": 298.0,
      "place": "Harghita, Romania"
    },
    {
      "lon": 24.25,
      "lat": 56.75,
      "type": "hotspot_cell",
      "score": 104.654,
      "count": 152,
      "cell_deg": 0.5,
      "sources": {
        "GDELT": 19,
        "GDELT_DOC": 0,
        "DIRECT_FEED": 133,
        "USGS": 0,
        "GDACS": 0
      },
      "last7_score": 103.137,
      "prev7_score": 1.516,
      "trend": "up",
      "trend_arrow": "🔺",
      "change_pct": 6701.1,
      "place": "Ķekavas novads, Latvia"
    },
    {
      "lon": 21.25,
      "lat": 52.25,
      "type": "hotspot_cell",
      "score": 93.867,
      "count": 248,
      "cell_deg": 0.5,
      "sources": {
        "GDELT": 248,
        "GDELT_DOC": 0,
        "DIRECT_FEED": 0,
        "USGS": 0,
        "GDACS": 0
      },
      "last7_score": 71.909,
      "prev7_score": 21.958,
      "trend": "up",
      "trend_arrow": "🔺",
      "change_pct": 227.5,
      "place": "Warsaw, Poland"
    },
    {
      "lon": 26.25,
      "lat": 59.25,
      "type": "hotspot_cell",
      "score": 73.283,
      "count": 145,
      "cell_deg": 0.5,
      "sources": {
        "GDELT": 145,
        "GDELT_DOC": 0,
        "DIRECT_FEED": 0,
        "USGS": 0,
        "GDACS": 0
      },
      "last7_score": 61.996,
      "prev7_score": 11.286,
      "trend": "up",
      "trend_arrow": "🔺",
      "change_pct": 449.3,
      "place": "Lääne-Viru County, Estonia"
    },
    {
      "lon": 15.25,
      "lat": 49.75,
      "type": "hotspot_cell",
      "score": 71.523,
      "count": 171,
      "cell_deg": 0.5,
      "sources": {
        "GDELT": 171,
        "GDELT_DOC": 0,
        "DIRECT_FEED": 0,
        "USGS": 0,
        "GDACS": 0
      },
      "last7_score": 57.862,
      "prev7_score": 13.661,
      "trend": "up",
      "trend_arrow": "🔺",
      "change_pct": 323.6,
      "place": "Vysočina Region, Czechia"
    }
  ]
}