{
  "generated_utc": "2026-04-10T07:47:02Z",
  "top": [
    {
      "lon": 26.25,
      "lat": 44.25,
      "type": "hotspot_cell",
      "score": 900.024,
      "count": 1394,
      "cell_deg": 0.5,
      "sources": {
        "GDELT": 156,
        "GDELT_DOC": 1232,
        "DIRECT_FEED": 6,
        "USGS": 0,
        "GDACS": 0
      },
      "last7_score": 883.701,
      "prev7_score": 16.323,
      "trend": "up",
      "trend_arrow": "🔺",
      "change_pct": 5313.9,
      "place": "Giurgiu, Romania"
    },
    {
      "lon": 14.25,
      "lat": 50.25,
      "type": "hotspot_cell",
      "score": 751.525,
      "count": 1097,
      "cell_deg": 0.5,
      "sources": {
        "GDELT": 84,
        "GDELT_DOC": 1012,
        "DIRECT_FEED": 1,
        "USGS": 0,
        "GDACS": 0
      },
      "last7_score": 745.003,
      "prev7_score": 6.522,
      "trend": "up",
      "trend_arrow": "🔺",
      "change_pct": 11323.1,
      "place": "SO ORP Kralupy nad Vltavou, Czechia"
    },
    {
      "lon": 25.25,
      "lat": 54.75,
      "type": "hotspot_cell",
      "score": 573.851,
      "count": 856,
      "cell_deg": 0.5,
      "sources": {
        "GDELT": 70,
        "GDELT_DOC": 785,
        "DIRECT_FEED": 1,
        "USGS": 0,
        "GDACS": 0
      },
      "last7_score": 566.63,
      "prev7_score": 7.221,
      "trend": "up",
      "trend_arrow": "🔺",
      "change_pct": 7746.7,
      "place": "Vilnius County, Lithuania"
    },
    {
      "lon": 19.25,
      "lat": 47.75,
      "type": "hotspot_cell",
      "score": 501.496,
      "count": 746,
      "cell_deg": 0.5,
      "sources": {
        "GDELT": 512,
        "GDELT_DOC": 0,
        "DIRECT_FEED": 234,
        "USGS": 0,
        "GDACS": 0
      },
      "last7_score": 484.366,
      "prev7_score": 17.13,
      "trend": "up",
      "trend_arrow": "🔺",
      "change_pct": 2727.5,
      "place": "Pest, Hungary"
    },
    {
      "lon": 20.25,
      "lat": 47.25,
      "type": "hotspot_cell",
      "score": 192.542,
      "count": 383,
      "cell_deg": 0.5,
      "sources": {
        "GDELT": 383,
        "GDELT_DOC": 0,
        "DIRECT_FEED": 0,
        "USGS": 0,
        "GDACS": 0
      },
      "last7_score": 170.627,
      "prev7_score": 21.915,
      "trend": "up",
      "trend_arrow": "🔺",
      "change_pct": 678.6,
      "place": "Jász-Nagykun-Szolnok, Hungary"
    },
    {
      "lon": 20.25,
      "lat": 52.25,
      "type": "hotspot_cell",
      "score": 154.097,
      "count": 428,
      "cell_deg": 0.5,
      "sources": {
        "GDELT": 428,
        "GDELT_DOC": 0,
        "DIRECT_FEED": 0,
        "USGS": 0,
        "GDACS": 0
      },
      "last7_score": 117.524,
      "prev7_score": 36.573,
      "trend": "up",
      "trend_arrow": "🔺",
      "change_pct": 221.3,
      "place": "Sochaczew County, Poland"
    },
    {
      "lon": 24.25,
      "lat": 56.75,
      "type": "hotspot_cell",
      "score": 111.432,
      "count": 152,
      "cell_deg": 0.5,
      "sources": {
        "GDELT": 26,
        "GDELT_DOC": 0,
        "DIRECT_FEED": 126,
        "USGS": 0,
        "GDACS": 0
      },
      "last7_score": 108.997,
      "prev7_score": 2.435,
      "trend": "up",
      "trend_arrow": "🔺",
      "change_pct": 4375.6,
      "place": "Ķekavas novads, Latvia"
    },
    {
      "lon": 25.25,
      "lat": 46.25,
      "type": "hotspot_cell",
      "score": 99.377,
      "count": 249,
      "cell_deg": 0.5,
      "sources": {
        "GDELT": 249,
        "GDELT_DOC": 0,
        "DIRECT_FEED": 0,
        "USGS": 0,
        "GDACS": 0
      },
      "last7_score": 79.175,
      "prev7_score": 20.202,
      "trend": "up",
      "trend_arrow": "🔺",
      "change_pct": 291.9,
      "place": "Harghita, Romania"
    },
    {
      "lon": 24.25,
      "lat": 56.25,
      "type": "hotspot_cell",
      "score": 57.929,
      "count": 109,
      "cell_deg": 0.5,
      "sources": {
        "GDELT": 109,
        "GDELT_DOC": 0,
        "DIRECT_FEED": 0,
        "USGS": 0,
        "GDACS": 0
      },
      "last7_score": 51.223,
      "prev7_score": 6.706,
      "trend": "up",
      "trend_arrow": "🔺",
      "change_pct": 663.8,
      "place": "Namišių seniūnija, Lithuania"
    },
    {
      "lon": 15.25,
      "lat": 49.75,
      "type": "hotspot_cell",
      "score": 45.898,
      "count": 113,
      "cell_deg": 0.5,
      "sources": {
        "GDELT": 113,
        "GDELT_DOC": 0,
        "DIRECT_FEED": 0,
        "USGS": 0,
        "GDACS": 0
      },
      "last7_score": 37.232,
      "prev7_score": 8.667,
      "trend": "up",
      "trend_arrow": "🔺",
      "change_pct": 329.6,
      "place": "Vysočina Region, Czechia"
    }
  ]
}