{
  "generated_utc": "2026-05-20T15:28:28Z",
  "top": [
    {
      "lon": 14.25,
      "lat": 50.25,
      "type": "hotspot_cell",
      "score": 917.66,
      "count": 1528,
      "cell_deg": 0.5,
      "sources": {
        "GDELT": 108,
        "GDELT_DOC": 1413,
        "DIRECT_FEED": 7,
        "USGS": 0,
        "GDACS": 0
      },
      "last7_score": 910.203,
      "prev7_score": 7.457,
      "trend": "up",
      "trend_arrow": "🔺",
      "change_pct": 12105.7,
      "place": "SO ORP Kralupy nad Vltavou, Czechia"
    },
    {
      "lon": 26.25,
      "lat": 44.25,
      "type": "hotspot_cell",
      "score": 902.454,
      "count": 1434,
      "cell_deg": 0.5,
      "sources": {
        "GDELT": 199,
        "GDELT_DOC": 1231,
        "DIRECT_FEED": 4,
        "USGS": 0,
        "GDACS": 0
      },
      "last7_score": 883.514,
      "prev7_score": 18.94,
      "trend": "up",
      "trend_arrow": "🔺",
      "change_pct": 4564.8,
      "place": "Giurgiu, Romania"
    },
    {
      "lon": 25.25,
      "lat": 54.75,
      "type": "hotspot_cell",
      "score": 677.167,
      "count": 1082,
      "cell_deg": 0.5,
      "sources": {
        "GDELT": 92,
        "GDELT_DOC": 989,
        "DIRECT_FEED": 1,
        "USGS": 0,
        "GDACS": 0
      },
      "last7_score": 671.914,
      "prev7_score": 5.253,
      "trend": "up",
      "trend_arrow": "🔺",
      "change_pct": 12690.5,
      "place": "Vilnius County, Lithuania"
    },
    {
      "lon": 19.25,
      "lat": 47.75,
      "type": "hotspot_cell",
      "score": 257.824,
      "count": 531,
      "cell_deg": 0.5,
      "sources": {
        "GDELT": 301,
        "GDELT_DOC": 0,
        "DIRECT_FEED": 230,
        "USGS": 0,
        "GDACS": 0
      },
      "last7_score": 235.497,
      "prev7_score": 22.327,
      "trend": "up",
      "trend_arrow": "🔺",
      "change_pct": 954.8,
      "place": "Pest, Hungary"
    },
    {
      "lon": 20.25,
      "lat": 52.25,
      "type": "hotspot_cell",
      "score": 246.442,
      "count": 604,
      "cell_deg": 0.5,
      "sources": {
        "GDELT": 604,
        "GDELT_DOC": 0,
        "DIRECT_FEED": 0,
        "USGS": 0,
        "GDACS": 0
      },
      "last7_score": 210.251,
      "prev7_score": 36.191,
      "trend": "up",
      "trend_arrow": "🔺",
      "change_pct": 480.9,
      "place": "Sochaczew County, Poland"
    },
    {
      "lon": 25.25,
      "lat": 46.25,
      "type": "hotspot_cell",
      "score": 125.826,
      "count": 292,
      "cell_deg": 0.5,
      "sources": {
        "GDELT": 292,
        "GDELT_DOC": 0,
        "DIRECT_FEED": 0,
        "USGS": 0,
        "GDACS": 0
      },
      "last7_score": 106.054,
      "prev7_score": 19.772,
      "trend": "up",
      "trend_arrow": "🔺",
      "change_pct": 436.4,
      "place": "Harghita, Romania"
    },
    {
      "lon": 24.25,
      "lat": 56.75,
      "type": "hotspot_cell",
      "score": 121.111,
      "count": 179,
      "cell_deg": 0.5,
      "sources": {
        "GDELT": 41,
        "GDELT_DOC": 0,
        "DIRECT_FEED": 138,
        "USGS": 0,
        "GDACS": 0
      },
      "last7_score": 119.782,
      "prev7_score": 1.329,
      "trend": "up",
      "trend_arrow": "🔺",
      "change_pct": 8913.2,
      "place": "Ķekavas novads, Latvia"
    },
    {
      "lon": 20.25,
      "lat": 47.25,
      "type": "hotspot_cell",
      "score": 104.921,
      "count": 298,
      "cell_deg": 0.5,
      "sources": {
        "GDELT": 298,
        "GDELT_DOC": 0,
        "DIRECT_FEED": 0,
        "USGS": 0,
        "GDACS": 0
      },
      "last7_score": 82.331,
      "prev7_score": 22.59,
      "trend": "up",
      "trend_arrow": "🔺",
      "change_pct": 264.5,
      "place": "Jász-Nagykun-Szolnok, Hungary"
    },
    {
      "lon": 21.25,
      "lat": 52.25,
      "type": "hotspot_cell",
      "score": 93.707,
      "count": 234,
      "cell_deg": 0.5,
      "sources": {
        "GDELT": 234,
        "GDELT_DOC": 0,
        "DIRECT_FEED": 0,
        "USGS": 0,
        "GDACS": 0
      },
      "last7_score": 80.119,
      "prev7_score": 13.588,
      "trend": "up",
      "trend_arrow": "🔺",
      "change_pct": 489.6,
      "place": "Warsaw, Poland"
    },
    {
      "lon": 25.25,
      "lat": 57.25,
      "type": "hotspot_cell",
      "score": 75.316,
      "count": 194,
      "cell_deg": 0.5,
      "sources": {
        "GDELT": 194,
        "GDELT_DOC": 0,
        "DIRECT_FEED": 0,
        "USGS": 0,
        "GDACS": 0
      },
      "last7_score": 64.779,
      "prev7_score": 10.537,
      "trend": "up",
      "trend_arrow": "🔺",
      "change_pct": 514.7,
      "place": "Cēsu novads, Latvia"
    }
  ]
}