{
  "generated_utc": "2026-04-07T19:09:53Z",
  "top": [
    {
      "lon": 26.25,
      "lat": 44.25,
      "type": "hotspot_cell",
      "score": 809.905,
      "count": 1326,
      "cell_deg": 0.5,
      "sources": {
        "GDELT": 172,
        "GDELT_DOC": 1147,
        "DIRECT_FEED": 7,
        "USGS": 0,
        "GDACS": 0
      },
      "last7_score": 800.109,
      "prev7_score": 9.796,
      "trend": "up",
      "trend_arrow": "🔺",
      "change_pct": 8067.6,
      "place": "Giurgiu, Romania"
    },
    {
      "lon": 14.25,
      "lat": 50.25,
      "type": "hotspot_cell",
      "score": 637.752,
      "count": 1184,
      "cell_deg": 0.5,
      "sources": {
        "GDELT": 107,
        "GDELT_DOC": 1076,
        "DIRECT_FEED": 1,
        "USGS": 0,
        "GDACS": 0
      },
      "last7_score": 629.979,
      "prev7_score": 7.773,
      "trend": "up",
      "trend_arrow": "🔺",
      "change_pct": 8004.7,
      "place": "SO ORP Kralupy nad Vltavou, Czechia"
    },
    {
      "lon": 25.25,
      "lat": 54.75,
      "type": "hotspot_cell",
      "score": 453.743,
      "count": 809,
      "cell_deg": 0.5,
      "sources": {
        "GDELT": 78,
        "GDELT_DOC": 731,
        "DIRECT_FEED": 0,
        "USGS": 0,
        "GDACS": 0
      },
      "last7_score": 448.535,
      "prev7_score": 5.208,
      "trend": "up",
      "trend_arrow": "🔺",
      "change_pct": 8512.3,
      "place": "Vilnius County, Lithuania"
    },
    {
      "lon": 19.25,
      "lat": 47.75,
      "type": "hotspot_cell",
      "score": 363.918,
      "count": 579,
      "cell_deg": 0.5,
      "sources": {
        "GDELT": 367,
        "GDELT_DOC": 0,
        "DIRECT_FEED": 212,
        "USGS": 0,
        "GDACS": 0
      },
      "last7_score": 347.248,
      "prev7_score": 16.67,
      "trend": "up",
      "trend_arrow": "🔺",
      "change_pct": 1983.1,
      "place": "Pest, Hungary"
    },
    {
      "lon": 20.25,
      "lat": 47.25,
      "type": "hotspot_cell",
      "score": 150.327,
      "count": 343,
      "cell_deg": 0.5,
      "sources": {
        "GDELT": 343,
        "GDELT_DOC": 0,
        "DIRECT_FEED": 0,
        "USGS": 0,
        "GDACS": 0
      },
      "last7_score": 129.769,
      "prev7_score": 20.558,
      "trend": "up",
      "trend_arrow": "🔺",
      "change_pct": 531.2,
      "place": "Jász-Nagykun-Szolnok, Hungary"
    },
    {
      "lon": 20.25,
      "lat": 52.25,
      "type": "hotspot_cell",
      "score": 138.241,
      "count": 451,
      "cell_deg": 0.5,
      "sources": {
        "GDELT": 451,
        "GDELT_DOC": 0,
        "DIRECT_FEED": 0,
        "USGS": 0,
        "GDACS": 0
      },
      "last7_score": 104.602,
      "prev7_score": 33.639,
      "trend": "up",
      "trend_arrow": "🔺",
      "change_pct": 211.0,
      "place": "Sochaczew County, Poland"
    },
    {
      "lon": 25.25,
      "lat": 46.25,
      "type": "hotspot_cell",
      "score": 103.32,
      "count": 292,
      "cell_deg": 0.5,
      "sources": {
        "GDELT": 292,
        "GDELT_DOC": 0,
        "DIRECT_FEED": 0,
        "USGS": 0,
        "GDACS": 0
      },
      "last7_score": 84.956,
      "prev7_score": 18.364,
      "trend": "up",
      "trend_arrow": "🔺",
      "change_pct": 362.6,
      "place": "Harghita, Romania"
    },
    {
      "lon": 24.25,
      "lat": 56.75,
      "type": "hotspot_cell",
      "score": 96.278,
      "count": 160,
      "cell_deg": 0.5,
      "sources": {
        "GDELT": 35,
        "GDELT_DOC": 0,
        "DIRECT_FEED": 125,
        "USGS": 0,
        "GDACS": 0
      },
      "last7_score": 93.339,
      "prev7_score": 2.94,
      "trend": "up",
      "trend_arrow": "🔺",
      "change_pct": 3075.1,
      "place": "Ķekavas novads, Latvia"
    },
    {
      "lon": 27.75,
      "lat": 47.25,
      "type": "hotspot_cell",
      "score": 52.237,
      "count": 81,
      "cell_deg": 0.5,
      "sources": {
        "GDELT": 0,
        "GDELT_DOC": 81,
        "DIRECT_FEED": 0,
        "USGS": 0,
        "GDACS": 0
      },
      "last7_score": 52.237,
      "prev7_score": 0.0,
      "trend": "new",
      "trend_arrow": "🆕",
      "change_pct": null,
      "place": "Iași, Romania"
    },
    {
      "lon": 15.25,
      "lat": 49.75,
      "type": "hotspot_cell",
      "score": 46.77,
      "count": 126,
      "cell_deg": 0.5,
      "sources": {
        "GDELT": 126,
        "GDELT_DOC": 0,
        "DIRECT_FEED": 0,
        "USGS": 0,
        "GDACS": 0
      },
      "last7_score": 38.088,
      "prev7_score": 8.683,
      "trend": "up",
      "trend_arrow": "🔺",
      "change_pct": 338.7,
      "place": "Vysočina Region, Czechia"
    }
  ]
}