{
  "generated_utc": "2026-06-30T19:51:17Z",
  "top": [
    {
      "lon": 14.25,
      "lat": 50.25,
      "type": "hotspot_cell",
      "score": 557.543,
      "count": 1046,
      "cell_deg": 0.5,
      "sources": {
        "GDELT": 134,
        "GDELT_DOC": 904,
        "DIRECT_FEED": 8,
        "USGS": 0,
        "GDACS": 0
      },
      "last7_score": 548.514,
      "prev7_score": 9.029,
      "trend": "up",
      "trend_arrow": "🔺",
      "change_pct": 5974.8,
      "place": "SO ORP Kralupy nad Vltavou, Czechia"
    },
    {
      "lon": 26.25,
      "lat": 44.25,
      "type": "hotspot_cell",
      "score": 550.843,
      "count": 939,
      "cell_deg": 0.5,
      "sources": {
        "GDELT": 145,
        "GDELT_DOC": 787,
        "DIRECT_FEED": 7,
        "USGS": 0,
        "GDACS": 0
      },
      "last7_score": 542.93,
      "prev7_score": 7.913,
      "trend": "up",
      "trend_arrow": "🔺",
      "change_pct": 6761.3,
      "place": "Giurgiu, Romania"
    },
    {
      "lon": 25.25,
      "lat": 54.75,
      "type": "hotspot_cell",
      "score": 447.523,
      "count": 682,
      "cell_deg": 0.5,
      "sources": {
        "GDELT": 68,
        "GDELT_DOC": 614,
        "DIRECT_FEED": 0,
        "USGS": 0,
        "GDACS": 0
      },
      "last7_score": 442.567,
      "prev7_score": 4.956,
      "trend": "up",
      "trend_arrow": "🔺",
      "change_pct": 8829.9,
      "place": "Vilnius County, Lithuania"
    },
    {
      "lon": 20.25,
      "lat": 52.25,
      "type": "hotspot_cell",
      "score": 199.579,
      "count": 541,
      "cell_deg": 0.5,
      "sources": {
        "GDELT": 541,
        "GDELT_DOC": 0,
        "DIRECT_FEED": 0,
        "USGS": 0,
        "GDACS": 0
      },
      "last7_score": 168.747,
      "prev7_score": 30.832,
      "trend": "up",
      "trend_arrow": "🔺",
      "change_pct": 447.3,
      "place": "Sochaczew County, Poland"
    },
    {
      "lon": 19.25,
      "lat": 47.75,
      "type": "hotspot_cell",
      "score": 190.232,
      "count": 353,
      "cell_deg": 0.5,
      "sources": {
        "GDELT": 194,
        "GDELT_DOC": 0,
        "DIRECT_FEED": 159,
        "USGS": 0,
        "GDACS": 0
      },
      "last7_score": 177.653,
      "prev7_score": 12.579,
      "trend": "up",
      "trend_arrow": "🔺",
      "change_pct": 1312.3,
      "place": "Pest, Hungary"
    },
    {
      "lon": 25.25,
      "lat": 46.25,
      "type": "hotspot_cell",
      "score": 129.907,
      "count": 372,
      "cell_deg": 0.5,
      "sources": {
        "GDELT": 372,
        "GDELT_DOC": 0,
        "DIRECT_FEED": 0,
        "USGS": 0,
        "GDACS": 0
      },
      "last7_score": 105.358,
      "prev7_score": 24.549,
      "trend": "up",
      "trend_arrow": "🔺",
      "change_pct": 329.2,
      "place": "Harghita, Romania"
    },
    {
      "lon": 24.25,
      "lat": 56.75,
      "type": "hotspot_cell",
      "score": 118.321,
      "count": 182,
      "cell_deg": 0.5,
      "sources": {
        "GDELT": 30,
        "GDELT_DOC": 0,
        "DIRECT_FEED": 152,
        "USGS": 0,
        "GDACS": 0
      },
      "last7_score": 115.67,
      "prev7_score": 2.65,
      "trend": "up",
      "trend_arrow": "🔺",
      "change_pct": 4264.1,
      "place": "Ķekavas novads, Latvia"
    },
    {
      "lon": 21.25,
      "lat": 52.25,
      "type": "hotspot_cell",
      "score": 110.532,
      "count": 366,
      "cell_deg": 0.5,
      "sources": {
        "GDELT": 366,
        "GDELT_DOC": 0,
        "DIRECT_FEED": 0,
        "USGS": 0,
        "GDACS": 0
      },
      "last7_score": 83.661,
      "prev7_score": 26.871,
      "trend": "up",
      "trend_arrow": "🔺",
      "change_pct": 211.3,
      "place": "Warsaw, Poland"
    },
    {
      "lon": 15.25,
      "lat": 49.75,
      "type": "hotspot_cell",
      "score": 67.58,
      "count": 167,
      "cell_deg": 0.5,
      "sources": {
        "GDELT": 167,
        "GDELT_DOC": 0,
        "DIRECT_FEED": 0,
        "USGS": 0,
        "GDACS": 0
      },
      "last7_score": 57.94,
      "prev7_score": 9.64,
      "trend": "up",
      "trend_arrow": "🔺",
      "change_pct": 501.0,
      "place": "Vysočina Region, Czechia"
    },
    {
      "lon": 20.25,
      "lat": 47.25,
      "type": "hotspot_cell",
      "score": 64.185,
      "count": 207,
      "cell_deg": 0.5,
      "sources": {
        "GDELT": 207,
        "GDELT_DOC": 0,
        "DIRECT_FEED": 0,
        "USGS": 0,
        "GDACS": 0
      },
      "last7_score": 48.209,
      "prev7_score": 15.977,
      "trend": "up",
      "trend_arrow": "🔺",
      "change_pct": 201.7,
      "place": "Jász-Nagykun-Szolnok, Hungary"
    }
  ]
}