{
  "generated_utc": "2026-04-10T13:15:52Z",
  "top": [
    {
      "lon": 26.25,
      "lat": 44.25,
      "type": "hotspot_cell",
      "score": 913.927,
      "count": 1428,
      "cell_deg": 0.5,
      "sources": {
        "GDELT": 156,
        "GDELT_DOC": 1266,
        "DIRECT_FEED": 6,
        "USGS": 0,
        "GDACS": 0
      },
      "last7_score": 898.443,
      "prev7_score": 15.484,
      "trend": "up",
      "trend_arrow": "🔺",
      "change_pct": 5702.4,
      "place": "Giurgiu, Romania"
    },
    {
      "lon": 14.25,
      "lat": 50.25,
      "type": "hotspot_cell",
      "score": 757.202,
      "count": 1102,
      "cell_deg": 0.5,
      "sources": {
        "GDELT": 85,
        "GDELT_DOC": 1016,
        "DIRECT_FEED": 1,
        "USGS": 0,
        "GDACS": 0
      },
      "last7_score": 751.015,
      "prev7_score": 6.187,
      "trend": "up",
      "trend_arrow": "🔺",
      "change_pct": 12039.2,
      "place": "SO ORP Kralupy nad Vltavou, Czechia"
    },
    {
      "lon": 25.25,
      "lat": 54.75,
      "type": "hotspot_cell",
      "score": 589.115,
      "count": 871,
      "cell_deg": 0.5,
      "sources": {
        "GDELT": 71,
        "GDELT_DOC": 799,
        "DIRECT_FEED": 1,
        "USGS": 0,
        "GDACS": 0
      },
      "last7_score": 582.265,
      "prev7_score": 6.85,
      "trend": "up",
      "trend_arrow": "🔺",
      "change_pct": 8400.1,
      "place": "Vilnius County, Lithuania"
    },
    {
      "lon": 19.25,
      "lat": 47.75,
      "type": "hotspot_cell",
      "score": 500.112,
      "count": 757,
      "cell_deg": 0.5,
      "sources": {
        "GDELT": 523,
        "GDELT_DOC": 0,
        "DIRECT_FEED": 234,
        "USGS": 0,
        "GDACS": 0
      },
      "last7_score": 483.862,
      "prev7_score": 16.25,
      "trend": "up",
      "trend_arrow": "🔺",
      "change_pct": 2877.6,
      "place": "Pest, Hungary"
    },
    {
      "lon": 20.25,
      "lat": 47.25,
      "type": "hotspot_cell",
      "score": 195.804,
      "count": 394,
      "cell_deg": 0.5,
      "sources": {
        "GDELT": 394,
        "GDELT_DOC": 0,
        "DIRECT_FEED": 0,
        "USGS": 0,
        "GDACS": 0
      },
      "last7_score": 175.016,
      "prev7_score": 20.789,
      "trend": "up",
      "trend_arrow": "🔺",
      "change_pct": 741.9,
      "place": "Jász-Nagykun-Szolnok, Hungary"
    },
    {
      "lon": 20.25,
      "lat": 52.25,
      "type": "hotspot_cell",
      "score": 153.294,
      "count": 434,
      "cell_deg": 0.5,
      "sources": {
        "GDELT": 434,
        "GDELT_DOC": 0,
        "DIRECT_FEED": 0,
        "USGS": 0,
        "GDACS": 0
      },
      "last7_score": 118.601,
      "prev7_score": 34.693,
      "trend": "up",
      "trend_arrow": "🔺",
      "change_pct": 241.9,
      "place": "Sochaczew County, Poland"
    },
    {
      "lon": 24.25,
      "lat": 56.75,
      "type": "hotspot_cell",
      "score": 120.3,
      "count": 161,
      "cell_deg": 0.5,
      "sources": {
        "GDELT": 26,
        "GDELT_DOC": 0,
        "DIRECT_FEED": 135,
        "USGS": 0,
        "GDACS": 0
      },
      "last7_score": 117.99,
      "prev7_score": 2.31,
      "trend": "up",
      "trend_arrow": "🔺",
      "change_pct": 5007.4,
      "place": "Ķekavas novads, Latvia"
    },
    {
      "lon": 25.25,
      "lat": 46.25,
      "type": "hotspot_cell",
      "score": 97.931,
      "count": 252,
      "cell_deg": 0.5,
      "sources": {
        "GDELT": 252,
        "GDELT_DOC": 0,
        "DIRECT_FEED": 0,
        "USGS": 0,
        "GDACS": 0
      },
      "last7_score": 78.767,
      "prev7_score": 19.164,
      "trend": "up",
      "trend_arrow": "🔺",
      "change_pct": 311.0,
      "place": "Harghita, Romania"
    },
    {
      "lon": 24.25,
      "lat": 56.25,
      "type": "hotspot_cell",
      "score": 59.872,
      "count": 113,
      "cell_deg": 0.5,
      "sources": {
        "GDELT": 113,
        "GDELT_DOC": 0,
        "DIRECT_FEED": 0,
        "USGS": 0,
        "GDACS": 0
      },
      "last7_score": 53.51,
      "prev7_score": 6.361,
      "trend": "up",
      "trend_arrow": "🔺",
      "change_pct": 741.2,
      "place": "Namišių seniūnija, Lithuania"
    },
    {
      "lon": 15.25,
      "lat": 49.75,
      "type": "hotspot_cell",
      "score": 49.755,
      "count": 118,
      "cell_deg": 0.5,
      "sources": {
        "GDELT": 118,
        "GDELT_DOC": 0,
        "DIRECT_FEED": 0,
        "USGS": 0,
        "GDACS": 0
      },
      "last7_score": 41.533,
      "prev7_score": 8.221,
      "trend": "up",
      "trend_arrow": "🔺",
      "change_pct": 405.2,
      "place": "Vysočina Region, Czechia"
    }
  ]
}