{
  "generated_utc": "2026-07-12T19:01:40Z",
  "top": [
    {
      "lon": 14.25,
      "lat": 50.25,
      "type": "hotspot_cell",
      "score": 781.777,
      "count": 1354,
      "cell_deg": 0.5,
      "sources": {
        "GDELT": 106,
        "GDELT_DOC": 1242,
        "DIRECT_FEED": 6,
        "USGS": 0,
        "GDACS": 0
      },
      "last7_score": 774.957,
      "prev7_score": 6.819,
      "trend": "up",
      "trend_arrow": "🔺",
      "change_pct": 11263.9,
      "place": "SO ORP Kralupy nad Vltavou, Czechia"
    },
    {
      "lon": 25.25,
      "lat": 54.75,
      "type": "hotspot_cell",
      "score": 473.206,
      "count": 818,
      "cell_deg": 0.5,
      "sources": {
        "GDELT": 76,
        "GDELT_DOC": 740,
        "DIRECT_FEED": 2,
        "USGS": 0,
        "GDACS": 0
      },
      "last7_score": 468.982,
      "prev7_score": 4.224,
      "trend": "up",
      "trend_arrow": "🔺",
      "change_pct": 11002.9,
      "place": "Vilnius County, Lithuania"
    },
    {
      "lon": 26.25,
      "lat": 44.25,
      "type": "hotspot_cell",
      "score": 455.08,
      "count": 887,
      "cell_deg": 0.5,
      "sources": {
        "GDELT": 129,
        "GDELT_DOC": 754,
        "DIRECT_FEED": 4,
        "USGS": 0,
        "GDACS": 0
      },
      "last7_score": 448.129,
      "prev7_score": 6.951,
      "trend": "up",
      "trend_arrow": "🔺",
      "change_pct": 6347.3,
      "place": "Giurgiu, Romania"
    },
    {
      "lon": 19.25,
      "lat": 47.75,
      "type": "hotspot_cell",
      "score": 153.145,
      "count": 307,
      "cell_deg": 0.5,
      "sources": {
        "GDELT": 149,
        "GDELT_DOC": 0,
        "DIRECT_FEED": 158,
        "USGS": 0,
        "GDACS": 0
      },
      "last7_score": 145.968,
      "prev7_score": 7.177,
      "trend": "up",
      "trend_arrow": "🔺",
      "change_pct": 1933.8,
      "place": "Pest, Hungary"
    },
    {
      "lon": 20.25,
      "lat": 52.25,
      "type": "hotspot_cell",
      "score": 138.419,
      "count": 499,
      "cell_deg": 0.5,
      "sources": {
        "GDELT": 499,
        "GDELT_DOC": 0,
        "DIRECT_FEED": 0,
        "USGS": 0,
        "GDACS": 0
      },
      "last7_score": 109.298,
      "prev7_score": 29.121,
      "trend": "up",
      "trend_arrow": "🔺",
      "change_pct": 275.3,
      "place": "Sochaczew County, Poland"
    },
    {
      "lon": 25.25,
      "lat": 46.25,
      "type": "hotspot_cell",
      "score": 123.327,
      "count": 368,
      "cell_deg": 0.5,
      "sources": {
        "GDELT": 368,
        "GDELT_DOC": 0,
        "DIRECT_FEED": 0,
        "USGS": 0,
        "GDACS": 0
      },
      "last7_score": 105.2,
      "prev7_score": 18.127,
      "trend": "up",
      "trend_arrow": "🔺",
      "change_pct": 480.3,
      "place": "Harghita, Romania"
    },
    {
      "lon": 24.25,
      "lat": 56.75,
      "type": "hotspot_cell",
      "score": 85.277,
      "count": 143,
      "cell_deg": 0.5,
      "sources": {
        "GDELT": 21,
        "GDELT_DOC": 0,
        "DIRECT_FEED": 122,
        "USGS": 0,
        "GDACS": 0
      },
      "last7_score": 83.848,
      "prev7_score": 1.429,
      "trend": "up",
      "trend_arrow": "🔺",
      "change_pct": 5768.1,
      "place": "Ķekavas novads, Latvia"
    },
    {
      "lon": 21.25,
      "lat": 52.25,
      "type": "hotspot_cell",
      "score": 74.554,
      "count": 254,
      "cell_deg": 0.5,
      "sources": {
        "GDELT": 254,
        "GDELT_DOC": 0,
        "DIRECT_FEED": 0,
        "USGS": 0,
        "GDACS": 0
      },
      "last7_score": 56.283,
      "prev7_score": 18.27,
      "trend": "up",
      "trend_arrow": "🔺",
      "change_pct": 208.1,
      "place": "Warsaw, Poland"
    },
    {
      "lon": 20.25,
      "lat": 47.25,
      "type": "hotspot_cell",
      "score": 62.568,
      "count": 174,
      "cell_deg": 0.5,
      "sources": {
        "GDELT": 174,
        "GDELT_DOC": 0,
        "DIRECT_FEED": 0,
        "USGS": 0,
        "GDACS": 0
      },
      "last7_score": 54.789,
      "prev7_score": 7.779,
      "trend": "up",
      "trend_arrow": "🔺",
      "change_pct": 604.3,
      "place": "Jász-Nagykun-Szolnok, Hungary"
    },
    {
      "lon": 26.25,
      "lat": 59.25,
      "type": "hotspot_cell",
      "score": 57.918,
      "count": 161,
      "cell_deg": 0.5,
      "sources": {
        "GDELT": 161,
        "GDELT_DOC": 0,
        "DIRECT_FEED": 0,
        "USGS": 0,
        "GDACS": 0
      },
      "last7_score": 49.247,
      "prev7_score": 8.672,
      "trend": "up",
      "trend_arrow": "🔺",
      "change_pct": 467.9,
      "place": "Lääne-Viru County, Estonia"
    }
  ]
}