{
  "generated_utc": "2026-07-15T19:04:27Z",
  "top": [
    {
      "lon": 14.25,
      "lat": 50.25,
      "type": "hotspot_cell",
      "score": 676.297,
      "count": 1182,
      "cell_deg": 0.5,
      "sources": {
        "GDELT": 105,
        "GDELT_DOC": 1071,
        "DIRECT_FEED": 6,
        "USGS": 0,
        "GDACS": 0
      },
      "last7_score": 669.055,
      "prev7_score": 7.242,
      "trend": "up",
      "trend_arrow": "🔺",
      "change_pct": 9138.7,
      "place": "SO ORP Kralupy nad Vltavou, Czechia"
    },
    {
      "lon": 25.25,
      "lat": 54.75,
      "type": "hotspot_cell",
      "score": 480.28,
      "count": 828,
      "cell_deg": 0.5,
      "sources": {
        "GDELT": 82,
        "GDELT_DOC": 745,
        "DIRECT_FEED": 1,
        "USGS": 0,
        "GDACS": 0
      },
      "last7_score": 474.557,
      "prev7_score": 5.723,
      "trend": "up",
      "trend_arrow": "🔺",
      "change_pct": 8192.7,
      "place": "Vilnius County, Lithuania"
    },
    {
      "lon": 26.25,
      "lat": 44.25,
      "type": "hotspot_cell",
      "score": 369.466,
      "count": 698,
      "cell_deg": 0.5,
      "sources": {
        "GDELT": 104,
        "GDELT_DOC": 592,
        "DIRECT_FEED": 2,
        "USGS": 0,
        "GDACS": 0
      },
      "last7_score": 361.507,
      "prev7_score": 7.959,
      "trend": "up",
      "trend_arrow": "🔺",
      "change_pct": 4442.2,
      "place": "Giurgiu, Romania"
    },
    {
      "lon": 19.25,
      "lat": 47.75,
      "type": "hotspot_cell",
      "score": 208.139,
      "count": 345,
      "cell_deg": 0.5,
      "sources": {
        "GDELT": 161,
        "GDELT_DOC": 0,
        "DIRECT_FEED": 184,
        "USGS": 0,
        "GDACS": 0
      },
      "last7_score": 199.71,
      "prev7_score": 8.43,
      "trend": "up",
      "trend_arrow": "🔺",
      "change_pct": 2269.1,
      "place": "Pest, Hungary"
    },
    {
      "lon": 20.25,
      "lat": 52.25,
      "type": "hotspot_cell",
      "score": 187.202,
      "count": 503,
      "cell_deg": 0.5,
      "sources": {
        "GDELT": 503,
        "GDELT_DOC": 0,
        "DIRECT_FEED": 0,
        "USGS": 0,
        "GDACS": 0
      },
      "last7_score": 148.834,
      "prev7_score": 38.368,
      "trend": "up",
      "trend_arrow": "🔺",
      "change_pct": 287.9,
      "place": "Sochaczew County, Poland"
    },
    {
      "lon": 25.25,
      "lat": 46.25,
      "type": "hotspot_cell",
      "score": 164.1,
      "count": 403,
      "cell_deg": 0.5,
      "sources": {
        "GDELT": 403,
        "GDELT_DOC": 0,
        "DIRECT_FEED": 0,
        "USGS": 0,
        "GDACS": 0
      },
      "last7_score": 138.81,
      "prev7_score": 25.29,
      "trend": "up",
      "trend_arrow": "🔺",
      "change_pct": 448.9,
      "place": "Harghita, Romania"
    },
    {
      "lon": 24.25,
      "lat": 56.75,
      "type": "hotspot_cell",
      "score": 115.891,
      "count": 156,
      "cell_deg": 0.5,
      "sources": {
        "GDELT": 18,
        "GDELT_DOC": 0,
        "DIRECT_FEED": 138,
        "USGS": 0,
        "GDACS": 0
      },
      "last7_score": 114.483,
      "prev7_score": 1.408,
      "trend": "up",
      "trend_arrow": "🔺",
      "change_pct": 8031.2,
      "place": "Ķekavas novads, Latvia"
    },
    {
      "lon": 21.25,
      "lat": 52.25,
      "type": "hotspot_cell",
      "score": 101.449,
      "count": 263,
      "cell_deg": 0.5,
      "sources": {
        "GDELT": 263,
        "GDELT_DOC": 0,
        "DIRECT_FEED": 0,
        "USGS": 0,
        "GDACS": 0
      },
      "last7_score": 84.286,
      "prev7_score": 17.163,
      "trend": "up",
      "trend_arrow": "🔺",
      "change_pct": 391.1,
      "place": "Warsaw, Poland"
    },
    {
      "lon": 20.25,
      "lat": 47.25,
      "type": "hotspot_cell",
      "score": 72.238,
      "count": 191,
      "cell_deg": 0.5,
      "sources": {
        "GDELT": 191,
        "GDELT_DOC": 0,
        "DIRECT_FEED": 0,
        "USGS": 0,
        "GDACS": 0
      },
      "last7_score": 58.079,
      "prev7_score": 14.159,
      "trend": "up",
      "trend_arrow": "🔺",
      "change_pct": 310.2,
      "place": "Jász-Nagykun-Szolnok, Hungary"
    },
    {
      "lon": 24.25,
      "lat": 56.25,
      "type": "hotspot_cell",
      "score": 60.216,
      "count": 150,
      "cell_deg": 0.5,
      "sources": {
        "GDELT": 150,
        "GDELT_DOC": 0,
        "DIRECT_FEED": 0,
        "USGS": 0,
        "GDACS": 0
      },
      "last7_score": 50.934,
      "prev7_score": 9.282,
      "trend": "up",
      "trend_arrow": "🔺",
      "change_pct": 448.8,
      "place": "Namišių seniūnija, Lithuania"
    }
  ]
}