{
  "generated_utc": "2026-03-28T13:00:56Z",
  "top": [
    {
      "lon": 14.25,
      "lat": 50.25,
      "type": "hotspot_cell",
      "score": 968.747,
      "count": 1473,
      "cell_deg": 0.5,
      "sources": {
        "GDELT": 129,
        "GDELT_DOC": 1341,
        "DIRECT_FEED": 3,
        "USGS": 0,
        "GDACS": 0
      },
      "last7_score": 959.423,
      "prev7_score": 9.324,
      "trend": "up",
      "trend_arrow": "🔺",
      "change_pct": 10190.2,
      "place": "SO ORP Kralupy nad Vltavou, Czechia"
    },
    {
      "lon": 26.25,
      "lat": 44.25,
      "type": "hotspot_cell",
      "score": 674.608,
      "count": 1143,
      "cell_deg": 0.5,
      "sources": {
        "GDELT": 141,
        "GDELT_DOC": 1000,
        "DIRECT_FEED": 2,
        "USGS": 0,
        "GDACS": 0
      },
      "last7_score": 665.404,
      "prev7_score": 9.204,
      "trend": "up",
      "trend_arrow": "🔺",
      "change_pct": 7129.3,
      "place": "Giurgiu, Romania"
    },
    {
      "lon": 25.25,
      "lat": 54.75,
      "type": "hotspot_cell",
      "score": 586.634,
      "count": 971,
      "cell_deg": 0.5,
      "sources": {
        "GDELT": 92,
        "GDELT_DOC": 879,
        "DIRECT_FEED": 0,
        "USGS": 0,
        "GDACS": 0
      },
      "last7_score": 579.896,
      "prev7_score": 6.738,
      "trend": "up",
      "trend_arrow": "🔺",
      "change_pct": 8505.8,
      "place": "Vilnius County, Lithuania"
    },
    {
      "lon": 19.25,
      "lat": 47.75,
      "type": "hotspot_cell",
      "score": 272.896,
      "count": 575,
      "cell_deg": 0.5,
      "sources": {
        "GDELT": 362,
        "GDELT_DOC": 0,
        "DIRECT_FEED": 213,
        "USGS": 0,
        "GDACS": 0
      },
      "last7_score": 248.426,
      "prev7_score": 24.47,
      "trend": "up",
      "trend_arrow": "🔺",
      "change_pct": 915.2,
      "place": "Pest, Hungary"
    },
    {
      "lon": 20.25,
      "lat": 52.25,
      "type": "hotspot_cell",
      "score": 168.873,
      "count": 435,
      "cell_deg": 0.5,
      "sources": {
        "GDELT": 435,
        "GDELT_DOC": 0,
        "DIRECT_FEED": 0,
        "USGS": 0,
        "GDACS": 0
      },
      "last7_score": 138.358,
      "prev7_score": 30.515,
      "trend": "up",
      "trend_arrow": "🔺",
      "change_pct": 353.4,
      "place": "Sochaczew County, Poland"
    },
    {
      "lon": 24.25,
      "lat": 56.75,
      "type": "hotspot_cell",
      "score": 131.069,
      "count": 193,
      "cell_deg": 0.5,
      "sources": {
        "GDELT": 42,
        "GDELT_DOC": 0,
        "DIRECT_FEED": 151,
        "USGS": 0,
        "GDACS": 0
      },
      "last7_score": 128.507,
      "prev7_score": 2.562,
      "trend": "up",
      "trend_arrow": "🔺",
      "change_pct": 4915.3,
      "place": "Ķekavas novads, Latvia"
    },
    {
      "lon": 20.25,
      "lat": 47.25,
      "type": "hotspot_cell",
      "score": 128.851,
      "count": 387,
      "cell_deg": 0.5,
      "sources": {
        "GDELT": 387,
        "GDELT_DOC": 0,
        "DIRECT_FEED": 0,
        "USGS": 0,
        "GDACS": 0
      },
      "last7_score": 99.38,
      "prev7_score": 29.471,
      "trend": "up",
      "trend_arrow": "🔺",
      "change_pct": 237.2,
      "place": "Jász-Nagykun-Szolnok, Hungary"
    },
    {
      "lon": 25.25,
      "lat": 46.25,
      "type": "hotspot_cell",
      "score": 124.306,
      "count": 330,
      "cell_deg": 0.5,
      "sources": {
        "GDELT": 330,
        "GDELT_DOC": 0,
        "DIRECT_FEED": 0,
        "USGS": 0,
        "GDACS": 0
      },
      "last7_score": 103.358,
      "prev7_score": 20.949,
      "trend": "up",
      "trend_arrow": "🔺",
      "change_pct": 393.4,
      "place": "Harghita, Romania"
    },
    {
      "lon": 27.75,
      "lat": 47.25,
      "type": "hotspot_cell",
      "score": 62.297,
      "count": 98,
      "cell_deg": 0.5,
      "sources": {
        "GDELT": 0,
        "GDELT_DOC": 98,
        "DIRECT_FEED": 0,
        "USGS": 0,
        "GDACS": 0
      },
      "last7_score": 62.297,
      "prev7_score": 0.0,
      "trend": "new",
      "trend_arrow": "🆕",
      "change_pct": null,
      "place": "Iași, Romania"
    },
    {
      "lon": 15.25,
      "lat": 49.75,
      "type": "hotspot_cell",
      "score": 59.804,
      "count": 178,
      "cell_deg": 0.5,
      "sources": {
        "GDELT": 178,
        "GDELT_DOC": 0,
        "DIRECT_FEED": 0,
        "USGS": 0,
        "GDACS": 0
      },
      "last7_score": 44.886,
      "prev7_score": 14.918,
      "trend": "up",
      "trend_arrow": "🔺",
      "change_pct": 200.9,
      "place": "Vysočina Region, Czechia"
    }
  ]
}