{
  "generated_utc": "2026-05-17T03:35:46Z",
  "top": [
    {
      "lon": 14.25,
      "lat": 50.25,
      "type": "hotspot_cell",
      "score": 992.767,
      "count": 1640,
      "cell_deg": 0.5,
      "sources": {
        "GDELT": 118,
        "GDELT_DOC": 1518,
        "DIRECT_FEED": 4,
        "USGS": 0,
        "GDACS": 0
      },
      "last7_score": 985.511,
      "prev7_score": 7.256,
      "trend": "up",
      "trend_arrow": "🔺",
      "change_pct": 13482.4,
      "place": "SO ORP Kralupy nad Vltavou, Czechia"
    },
    {
      "lon": 26.25,
      "lat": 44.25,
      "type": "hotspot_cell",
      "score": 791.302,
      "count": 1422,
      "cell_deg": 0.5,
      "sources": {
        "GDELT": 227,
        "GDELT_DOC": 1189,
        "DIRECT_FEED": 6,
        "USGS": 0,
        "GDACS": 0
      },
      "last7_score": 781.12,
      "prev7_score": 10.183,
      "trend": "up",
      "trend_arrow": "🔺",
      "change_pct": 7571.0,
      "place": "Giurgiu, Romania"
    },
    {
      "lon": 25.25,
      "lat": 54.75,
      "type": "hotspot_cell",
      "score": 619.882,
      "count": 1009,
      "cell_deg": 0.5,
      "sources": {
        "GDELT": 73,
        "GDELT_DOC": 936,
        "DIRECT_FEED": 0,
        "USGS": 0,
        "GDACS": 0
      },
      "last7_score": 614.777,
      "prev7_score": 5.105,
      "trend": "up",
      "trend_arrow": "🔺",
      "change_pct": 11941.9,
      "place": "Vilnius County, Lithuania"
    },
    {
      "lon": 19.25,
      "lat": 47.75,
      "type": "hotspot_cell",
      "score": 246.141,
      "count": 525,
      "cell_deg": 0.5,
      "sources": {
        "GDELT": 297,
        "GDELT_DOC": 0,
        "DIRECT_FEED": 228,
        "USGS": 0,
        "GDACS": 0
      },
      "last7_score": 221.536,
      "prev7_score": 24.605,
      "trend": "up",
      "trend_arrow": "🔺",
      "change_pct": 800.4,
      "place": "Pest, Hungary"
    },
    {
      "lon": 20.25,
      "lat": 52.25,
      "type": "hotspot_cell",
      "score": 243.698,
      "count": 594,
      "cell_deg": 0.5,
      "sources": {
        "GDELT": 594,
        "GDELT_DOC": 0,
        "DIRECT_FEED": 0,
        "USGS": 0,
        "GDACS": 0
      },
      "last7_score": 206.022,
      "prev7_score": 37.677,
      "trend": "up",
      "trend_arrow": "🔺",
      "change_pct": 446.8,
      "place": "Sochaczew County, Poland"
    },
    {
      "lon": 24.25,
      "lat": 56.75,
      "type": "hotspot_cell",
      "score": 121.369,
      "count": 200,
      "cell_deg": 0.5,
      "sources": {
        "GDELT": 43,
        "GDELT_DOC": 0,
        "DIRECT_FEED": 157,
        "USGS": 0,
        "GDACS": 0
      },
      "last7_score": 118.928,
      "prev7_score": 2.441,
      "trend": "up",
      "trend_arrow": "🔺",
      "change_pct": 4772.6,
      "place": "Ķekavas novads, Latvia"
    },
    {
      "lon": 20.25,
      "lat": 47.25,
      "type": "hotspot_cell",
      "score": 103.85,
      "count": 290,
      "cell_deg": 0.5,
      "sources": {
        "GDELT": 290,
        "GDELT_DOC": 0,
        "DIRECT_FEED": 0,
        "USGS": 0,
        "GDACS": 0
      },
      "last7_score": 84.621,
      "prev7_score": 19.228,
      "trend": "up",
      "trend_arrow": "🔺",
      "change_pct": 340.1,
      "place": "Jász-Nagykun-Szolnok, Hungary"
    },
    {
      "lon": 25.25,
      "lat": 46.25,
      "type": "hotspot_cell",
      "score": 102.158,
      "count": 297,
      "cell_deg": 0.5,
      "sources": {
        "GDELT": 297,
        "GDELT_DOC": 0,
        "DIRECT_FEED": 0,
        "USGS": 0,
        "GDACS": 0
      },
      "last7_score": 85.556,
      "prev7_score": 16.601,
      "trend": "up",
      "trend_arrow": "🔺",
      "change_pct": 415.4,
      "place": "Harghita, Romania"
    },
    {
      "lon": 21.25,
      "lat": 52.25,
      "type": "hotspot_cell",
      "score": 90.606,
      "count": 215,
      "cell_deg": 0.5,
      "sources": {
        "GDELT": 215,
        "GDELT_DOC": 0,
        "DIRECT_FEED": 0,
        "USGS": 0,
        "GDACS": 0
      },
      "last7_score": 76.583,
      "prev7_score": 14.023,
      "trend": "up",
      "trend_arrow": "🔺",
      "change_pct": 446.1,
      "place": "Warsaw, Poland"
    },
    {
      "lon": 25.25,
      "lat": 57.25,
      "type": "hotspot_cell",
      "score": 88.944,
      "count": 167,
      "cell_deg": 0.5,
      "sources": {
        "GDELT": 167,
        "GDELT_DOC": 0,
        "DIRECT_FEED": 0,
        "USGS": 0,
        "GDACS": 0
      },
      "last7_score": 82.171,
      "prev7_score": 6.773,
      "trend": "up",
      "trend_arrow": "🔺",
      "change_pct": 1113.3,
      "place": "Cēsu novads, Latvia"
    }
  ]
}