{
  "generated_utc": "2026-03-23T07:17:46Z",
  "top": [
    {
      "lon": 14.25,
      "lat": 50.25,
      "type": "hotspot_cell",
      "score": 736.936,
      "count": 1371,
      "cell_deg": 0.5,
      "sources": {
        "GDELT": 116,
        "GDELT_DOC": 1252,
        "DIRECT_FEED": 3,
        "USGS": 0,
        "GDACS": 0
      },
      "last7_score": 728.886,
      "prev7_score": 8.05,
      "trend": "up",
      "trend_arrow": "🔺",
      "change_pct": 8954.5,
      "place": "SO ORP Kralupy nad Vltavou, Czechia"
    },
    {
      "lon": 26.25,
      "lat": 44.25,
      "type": "hotspot_cell",
      "score": 708.563,
      "count": 1309,
      "cell_deg": 0.5,
      "sources": {
        "GDELT": 181,
        "GDELT_DOC": 1128,
        "DIRECT_FEED": 0,
        "USGS": 0,
        "GDACS": 0
      },
      "last7_score": 694.188,
      "prev7_score": 14.375,
      "trend": "up",
      "trend_arrow": "🔺",
      "change_pct": 4729.2,
      "place": "Giurgiu, Romania"
    },
    {
      "lon": 25.25,
      "lat": 54.75,
      "type": "hotspot_cell",
      "score": 556.363,
      "count": 956,
      "cell_deg": 0.5,
      "sources": {
        "GDELT": 82,
        "GDELT_DOC": 874,
        "DIRECT_FEED": 0,
        "USGS": 0,
        "GDACS": 0
      },
      "last7_score": 551.287,
      "prev7_score": 5.076,
      "trend": "up",
      "trend_arrow": "🔺",
      "change_pct": 10760.0,
      "place": "Vilnius County, Lithuania"
    },
    {
      "lon": 19.25,
      "lat": 47.75,
      "type": "hotspot_cell",
      "score": 239.131,
      "count": 560,
      "cell_deg": 0.5,
      "sources": {
        "GDELT": 344,
        "GDELT_DOC": 0,
        "DIRECT_FEED": 216,
        "USGS": 0,
        "GDACS": 0
      },
      "last7_score": 212.082,
      "prev7_score": 27.049,
      "trend": "up",
      "trend_arrow": "🔺",
      "change_pct": 684.1,
      "place": "Pest, Hungary"
    },
    {
      "lon": 20.25,
      "lat": 47.25,
      "type": "hotspot_cell",
      "score": 138.137,
      "count": 390,
      "cell_deg": 0.5,
      "sources": {
        "GDELT": 390,
        "GDELT_DOC": 0,
        "DIRECT_FEED": 0,
        "USGS": 0,
        "GDACS": 0
      },
      "last7_score": 108.516,
      "prev7_score": 29.621,
      "trend": "up",
      "trend_arrow": "🔺",
      "change_pct": 266.3,
      "place": "Jász-Nagykun-Szolnok, Hungary"
    },
    {
      "lon": 20.25,
      "lat": 52.25,
      "type": "hotspot_cell",
      "score": 129.804,
      "count": 395,
      "cell_deg": 0.5,
      "sources": {
        "GDELT": 395,
        "GDELT_DOC": 0,
        "DIRECT_FEED": 0,
        "USGS": 0,
        "GDACS": 0
      },
      "last7_score": 101.468,
      "prev7_score": 28.336,
      "trend": "up",
      "trend_arrow": "🔺",
      "change_pct": 258.1,
      "place": "Sochaczew County, Poland"
    },
    {
      "lon": 24.25,
      "lat": 56.75,
      "type": "hotspot_cell",
      "score": 96.642,
      "count": 163,
      "cell_deg": 0.5,
      "sources": {
        "GDELT": 34,
        "GDELT_DOC": 0,
        "DIRECT_FEED": 129,
        "USGS": 0,
        "GDACS": 0
      },
      "last7_score": 93.903,
      "prev7_score": 2.739,
      "trend": "up",
      "trend_arrow": "🔺",
      "change_pct": 3328.3,
      "place": "Ķekavas novads, Latvia"
    },
    {
      "lon": 25.25,
      "lat": 46.25,
      "type": "hotspot_cell",
      "score": 90.228,
      "count": 305,
      "cell_deg": 0.5,
      "sources": {
        "GDELT": 305,
        "GDELT_DOC": 0,
        "DIRECT_FEED": 0,
        "USGS": 0,
        "GDACS": 0
      },
      "last7_score": 67.864,
      "prev7_score": 22.364,
      "trend": "up",
      "trend_arrow": "🔺",
      "change_pct": 203.5,
      "place": "Harghita, Romania"
    },
    {
      "lon": 15.25,
      "lat": 49.75,
      "type": "hotspot_cell",
      "score": 65.162,
      "count": 169,
      "cell_deg": 0.5,
      "sources": {
        "GDELT": 169,
        "GDELT_DOC": 0,
        "DIRECT_FEED": 0,
        "USGS": 0,
        "GDACS": 0
      },
      "last7_score": 55.991,
      "prev7_score": 9.17,
      "trend": "up",
      "trend_arrow": "🔺",
      "change_pct": 510.6,
      "place": "Vysočina Region, Czechia"
    },
    {
      "lon": 21.25,
      "lat": 52.25,
      "type": "hotspot_cell",
      "score": 49.202,
      "count": 174,
      "cell_deg": 0.5,
      "sources": {
        "GDELT": 174,
        "GDELT_DOC": 0,
        "DIRECT_FEED": 0,
        "USGS": 0,
        "GDACS": 0
      },
      "last7_score": 36.13,
      "prev7_score": 13.072,
      "trend": "up",
      "trend_arrow": "🔺",
      "change_pct": 176.4,
      "place": "Warsaw, Poland"
    }
  ]
}