{
  "generated_utc": "2026-02-16T14:27:19Z",
  "top": [
    {
      "lon": 15.25,
      "lat": 49.75,
      "type": "hotspot_cell",
      "score": 1.937,
      "count": 2,
      "cell_deg": 0.5,
      "sources": {
        "GDELT": 2,
        "USGS": 0,
        "GDACS": 0
      },
      "last7_score": 1.937,
      "prev7_score": 0.0,
      "trend": "new",
      "trend_arrow": "üÜï",
      "change_pct": null,
      "place": "Vysoƒçina Region, Czechia"
    },
    {
      "lon": 17.25,
      "lat": 49.75,
      "type": "hotspot_cell",
      "score": 1.937,
      "count": 2,
      "cell_deg": 0.5,
      "sources": {
        "GDELT": 2,
        "USGS": 0,
        "GDACS": 0
      },
      "last7_score": 1.937,
      "prev7_score": 0.0,
      "trend": "new",
      "trend_arrow": "üÜï",
      "change_pct": null,
      "place": "Olomouc Region, Czechia"
    },
    {
      "lon": 26.25,
      "lat": 44.25,
      "type": "hotspot_cell",
      "score": 1.937,
      "count": 2,
      "cell_deg": 0.5,
      "sources": {
        "GDELT": 2,
        "USGS": 0,
        "GDACS": 0
      },
      "last7_score": 1.937,
      "prev7_score": 0.0,
      "trend": "new",
      "trend_arrow": "üÜï",
      "change_pct": null,
      "place": "Giurgiu, Romania"
    },
    {
      "lon": 15.25,
      "lat": 50.75,
      "type": "hotspot_cell",
      "score": 1.937,
      "count": 2,
      "cell_deg": 0.5,
      "sources": {
        "GDELT": 2,
        "USGS": 0,
        "GDACS": 0
      },
      "last7_score": 1.937,
      "prev7_score": 0.0,
      "trend": "new",
      "trend_arrow": "üÜï",
      "change_pct": null,
      "place": "SO ORP Tanvald, Czechia"
    },
    {
      "lon": 21.25,
      "lat": 52.25,
      "type": "hotspot_cell",
      "score": 1.937,
      "count": 2,
      "cell_deg": 0.5,
      "sources": {
        "GDELT": 2,
        "USGS": 0,
        "GDACS": 0
      },
      "last7_score": 1.937,
      "prev7_score": 0.0,
      "trend": "new",
      "trend_arrow": "üÜï",
      "change_pct": null,
      "place": "Warsaw, Poland"
    },
    {
      "lon": 15.75,
      "lat": 49.25,
      "type": "hotspot_cell",
      "score": 1.937,
      "count": 2,
      "cell_deg": 0.5,
      "sources": {
        "GDELT": 2,
        "USGS": 0,
        "GDACS": 0
      },
      "last7_score": 1.937,
      "prev7_score": 0.0,
      "trend": "new",
      "trend_arrow": "üÜï",
      "change_pct": null,
      "place": "Vysoƒçina Region, Czechia"
    },
    {
      "lon": 18.25,
      "lat": 49.75,
      "type": "hotspot_cell",
      "score": 1.937,
      "count": 2,
      "cell_deg": 0.5,
      "sources": {
        "GDELT": 2,
        "USGS": 0,
        "GDACS": 0
      },
      "last7_score": 1.937,
      "prev7_score": 0.0,
      "trend": "new",
      "trend_arrow": "üÜï",
      "change_pct": null,
      "place": "Moravian-Silesian Region, Czechia"
    },
    {
      "lon": 13.25,
      "lat": 50.25,
      "type": "hotspot_cell",
      "score": 1.937,
      "count": 2,
      "cell_deg": 0.5,
      "sources": {
        "GDELT": 2,
        "USGS": 0,
        "GDACS": 0
      },
      "last7_score": 1.937,
      "prev7_score": 0.0,
      "trend": "new",
      "trend_arrow": "üÜï",
      "change_pct": null,
      "place": "SO ORP Kada≈à, Czechia"
    },
    {
      "lon": 15.75,
      "lat": 49.75,
      "type": "hotspot_cell",
      "score": 1.937,
      "count": 2,
      "cell_deg": 0.5,
      "sources": {
        "GDELT": 2,
        "USGS": 0,
        "GDACS": 0
      },
      "last7_score": 1.937,
      "prev7_score": 0.0,
      "trend": "new",
      "trend_arrow": "üÜï",
      "change_pct": null,
      "place": "Vysoƒçina Region, Czechia"
    },
    {
      "lon": 16.25,
      "lat": 49.25,
      "type": "hotspot_cell",
      "score": 1.937,
      "count": 2,
      "cell_deg": 0.5,
      "sources": {
        "GDELT": 2,
        "USGS": 0,
        "GDACS": 0
      },
      "last7_score": 1.937,
      "prev7_score": 0.0,
      "trend": "new",
      "trend_arrow": "üÜï",
      "change_pct": null,
      "place": "Vysoƒçina Region, Czechia"
    }
  ]
}