{
  "generated_utc": "2026-04-15T13:29:29Z",
  "top": [
    {
      "lon": 14.25,
      "lat": 50.25,
      "type": "hotspot_cell",
      "score": 837.349,
      "count": 1311,
      "cell_deg": 0.5,
      "sources": {
        "GDELT": 82,
        "GDELT_DOC": 1229,
        "DIRECT_FEED": 0,
        "USGS": 0,
        "GDACS": 0
      },
      "last7_score": 831.992,
      "prev7_score": 5.357,
      "trend": "up",
      "trend_arrow": "🔺",
      "change_pct": 15429.8,
      "place": "SO ORP Kralupy nad Vltavou, Czechia"
    },
    {
      "lon": 19.25,
      "lat": 47.75,
      "type": "hotspot_cell",
      "score": 804.47,
      "count": 1419,
      "cell_deg": 0.5,
      "sources": {
        "GDELT": 1093,
        "GDELT_DOC": 0,
        "DIRECT_FEED": 326,
        "USGS": 0,
        "GDACS": 0
      },
      "last7_score": 744.202,
      "prev7_score": 60.268,
      "trend": "up",
      "trend_arrow": "🔺",
      "change_pct": 1134.8,
      "place": "Pest, Hungary"
    },
    {
      "lon": 26.25,
      "lat": 44.25,
      "type": "hotspot_cell",
      "score": 751.988,
      "count": 1315,
      "cell_deg": 0.5,
      "sources": {
        "GDELT": 116,
        "GDELT_DOC": 1197,
        "DIRECT_FEED": 2,
        "USGS": 0,
        "GDACS": 0
      },
      "last7_score": 741.395,
      "prev7_score": 10.593,
      "trend": "up",
      "trend_arrow": "🔺",
      "change_pct": 6898.6,
      "place": "Giurgiu, Romania"
    },
    {
      "lon": 25.25,
      "lat": 54.75,
      "type": "hotspot_cell",
      "score": 523.111,
      "count": 897,
      "cell_deg": 0.5,
      "sources": {
        "GDELT": 75,
        "GDELT_DOC": 820,
        "DIRECT_FEED": 2,
        "USGS": 0,
        "GDACS": 0
      },
      "last7_score": 518.238,
      "prev7_score": 4.873,
      "trend": "up",
      "trend_arrow": "🔺",
      "change_pct": 10534.5,
      "place": "Vilnius County, Lithuania"
    },
    {
      "lon": 20.25,
      "lat": 47.25,
      "type": "hotspot_cell",
      "score": 378.047,
      "count": 707,
      "cell_deg": 0.5,
      "sources": {
        "GDELT": 707,
        "GDELT_DOC": 0,
        "DIRECT_FEED": 0,
        "USGS": 0,
        "GDACS": 0
      },
      "last7_score": 343.89,
      "prev7_score": 34.157,
      "trend": "up",
      "trend_arrow": "🔺",
      "change_pct": 906.8,
      "place": "Jász-Nagykun-Szolnok, Hungary"
    },
    {
      "lon": 20.25,
      "lat": 52.25,
      "type": "hotspot_cell",
      "score": 151.949,
      "count": 385,
      "cell_deg": 0.5,
      "sources": {
        "GDELT": 385,
        "GDELT_DOC": 0,
        "DIRECT_FEED": 0,
        "USGS": 0,
        "GDACS": 0
      },
      "last7_score": 129.422,
      "prev7_score": 22.527,
      "trend": "up",
      "trend_arrow": "🔺",
      "change_pct": 474.5,
      "place": "Sochaczew County, Poland"
    },
    {
      "lon": 24.25,
      "lat": 56.75,
      "type": "hotspot_cell",
      "score": 109.155,
      "count": 158,
      "cell_deg": 0.5,
      "sources": {
        "GDELT": 25,
        "GDELT_DOC": 0,
        "DIRECT_FEED": 133,
        "USGS": 0,
        "GDACS": 0
      },
      "last7_score": 108.455,
      "prev7_score": 0.7,
      "trend": "up",
      "trend_arrow": "🔺",
      "change_pct": 15393.9,
      "place": "Ķekavas novads, Latvia"
    },
    {
      "lon": 25.25,
      "lat": 46.25,
      "type": "hotspot_cell",
      "score": 99.841,
      "count": 246,
      "cell_deg": 0.5,
      "sources": {
        "GDELT": 246,
        "GDELT_DOC": 0,
        "DIRECT_FEED": 0,
        "USGS": 0,
        "GDACS": 0
      },
      "last7_score": 80.444,
      "prev7_score": 19.397,
      "trend": "up",
      "trend_arrow": "🔺",
      "change_pct": 314.7,
      "place": "Harghita, Romania"
    },
    {
      "lon": 21.25,
      "lat": 52.25,
      "type": "hotspot_cell",
      "score": 81.473,
      "count": 149,
      "cell_deg": 0.5,
      "sources": {
        "GDELT": 149,
        "GDELT_DOC": 0,
        "DIRECT_FEED": 0,
        "USGS": 0,
        "GDACS": 0
      },
      "last7_score": 73.465,
      "prev7_score": 8.008,
      "trend": "up",
      "trend_arrow": "🔺",
      "change_pct": 817.4,
      "place": "Warsaw, Poland"
    },
    {
      "lon": 15.25,
      "lat": 49.75,
      "type": "hotspot_cell",
      "score": 68.129,
      "count": 145,
      "cell_deg": 0.5,
      "sources": {
        "GDELT": 145,
        "GDELT_DOC": 0,
        "DIRECT_FEED": 0,
        "USGS": 0,
        "GDACS": 0
      },
      "last7_score": 60.157,
      "prev7_score": 7.973,
      "trend": "up",
      "trend_arrow": "🔺",
      "change_pct": 654.5,
      "place": "Vysočina Region, Czechia"
    }
  ]
}