{
  "generated_utc": "2026-06-09T02:17:34Z",
  "top": [
    {
      "lon": 25.25,
      "lat": 54.75,
      "type": "hotspot_cell",
      "score": 638.873,
      "count": 1049,
      "cell_deg": 0.5,
      "sources": {
        "GDELT": 77,
        "GDELT_DOC": 970,
        "DIRECT_FEED": 2,
        "USGS": 0,
        "GDACS": 0
      },
      "last7_score": 630.723,
      "prev7_score": 8.151,
      "trend": "up",
      "trend_arrow": "🔺",
      "change_pct": 7638.2,
      "place": "Vilnius County, Lithuania"
    },
    {
      "lon": 26.25,
      "lat": 44.25,
      "type": "hotspot_cell",
      "score": 576.408,
      "count": 1123,
      "cell_deg": 0.5,
      "sources": {
        "GDELT": 243,
        "GDELT_DOC": 873,
        "DIRECT_FEED": 7,
        "USGS": 0,
        "GDACS": 0
      },
      "last7_score": 553.387,
      "prev7_score": 23.02,
      "trend": "up",
      "trend_arrow": "🔺",
      "change_pct": 2303.9,
      "place": "Giurgiu, Romania"
    },
    {
      "lon": 14.25,
      "lat": 50.25,
      "type": "hotspot_cell",
      "score": 511.701,
      "count": 938,
      "cell_deg": 0.5,
      "sources": {
        "GDELT": 107,
        "GDELT_DOC": 828,
        "DIRECT_FEED": 3,
        "USGS": 0,
        "GDACS": 0
      },
      "last7_score": 503.026,
      "prev7_score": 8.675,
      "trend": "up",
      "trend_arrow": "🔺",
      "change_pct": 5698.6,
      "place": "SO ORP Kralupy nad Vltavou, Czechia"
    },
    {
      "lon": 19.25,
      "lat": 47.75,
      "type": "hotspot_cell",
      "score": 185.738,
      "count": 429,
      "cell_deg": 0.5,
      "sources": {
        "GDELT": 253,
        "GDELT_DOC": 0,
        "DIRECT_FEED": 176,
        "USGS": 0,
        "GDACS": 0
      },
      "last7_score": 164.854,
      "prev7_score": 20.884,
      "trend": "up",
      "trend_arrow": "🔺",
      "change_pct": 689.4,
      "place": "Pest, Hungary"
    },
    {
      "lon": 25.25,
      "lat": 46.25,
      "type": "hotspot_cell",
      "score": 175.25,
      "count": 499,
      "cell_deg": 0.5,
      "sources": {
        "GDELT": 499,
        "GDELT_DOC": 0,
        "DIRECT_FEED": 0,
        "USGS": 0,
        "GDACS": 0
      },
      "last7_score": 131.823,
      "prev7_score": 43.427,
      "trend": "up",
      "trend_arrow": "🔺",
      "change_pct": 203.6,
      "place": "Harghita, Romania"
    },
    {
      "lon": 20.25,
      "lat": 52.25,
      "type": "hotspot_cell",
      "score": 159.646,
      "count": 502,
      "cell_deg": 0.5,
      "sources": {
        "GDELT": 502,
        "GDELT_DOC": 0,
        "DIRECT_FEED": 0,
        "USGS": 0,
        "GDACS": 0
      },
      "last7_score": 115.048,
      "prev7_score": 44.598,
      "trend": "up",
      "trend_arrow": "🔺",
      "change_pct": 158.0,
      "place": "Sochaczew County, Poland"
    },
    {
      "lon": 24.25,
      "lat": 56.75,
      "type": "hotspot_cell",
      "score": 104.934,
      "count": 184,
      "cell_deg": 0.5,
      "sources": {
        "GDELT": 48,
        "GDELT_DOC": 0,
        "DIRECT_FEED": 136,
        "USGS": 0,
        "GDACS": 0
      },
      "last7_score": 101.526,
      "prev7_score": 3.408,
      "trend": "up",
      "trend_arrow": "🔺",
      "change_pct": 2879.2,
      "place": "Ķekavas novads, Latvia"
    },
    {
      "lon": 20.25,
      "lat": 47.25,
      "type": "hotspot_cell",
      "score": 85.198,
      "count": 260,
      "cell_deg": 0.5,
      "sources": {
        "GDELT": 260,
        "GDELT_DOC": 0,
        "DIRECT_FEED": 0,
        "USGS": 0,
        "GDACS": 0
      },
      "last7_score": 63.08,
      "prev7_score": 22.118,
      "trend": "up",
      "trend_arrow": "🔺",
      "change_pct": 185.2,
      "place": "Jász-Nagykun-Szolnok, Hungary"
    },
    {
      "lon": 21.25,
      "lat": 52.25,
      "type": "hotspot_cell",
      "score": 69.562,
      "count": 216,
      "cell_deg": 0.5,
      "sources": {
        "GDELT": 216,
        "GDELT_DOC": 0,
        "DIRECT_FEED": 0,
        "USGS": 0,
        "GDACS": 0
      },
      "last7_score": 50.897,
      "prev7_score": 18.664,
      "trend": "up",
      "trend_arrow": "🔺",
      "change_pct": 172.7,
      "place": "Warsaw, Poland"
    },
    {
      "lon": 15.25,
      "lat": 49.75,
      "type": "hotspot_cell",
      "score": 48.738,
      "count": 153,
      "cell_deg": 0.5,
      "sources": {
        "GDELT": 153,
        "GDELT_DOC": 0,
        "DIRECT_FEED": 0,
        "USGS": 0,
        "GDACS": 0
      },
      "last7_score": 35.927,
      "prev7_score": 12.812,
      "trend": "up",
      "trend_arrow": "🔺",
      "change_pct": 180.4,
      "place": "Vysočina Region, Czechia"
    }
  ]
}