{
  "generated_utc": "2026-03-06T02:10:28Z",
  "top": [
    {
      "lon": 21.25,
      "lat": 52.25,
      "type": "hotspot_cell",
      "score": 17.777,
      "count": 47,
      "cell_deg": 0.5,
      "sources": {
        "GDELT": 47,
        "USGS": 0,
        "GDACS": 0
      },
      "last7_score": 13.787,
      "prev7_score": 3.989,
      "trend": "up",
      "trend_arrow": "🔺",
      "change_pct": 245.6,
      "place": "Warsaw, Poland"
    },
    {
      "lon": 25.25,
      "lat": 46.25,
      "type": "hotspot_cell",
      "score": 16.856,
      "count": 38,
      "cell_deg": 0.5,
      "sources": {
        "GDELT": 38,
        "USGS": 0,
        "GDACS": 0
      },
      "last7_score": 14.764,
      "prev7_score": 2.092,
      "trend": "up",
      "trend_arrow": "🔺",
      "change_pct": 605.8,
      "place": "Harghita, Romania"
    },
    {
      "lon": 19.25,
      "lat": 47.75,
      "type": "hotspot_cell",
      "score": 16.444,
      "count": 40,
      "cell_deg": 0.5,
      "sources": {
        "GDELT": 40,
        "USGS": 0,
        "GDACS": 0
      },
      "last7_score": 13.462,
      "prev7_score": 2.982,
      "trend": "up",
      "trend_arrow": "🔺",
      "change_pct": 351.5,
      "place": "Pest, Hungary"
    },
    {
      "lon": 20.25,
      "lat": 52.25,
      "type": "hotspot_cell",
      "score": 15.835,
      "count": 44,
      "cell_deg": 0.5,
      "sources": {
        "GDELT": 44,
        "USGS": 0,
        "GDACS": 0
      },
      "last7_score": 12.211,
      "prev7_score": 3.624,
      "trend": "up",
      "trend_arrow": "🔺",
      "change_pct": 236.9,
      "place": "Sochaczew County, Poland"
    },
    {
      "lon": 20.25,
      "lat": 47.25,
      "type": "hotspot_cell",
      "score": 15.615,
      "count": 41,
      "cell_deg": 0.5,
      "sources": {
        "GDELT": 41,
        "USGS": 0,
        "GDACS": 0
      },
      "last7_score": 12.612,
      "prev7_score": 3.003,
      "trend": "up",
      "trend_arrow": "🔺",
      "change_pct": 319.9,
      "place": "Jász-Nagykun-Szolnok, Hungary"
    },
    {
      "lon": 14.25,
      "lat": 50.25,
      "type": "hotspot_cell",
      "score": 14.839,
      "count": 39,
      "cell_deg": 0.5,
      "sources": {
        "GDELT": 39,
        "USGS": 0,
        "GDACS": 0
      },
      "last7_score": 11.74,
      "prev7_score": 3.099,
      "trend": "up",
      "trend_arrow": "🔺",
      "change_pct": 278.8,
      "place": "SO ORP Kralupy nad Vltavou, Czechia"
    },
    {
      "lon": 26.25,
      "lat": 59.25,
      "type": "hotspot_cell",
      "score": 13.745,
      "count": 33,
      "cell_deg": 0.5,
      "sources": {
        "GDELT": 33,
        "USGS": 0,
        "GDACS": 0
      },
      "last7_score": 11.657,
      "prev7_score": 2.088,
      "trend": "up",
      "trend_arrow": "🔺",
      "change_pct": 458.2,
      "place": "Lääne-Viru County, Estonia"
    },
    {
      "lon": 25.25,
      "lat": 57.25,
      "type": "hotspot_cell",
      "score": 12.352,
      "count": 31,
      "cell_deg": 0.5,
      "sources": {
        "GDELT": 31,
        "USGS": 0,
        "GDACS": 0
      },
      "last7_score": 9.879,
      "prev7_score": 2.474,
      "trend": "up",
      "trend_arrow": "🔺",
      "change_pct": 299.3,
      "place": "Cēsu novads, Latvia"
    },
    {
      "lon": 15.25,
      "lat": 49.75,
      "type": "hotspot_cell",
      "score": 11.718,
      "count": 33,
      "cell_deg": 0.5,
      "sources": {
        "GDELT": 33,
        "USGS": 0,
        "GDACS": 0
      },
      "last7_score": 8.938,
      "prev7_score": 2.78,
      "trend": "up",
      "trend_arrow": "🔺",
      "change_pct": 221.5,
      "place": "Vysočina Region, Czechia"
    },
    {
      "lon": 26.25,
      "lat": 44.25,
      "type": "hotspot_cell",
      "score": 10.636,
      "count": 28,
      "cell_deg": 0.5,
      "sources": {
        "GDELT": 28,
        "USGS": 0,
        "GDACS": 0
      },
      "last7_score": 8.309,
      "prev7_score": 2.327,
      "trend": "up",
      "trend_arrow": "🔺",
      "change_pct": 257.1,
      "place": "Giurgiu, Romania"
    }
  ]
}