{
  "generated_utc": "2026-03-30T19:07:05Z",
  "top": [
    {
      "lon": 14.25,
      "lat": 50.25,
      "type": "hotspot_cell",
      "score": 812.327,
      "count": 1409,
      "cell_deg": 0.5,
      "sources": {
        "GDELT": 124,
        "GDELT_DOC": 1283,
        "DIRECT_FEED": 2,
        "USGS": 0,
        "GDACS": 0
      },
      "last7_score": 805.772,
      "prev7_score": 6.555,
      "trend": "up",
      "trend_arrow": "🔺",
      "change_pct": 12192.5,
      "place": "SO ORP Kralupy nad Vltavou, Czechia"
    },
    {
      "lon": 26.25,
      "lat": 44.25,
      "type": "hotspot_cell",
      "score": 684.565,
      "count": 1202,
      "cell_deg": 0.5,
      "sources": {
        "GDELT": 139,
        "GDELT_DOC": 1061,
        "DIRECT_FEED": 2,
        "USGS": 0,
        "GDACS": 0
      },
      "last7_score": 675.595,
      "prev7_score": 8.97,
      "trend": "up",
      "trend_arrow": "🔺",
      "change_pct": 7431.8,
      "place": "Giurgiu, Romania"
    },
    {
      "lon": 25.25,
      "lat": 54.75,
      "type": "hotspot_cell",
      "score": 657.518,
      "count": 1064,
      "cell_deg": 0.5,
      "sources": {
        "GDELT": 95,
        "GDELT_DOC": 969,
        "DIRECT_FEED": 0,
        "USGS": 0,
        "GDACS": 0
      },
      "last7_score": 651.443,
      "prev7_score": 6.075,
      "trend": "up",
      "trend_arrow": "🔺",
      "change_pct": 10623.8,
      "place": "Vilnius County, Lithuania"
    },
    {
      "lon": 19.25,
      "lat": 47.75,
      "type": "hotspot_cell",
      "score": 229.06,
      "count": 526,
      "cell_deg": 0.5,
      "sources": {
        "GDELT": 315,
        "GDELT_DOC": 0,
        "DIRECT_FEED": 211,
        "USGS": 0,
        "GDACS": 0
      },
      "last7_score": 208.615,
      "prev7_score": 20.445,
      "trend": "up",
      "trend_arrow": "🔺",
      "change_pct": 920.4,
      "place": "Pest, Hungary"
    },
    {
      "lon": 20.25,
      "lat": 52.25,
      "type": "hotspot_cell",
      "score": 172.829,
      "count": 464,
      "cell_deg": 0.5,
      "sources": {
        "GDELT": 464,
        "GDELT_DOC": 0,
        "DIRECT_FEED": 0,
        "USGS": 0,
        "GDACS": 0
      },
      "last7_score": 148.818,
      "prev7_score": 24.011,
      "trend": "up",
      "trend_arrow": "🔺",
      "change_pct": 519.8,
      "place": "Sochaczew County, Poland"
    },
    {
      "lon": 24.25,
      "lat": 56.75,
      "type": "hotspot_cell",
      "score": 117.888,
      "count": 198,
      "cell_deg": 0.5,
      "sources": {
        "GDELT": 47,
        "GDELT_DOC": 0,
        "DIRECT_FEED": 151,
        "USGS": 0,
        "GDACS": 0
      },
      "last7_score": 115.854,
      "prev7_score": 2.034,
      "trend": "up",
      "trend_arrow": "🔺",
      "change_pct": 5595.4,
      "place": "Ķekavas novads, Latvia"
    },
    {
      "lon": 25.25,
      "lat": 46.25,
      "type": "hotspot_cell",
      "score": 103.593,
      "count": 320,
      "cell_deg": 0.5,
      "sources": {
        "GDELT": 320,
        "GDELT_DOC": 0,
        "DIRECT_FEED": 0,
        "USGS": 0,
        "GDACS": 0
      },
      "last7_score": 85.008,
      "prev7_score": 18.585,
      "trend": "up",
      "trend_arrow": "🔺",
      "change_pct": 357.4,
      "place": "Harghita, Romania"
    },
    {
      "lon": 20.25,
      "lat": 47.25,
      "type": "hotspot_cell",
      "score": 101.88,
      "count": 353,
      "cell_deg": 0.5,
      "sources": {
        "GDELT": 353,
        "GDELT_DOC": 0,
        "DIRECT_FEED": 0,
        "USGS": 0,
        "GDACS": 0
      },
      "last7_score": 76.842,
      "prev7_score": 25.038,
      "trend": "up",
      "trend_arrow": "🔺",
      "change_pct": 206.9,
      "place": "Jász-Nagykun-Szolnok, Hungary"
    },
    {
      "lon": 27.75,
      "lat": 47.25,
      "type": "hotspot_cell",
      "score": 52.868,
      "count": 98,
      "cell_deg": 0.5,
      "sources": {
        "GDELT": 0,
        "GDELT_DOC": 98,
        "DIRECT_FEED": 0,
        "USGS": 0,
        "GDACS": 0
      },
      "last7_score": 52.868,
      "prev7_score": 0.0,
      "trend": "new",
      "trend_arrow": "🆕",
      "change_pct": null,
      "place": "Iași, Romania"
    },
    {
      "lon": 15.25,
      "lat": 49.75,
      "type": "hotspot_cell",
      "score": 51.329,
      "count": 176,
      "cell_deg": 0.5,
      "sources": {
        "GDELT": 176,
        "GDELT_DOC": 0,
        "DIRECT_FEED": 0,
        "USGS": 0,
        "GDACS": 0
      },
      "last7_score": 39.44,
      "prev7_score": 11.889,
      "trend": "up",
      "trend_arrow": "🔺",
      "change_pct": 231.7,
      "place": "Vysočina Region, Czechia"
    }
  ]
}