{
  "generated_utc": "2026-06-10T20:23:52Z",
  "top": [
    {
      "lon": 26.25,
      "lat": 44.25,
      "type": "hotspot_cell",
      "score": 583.903,
      "count": 1110,
      "cell_deg": 0.5,
      "sources": {
        "GDELT": 256,
        "GDELT_DOC": 843,
        "DIRECT_FEED": 11,
        "USGS": 0,
        "GDACS": 0
      },
      "last7_score": 565.588,
      "prev7_score": 18.315,
      "trend": "up",
      "trend_arrow": "🔺",
      "change_pct": 2988.2,
      "place": "Giurgiu, Romania"
    },
    {
      "lon": 25.25,
      "lat": 54.75,
      "type": "hotspot_cell",
      "score": 507.963,
      "count": 919,
      "cell_deg": 0.5,
      "sources": {
        "GDELT": 79,
        "GDELT_DOC": 839,
        "DIRECT_FEED": 1,
        "USGS": 0,
        "GDACS": 0
      },
      "last7_score": 501.24,
      "prev7_score": 6.723,
      "trend": "up",
      "trend_arrow": "🔺",
      "change_pct": 7355.5,
      "place": "Vilnius County, Lithuania"
    },
    {
      "lon": 14.25,
      "lat": 50.25,
      "type": "hotspot_cell",
      "score": 447.675,
      "count": 785,
      "cell_deg": 0.5,
      "sources": {
        "GDELT": 104,
        "GDELT_DOC": 680,
        "DIRECT_FEED": 1,
        "USGS": 0,
        "GDACS": 0
      },
      "last7_score": 439.828,
      "prev7_score": 7.847,
      "trend": "up",
      "trend_arrow": "🔺",
      "change_pct": 5505.0,
      "place": "SO ORP Kralupy nad Vltavou, Czechia"
    },
    {
      "lon": 19.25,
      "lat": 47.75,
      "type": "hotspot_cell",
      "score": 182.716,
      "count": 415,
      "cell_deg": 0.5,
      "sources": {
        "GDELT": 244,
        "GDELT_DOC": 0,
        "DIRECT_FEED": 171,
        "USGS": 0,
        "GDACS": 0
      },
      "last7_score": 164.191,
      "prev7_score": 18.525,
      "trend": "up",
      "trend_arrow": "🔺",
      "change_pct": 786.3,
      "place": "Pest, Hungary"
    },
    {
      "lon": 25.25,
      "lat": 46.25,
      "type": "hotspot_cell",
      "score": 181.221,
      "count": 536,
      "cell_deg": 0.5,
      "sources": {
        "GDELT": 536,
        "GDELT_DOC": 0,
        "DIRECT_FEED": 0,
        "USGS": 0,
        "GDACS": 0
      },
      "last7_score": 143.89,
      "prev7_score": 37.331,
      "trend": "up",
      "trend_arrow": "🔺",
      "change_pct": 285.4,
      "place": "Harghita, Romania"
    },
    {
      "lon": 20.25,
      "lat": 52.25,
      "type": "hotspot_cell",
      "score": 166.132,
      "count": 503,
      "cell_deg": 0.5,
      "sources": {
        "GDELT": 503,
        "GDELT_DOC": 0,
        "DIRECT_FEED": 0,
        "USGS": 0,
        "GDACS": 0
      },
      "last7_score": 130.542,
      "prev7_score": 35.59,
      "trend": "up",
      "trend_arrow": "🔺",
      "change_pct": 266.8,
      "place": "Sochaczew County, Poland"
    },
    {
      "lon": 24.25,
      "lat": 56.75,
      "type": "hotspot_cell",
      "score": 102.532,
      "count": 172,
      "cell_deg": 0.5,
      "sources": {
        "GDELT": 53,
        "GDELT_DOC": 0,
        "DIRECT_FEED": 119,
        "USGS": 0,
        "GDACS": 0
      },
      "last7_score": 99.59,
      "prev7_score": 2.942,
      "trend": "up",
      "trend_arrow": "🔺",
      "change_pct": 3285.3,
      "place": "Ķekavas novads, Latvia"
    },
    {
      "lon": 20.25,
      "lat": 47.25,
      "type": "hotspot_cell",
      "score": 95.642,
      "count": 278,
      "cell_deg": 0.5,
      "sources": {
        "GDELT": 278,
        "GDELT_DOC": 0,
        "DIRECT_FEED": 0,
        "USGS": 0,
        "GDACS": 0
      },
      "last7_score": 76.997,
      "prev7_score": 18.645,
      "trend": "up",
      "trend_arrow": "🔺",
      "change_pct": 313.0,
      "place": "Jász-Nagykun-Szolnok, Hungary"
    },
    {
      "lon": 21.25,
      "lat": 52.25,
      "type": "hotspot_cell",
      "score": 66.047,
      "count": 221,
      "cell_deg": 0.5,
      "sources": {
        "GDELT": 221,
        "GDELT_DOC": 0,
        "DIRECT_FEED": 0,
        "USGS": 0,
        "GDACS": 0
      },
      "last7_score": 49.812,
      "prev7_score": 16.235,
      "trend": "up",
      "trend_arrow": "🔺",
      "change_pct": 206.8,
      "place": "Warsaw, Poland"
    },
    {
      "lon": 25.25,
      "lat": 57.25,
      "type": "hotspot_cell",
      "score": 56.007,
      "count": 127,
      "cell_deg": 0.5,
      "sources": {
        "GDELT": 127,
        "GDELT_DOC": 0,
        "DIRECT_FEED": 0,
        "USGS": 0,
        "GDACS": 0
      },
      "last7_score": 48.892,
      "prev7_score": 7.115,
      "trend": "up",
      "trend_arrow": "🔺",
      "change_pct": 587.2,
      "place": "Cēsu novads, Latvia"
    }
  ]
}