{
  "generated_utc": "2026-04-20T13:47:56Z",
  "top": [
    {
      "lon": 26.25,
      "lat": 44.25,
      "type": "hotspot_cell",
      "score": 733.412,
      "count": 1221,
      "cell_deg": 0.5,
      "sources": {
        "GDELT": 100,
        "GDELT_DOC": 1119,
        "DIRECT_FEED": 2,
        "USGS": 0,
        "GDACS": 0
      },
      "last7_score": 729.394,
      "prev7_score": 4.018,
      "trend": "up",
      "trend_arrow": "🔺",
      "change_pct": 18054.2,
      "place": "Giurgiu, Romania"
    },
    {
      "lon": 14.25,
      "lat": 50.25,
      "type": "hotspot_cell",
      "score": 687.429,
      "count": 1350,
      "cell_deg": 0.5,
      "sources": {
        "GDELT": 130,
        "GDELT_DOC": 1218,
        "DIRECT_FEED": 2,
        "USGS": 0,
        "GDACS": 0
      },
      "last7_score": 683.186,
      "prev7_score": 4.242,
      "trend": "up",
      "trend_arrow": "🔺",
      "change_pct": 16003.7,
      "place": "SO ORP Kralupy nad Vltavou, Czechia"
    },
    {
      "lon": 25.25,
      "lat": 54.75,
      "type": "hotspot_cell",
      "score": 555.15,
      "count": 890,
      "cell_deg": 0.5,
      "sources": {
        "GDELT": 78,
        "GDELT_DOC": 812,
        "DIRECT_FEED": 0,
        "USGS": 0,
        "GDACS": 0
      },
      "last7_score": 550.099,
      "prev7_score": 5.051,
      "trend": "up",
      "trend_arrow": "🔺",
      "change_pct": 10790.5,
      "place": "Vilnius County, Lithuania"
    },
    {
      "lon": 19.25,
      "lat": 47.75,
      "type": "hotspot_cell",
      "score": 465.083,
      "count": 1470,
      "cell_deg": 0.5,
      "sources": {
        "GDELT": 1185,
        "GDELT_DOC": 0,
        "DIRECT_FEED": 285,
        "USGS": 0,
        "GDACS": 0
      },
      "last7_score": 337.408,
      "prev7_score": 127.676,
      "trend": "up",
      "trend_arrow": "🔺",
      "change_pct": 164.3,
      "place": "Pest, Hungary"
    },
    {
      "lon": 20.25,
      "lat": 47.25,
      "type": "hotspot_cell",
      "score": 260.017,
      "count": 820,
      "cell_deg": 0.5,
      "sources": {
        "GDELT": 820,
        "GDELT_DOC": 0,
        "DIRECT_FEED": 0,
        "USGS": 0,
        "GDACS": 0
      },
      "last7_score": 190.711,
      "prev7_score": 69.306,
      "trend": "up",
      "trend_arrow": "🔺",
      "change_pct": 175.2,
      "place": "Jász-Nagykun-Szolnok, Hungary"
    },
    {
      "lon": 20.25,
      "lat": 52.25,
      "type": "hotspot_cell",
      "score": 148.727,
      "count": 418,
      "cell_deg": 0.5,
      "sources": {
        "GDELT": 418,
        "GDELT_DOC": 0,
        "DIRECT_FEED": 0,
        "USGS": 0,
        "GDACS": 0
      },
      "last7_score": 121.573,
      "prev7_score": 27.154,
      "trend": "up",
      "trend_arrow": "🔺",
      "change_pct": 347.7,
      "place": "Sochaczew County, Poland"
    },
    {
      "lon": 24.25,
      "lat": 56.75,
      "type": "hotspot_cell",
      "score": 93.812,
      "count": 159,
      "cell_deg": 0.5,
      "sources": {
        "GDELT": 32,
        "GDELT_DOC": 0,
        "DIRECT_FEED": 127,
        "USGS": 0,
        "GDACS": 0
      },
      "last7_score": 91.668,
      "prev7_score": 2.143,
      "trend": "up",
      "trend_arrow": "🔺",
      "change_pct": 4177.5,
      "place": "Ķekavas novads, Latvia"
    },
    {
      "lon": 25.25,
      "lat": 46.25,
      "type": "hotspot_cell",
      "score": 84.344,
      "count": 250,
      "cell_deg": 0.5,
      "sources": {
        "GDELT": 250,
        "GDELT_DOC": 0,
        "DIRECT_FEED": 0,
        "USGS": 0,
        "GDACS": 0
      },
      "last7_score": 72.58,
      "prev7_score": 11.765,
      "trend": "up",
      "trend_arrow": "🔺",
      "change_pct": 516.9,
      "place": "Harghita, Romania"
    },
    {
      "lon": 15.25,
      "lat": 49.75,
      "type": "hotspot_cell",
      "score": 76.651,
      "count": 189,
      "cell_deg": 0.5,
      "sources": {
        "GDELT": 189,
        "GDELT_DOC": 0,
        "DIRECT_FEED": 0,
        "USGS": 0,
        "GDACS": 0
      },
      "last7_score": 65.093,
      "prev7_score": 11.558,
      "trend": "up",
      "trend_arrow": "🔺",
      "change_pct": 463.2,
      "place": "Vysočina Region, Czechia"
    },
    {
      "lon": 21.25,
      "lat": 52.25,
      "type": "hotspot_cell",
      "score": 59.501,
      "count": 175,
      "cell_deg": 0.5,
      "sources": {
        "GDELT": 175,
        "GDELT_DOC": 0,
        "DIRECT_FEED": 0,
        "USGS": 0,
        "GDACS": 0
      },
      "last7_score": 48.749,
      "prev7_score": 10.752,
      "trend": "up",
      "trend_arrow": "🔺",
      "change_pct": 353.4,
      "place": "Warsaw, Poland"
    }
  ]
}