{
  "generated_utc": "2026-03-10T02:09:34Z",
  "top": [
    {
      "lon": 14.25,
      "lat": 50.25,
      "type": "hotspot_cell",
      "score": 618.661,
      "count": 830,
      "cell_deg": 0.5,
      "sources": {
        "GDELT": 142,
        "GDELT_DOC": 688,
        "DIRECT_FEED": 0,
        "USGS": 0,
        "GDACS": 0
      },
      "last7_score": 609.116,
      "prev7_score": 9.545,
      "trend": "up",
      "trend_arrow": "🔺",
      "change_pct": 6281.3,
      "place": "SO ORP Kralupy nad Vltavou, Czechia"
    },
    {
      "lon": 26.25,
      "lat": 44.25,
      "type": "hotspot_cell",
      "score": 590.76,
      "count": 793,
      "cell_deg": 0.5,
      "sources": {
        "GDELT": 160,
        "GDELT_DOC": 632,
        "DIRECT_FEED": 1,
        "USGS": 0,
        "GDACS": 0
      },
      "last7_score": 576.209,
      "prev7_score": 14.55,
      "trend": "up",
      "trend_arrow": "🔺",
      "change_pct": 3860.1,
      "place": "Giurgiu, Romania"
    },
    {
      "lon": 25.25,
      "lat": 54.75,
      "type": "hotspot_cell",
      "score": 318.965,
      "count": 446,
      "cell_deg": 0.5,
      "sources": {
        "GDELT": 65,
        "GDELT_DOC": 381,
        "DIRECT_FEED": 0,
        "USGS": 0,
        "GDACS": 0
      },
      "last7_score": 314.007,
      "prev7_score": 4.957,
      "trend": "up",
      "trend_arrow": "🔺",
      "change_pct": 6234.3,
      "place": "Vilnius County, Lithuania"
    },
    {
      "lon": 19.25,
      "lat": 47.75,
      "type": "hotspot_cell",
      "score": 239.337,
      "count": 483,
      "cell_deg": 0.5,
      "sources": {
        "GDELT": 392,
        "GDELT_DOC": 0,
        "DIRECT_FEED": 91,
        "USGS": 0,
        "GDACS": 0
      },
      "last7_score": 218.232,
      "prev7_score": 21.105,
      "trend": "up",
      "trend_arrow": "🔺",
      "change_pct": 934.0,
      "place": "Pest, Hungary"
    },
    {
      "lon": 20.25,
      "lat": 52.25,
      "type": "hotspot_cell",
      "score": 157.346,
      "count": 493,
      "cell_deg": 0.5,
      "sources": {
        "GDELT": 493,
        "GDELT_DOC": 0,
        "DIRECT_FEED": 0,
        "USGS": 0,
        "GDACS": 0
      },
      "last7_score": 115.897,
      "prev7_score": 41.45,
      "trend": "up",
      "trend_arrow": "🔺",
      "change_pct": 179.6,
      "place": "Sochaczew County, Poland"
    },
    {
      "lon": 20.25,
      "lat": 47.25,
      "type": "hotspot_cell",
      "score": 124.827,
      "count": 332,
      "cell_deg": 0.5,
      "sources": {
        "GDELT": 332,
        "GDELT_DOC": 0,
        "DIRECT_FEED": 0,
        "USGS": 0,
        "GDACS": 0
      },
      "last7_score": 100.601,
      "prev7_score": 24.226,
      "trend": "up",
      "trend_arrow": "🔺",
      "change_pct": 315.3,
      "place": "Jász-Nagykun-Szolnok, Hungary"
    },
    {
      "lon": 25.25,
      "lat": 46.25,
      "type": "hotspot_cell",
      "score": 93.157,
      "count": 289,
      "cell_deg": 0.5,
      "sources": {
        "GDELT": 289,
        "GDELT_DOC": 0,
        "DIRECT_FEED": 0,
        "USGS": 0,
        "GDACS": 0
      },
      "last7_score": 67.503,
      "prev7_score": 25.654,
      "trend": "up",
      "trend_arrow": "🔺",
      "change_pct": 163.1,
      "place": "Harghita, Romania"
    },
    {
      "lon": 24.25,
      "lat": 56.75,
      "type": "hotspot_cell",
      "score": 82.052,
      "count": 99,
      "cell_deg": 0.5,
      "sources": {
        "GDELT": 27,
        "GDELT_DOC": 0,
        "DIRECT_FEED": 72,
        "USGS": 0,
        "GDACS": 0
      },
      "last7_score": 80.082,
      "prev7_score": 1.97,
      "trend": "up",
      "trend_arrow": "🔺",
      "change_pct": 3964.8,
      "place": "Ķekavas novads, Latvia"
    },
    {
      "lon": 21.25,
      "lat": 52.25,
      "type": "hotspot_cell",
      "score": 73.08,
      "count": 238,
      "cell_deg": 0.5,
      "sources": {
        "GDELT": 238,
        "GDELT_DOC": 0,
        "DIRECT_FEED": 0,
        "USGS": 0,
        "GDACS": 0
      },
      "last7_score": 56.076,
      "prev7_score": 17.004,
      "trend": "up",
      "trend_arrow": "🔺",
      "change_pct": 229.8,
      "place": "Warsaw, Poland"
    },
    {
      "lon": 15.25,
      "lat": 49.75,
      "type": "hotspot_cell",
      "score": 52.793,
      "count": 157,
      "cell_deg": 0.5,
      "sources": {
        "GDELT": 157,
        "GDELT_DOC": 0,
        "DIRECT_FEED": 0,
        "USGS": 0,
        "GDACS": 0
      },
      "last7_score": 40.052,
      "prev7_score": 12.741,
      "trend": "up",
      "trend_arrow": "🔺",
      "change_pct": 214.4,
      "place": "Vysočina Region, Czechia"
    }
  ]
}