{
  "generated_utc": "2026-04-18T13:08:38Z",
  "top": [
    {
      "lon": 14.25,
      "lat": 50.25,
      "type": "hotspot_cell",
      "score": 927.055,
      "count": 1468,
      "cell_deg": 0.5,
      "sources": {
        "GDELT": 124,
        "GDELT_DOC": 1344,
        "DIRECT_FEED": 0,
        "USGS": 0,
        "GDACS": 0
      },
      "last7_score": 921.625,
      "prev7_score": 5.43,
      "trend": "up",
      "trend_arrow": "🔺",
      "change_pct": 16871.9,
      "place": "SO ORP Kralupy nad Vltavou, Czechia"
    },
    {
      "lon": 26.25,
      "lat": 44.25,
      "type": "hotspot_cell",
      "score": 831.453,
      "count": 1323,
      "cell_deg": 0.5,
      "sources": {
        "GDELT": 109,
        "GDELT_DOC": 1212,
        "DIRECT_FEED": 2,
        "USGS": 0,
        "GDACS": 0
      },
      "last7_score": 825.565,
      "prev7_score": 5.888,
      "trend": "up",
      "trend_arrow": "🔺",
      "change_pct": 13920.6,
      "place": "Giurgiu, Romania"
    },
    {
      "lon": 19.25,
      "lat": 47.75,
      "type": "hotspot_cell",
      "score": 597.169,
      "count": 1512,
      "cell_deg": 0.5,
      "sources": {
        "GDELT": 1188,
        "GDELT_DOC": 0,
        "DIRECT_FEED": 324,
        "USGS": 0,
        "GDACS": 0
      },
      "last7_score": 535.507,
      "prev7_score": 61.662,
      "trend": "up",
      "trend_arrow": "🔺",
      "change_pct": 768.5,
      "place": "Pest, Hungary"
    },
    {
      "lon": 25.25,
      "lat": 54.75,
      "type": "hotspot_cell",
      "score": 519.486,
      "count": 830,
      "cell_deg": 0.5,
      "sources": {
        "GDELT": 75,
        "GDELT_DOC": 755,
        "DIRECT_FEED": 0,
        "USGS": 0,
        "GDACS": 0
      },
      "last7_score": 515.483,
      "prev7_score": 4.003,
      "trend": "up",
      "trend_arrow": "🔺",
      "change_pct": 12778.1,
      "place": "Vilnius County, Lithuania"
    },
    {
      "lon": 20.25,
      "lat": 47.25,
      "type": "hotspot_cell",
      "score": 314.053,
      "count": 817,
      "cell_deg": 0.5,
      "sources": {
        "GDELT": 817,
        "GDELT_DOC": 0,
        "DIRECT_FEED": 0,
        "USGS": 0,
        "GDACS": 0
      },
      "last7_score": 274.136,
      "prev7_score": 39.917,
      "trend": "up",
      "trend_arrow": "🔺",
      "change_pct": 586.8,
      "place": "Jász-Nagykun-Szolnok, Hungary"
    },
    {
      "lon": 20.25,
      "lat": 52.25,
      "type": "hotspot_cell",
      "score": 164.541,
      "count": 399,
      "cell_deg": 0.5,
      "sources": {
        "GDELT": 399,
        "GDELT_DOC": 0,
        "DIRECT_FEED": 0,
        "USGS": 0,
        "GDACS": 0
      },
      "last7_score": 139.343,
      "prev7_score": 25.198,
      "trend": "up",
      "trend_arrow": "🔺",
      "change_pct": 453.0,
      "place": "Sochaczew County, Poland"
    },
    {
      "lon": 24.25,
      "lat": 56.75,
      "type": "hotspot_cell",
      "score": 104.844,
      "count": 158,
      "cell_deg": 0.5,
      "sources": {
        "GDELT": 32,
        "GDELT_DOC": 0,
        "DIRECT_FEED": 126,
        "USGS": 0,
        "GDACS": 0
      },
      "last7_score": 103.251,
      "prev7_score": 1.593,
      "trend": "up",
      "trend_arrow": "🔺",
      "change_pct": 6381.5,
      "place": "Ķekavas novads, Latvia"
    },
    {
      "lon": 25.25,
      "lat": 46.25,
      "type": "hotspot_cell",
      "score": 102.003,
      "count": 261,
      "cell_deg": 0.5,
      "sources": {
        "GDELT": 261,
        "GDELT_DOC": 0,
        "DIRECT_FEED": 0,
        "USGS": 0,
        "GDACS": 0
      },
      "last7_score": 88.12,
      "prev7_score": 13.883,
      "trend": "up",
      "trend_arrow": "🔺",
      "change_pct": 534.7,
      "place": "Harghita, Romania"
    },
    {
      "lon": 15.25,
      "lat": 49.75,
      "type": "hotspot_cell",
      "score": 76.639,
      "count": 173,
      "cell_deg": 0.5,
      "sources": {
        "GDELT": 173,
        "GDELT_DOC": 0,
        "DIRECT_FEED": 0,
        "USGS": 0,
        "GDACS": 0
      },
      "last7_score": 67.461,
      "prev7_score": 9.178,
      "trend": "up",
      "trend_arrow": "🔺",
      "change_pct": 635.1,
      "place": "Vysočina Region, Czechia"
    },
    {
      "lon": 21.25,
      "lat": 52.25,
      "type": "hotspot_cell",
      "score": 74.874,
      "count": 171,
      "cell_deg": 0.5,
      "sources": {
        "GDELT": 171,
        "GDELT_DOC": 0,
        "DIRECT_FEED": 0,
        "USGS": 0,
        "GDACS": 0
      },
      "last7_score": 67.893,
      "prev7_score": 6.98,
      "trend": "up",
      "trend_arrow": "🔺",
      "change_pct": 872.7,
      "place": "Warsaw, Poland"
    }
  ]
}