{
  "generated_utc": "2026-07-08T19:18:26Z",
  "top": [
    {
      "lon": 14.25,
      "lat": 50.25,
      "type": "hotspot_cell",
      "score": 633.627,
      "count": 704,
      "cell_deg": 0.5,
      "sources": {
        "GDELT": 118,
        "GDELT_DOC": 584,
        "DIRECT_FEED": 2,
        "USGS": 0,
        "GDACS": 0
      },
      "last7_score": 625.685,
      "prev7_score": 7.942,
      "trend": "up",
      "trend_arrow": "🔺",
      "change_pct": 7778.2,
      "place": "SO ORP Kralupy nad Vltavou, Czechia"
    },
    {
      "lon": 26.25,
      "lat": 44.25,
      "type": "hotspot_cell",
      "score": 502.883,
      "count": 671,
      "cell_deg": 0.5,
      "sources": {
        "GDELT": 143,
        "GDELT_DOC": 523,
        "DIRECT_FEED": 5,
        "USGS": 0,
        "GDACS": 0
      },
      "last7_score": 491.993,
      "prev7_score": 10.891,
      "trend": "up",
      "trend_arrow": "🔺",
      "change_pct": 4417.5,
      "place": "Giurgiu, Romania"
    },
    {
      "lon": 25.25,
      "lat": 54.75,
      "type": "hotspot_cell",
      "score": 362.626,
      "count": 403,
      "cell_deg": 0.5,
      "sources": {
        "GDELT": 73,
        "GDELT_DOC": 329,
        "DIRECT_FEED": 1,
        "USGS": 0,
        "GDACS": 0
      },
      "last7_score": 358.511,
      "prev7_score": 4.115,
      "trend": "up",
      "trend_arrow": "🔺",
      "change_pct": 8612.0,
      "place": "Vilnius County, Lithuania"
    },
    {
      "lon": 20.25,
      "lat": 52.25,
      "type": "hotspot_cell",
      "score": 220.907,
      "count": 577,
      "cell_deg": 0.5,
      "sources": {
        "GDELT": 577,
        "GDELT_DOC": 0,
        "DIRECT_FEED": 0,
        "USGS": 0,
        "GDACS": 0
      },
      "last7_score": 183.674,
      "prev7_score": 37.233,
      "trend": "up",
      "trend_arrow": "🔺",
      "change_pct": 393.3,
      "place": "Sochaczew County, Poland"
    },
    {
      "lon": 19.25,
      "lat": 47.75,
      "type": "hotspot_cell",
      "score": 169.671,
      "count": 321,
      "cell_deg": 0.5,
      "sources": {
        "GDELT": 156,
        "GDELT_DOC": 0,
        "DIRECT_FEED": 165,
        "USGS": 0,
        "GDACS": 0
      },
      "last7_score": 158.882,
      "prev7_score": 10.789,
      "trend": "up",
      "trend_arrow": "🔺",
      "change_pct": 1372.6,
      "place": "Pest, Hungary"
    },
    {
      "lon": 25.25,
      "lat": 46.25,
      "type": "hotspot_cell",
      "score": 144.961,
      "count": 362,
      "cell_deg": 0.5,
      "sources": {
        "GDELT": 362,
        "GDELT_DOC": 0,
        "DIRECT_FEED": 0,
        "USGS": 0,
        "GDACS": 0
      },
      "last7_score": 124.63,
      "prev7_score": 20.331,
      "trend": "up",
      "trend_arrow": "🔺",
      "change_pct": 513.0,
      "place": "Harghita, Romania"
    },
    {
      "lon": 24.25,
      "lat": 56.75,
      "type": "hotspot_cell",
      "score": 109.194,
      "count": 157,
      "cell_deg": 0.5,
      "sources": {
        "GDELT": 23,
        "GDELT_DOC": 0,
        "DIRECT_FEED": 134,
        "USGS": 0,
        "GDACS": 0
      },
      "last7_score": 107.218,
      "prev7_score": 1.976,
      "trend": "up",
      "trend_arrow": "🔺",
      "change_pct": 5326.7,
      "place": "Ķekavas novads, Latvia"
    },
    {
      "lon": 21.25,
      "lat": 52.25,
      "type": "hotspot_cell",
      "score": 102.477,
      "count": 289,
      "cell_deg": 0.5,
      "sources": {
        "GDELT": 289,
        "GDELT_DOC": 0,
        "DIRECT_FEED": 0,
        "USGS": 0,
        "GDACS": 0
      },
      "last7_score": 85.225,
      "prev7_score": 17.252,
      "trend": "up",
      "trend_arrow": "🔺",
      "change_pct": 394.0,
      "place": "Warsaw, Poland"
    },
    {
      "lon": 20.25,
      "lat": 47.25,
      "type": "hotspot_cell",
      "score": 74.581,
      "count": 170,
      "cell_deg": 0.5,
      "sources": {
        "GDELT": 170,
        "GDELT_DOC": 0,
        "DIRECT_FEED": 0,
        "USGS": 0,
        "GDACS": 0
      },
      "last7_score": 65.475,
      "prev7_score": 9.106,
      "trend": "up",
      "trend_arrow": "🔺",
      "change_pct": 619.0,
      "place": "Jász-Nagykun-Szolnok, Hungary"
    },
    {
      "lon": 26.25,
      "lat": 59.25,
      "type": "hotspot_cell",
      "score": 67.73,
      "count": 131,
      "cell_deg": 0.5,
      "sources": {
        "GDELT": 131,
        "GDELT_DOC": 0,
        "DIRECT_FEED": 0,
        "USGS": 0,
        "GDACS": 0
      },
      "last7_score": 60.053,
      "prev7_score": 7.678,
      "trend": "up",
      "trend_arrow": "🔺",
      "change_pct": 682.2,
      "place": "Lääne-Viru County, Estonia"
    }
  ]
}