{
  "generated_utc": "2026-05-16T13:28:39Z",
  "top": [
    {
      "lon": 14.25,
      "lat": 50.25,
      "type": "hotspot_cell",
      "score": 1045.418,
      "count": 1645,
      "cell_deg": 0.5,
      "sources": {
        "GDELT": 120,
        "GDELT_DOC": 1521,
        "DIRECT_FEED": 4,
        "USGS": 0,
        "GDACS": 0
      },
      "last7_score": 1037.508,
      "prev7_score": 7.911,
      "trend": "up",
      "trend_arrow": "🔺",
      "change_pct": 13015.5,
      "place": "SO ORP Kralupy nad Vltavou, Czechia"
    },
    {
      "lon": 26.25,
      "lat": 44.25,
      "type": "hotspot_cell",
      "score": 786.165,
      "count": 1403,
      "cell_deg": 0.5,
      "sources": {
        "GDELT": 229,
        "GDELT_DOC": 1168,
        "DIRECT_FEED": 6,
        "USGS": 0,
        "GDACS": 0
      },
      "last7_score": 774.952,
      "prev7_score": 11.213,
      "trend": "up",
      "trend_arrow": "🔺",
      "change_pct": 6811.0,
      "place": "Giurgiu, Romania"
    },
    {
      "lon": 25.25,
      "lat": 54.75,
      "type": "hotspot_cell",
      "score": 670.366,
      "count": 1047,
      "cell_deg": 0.5,
      "sources": {
        "GDELT": 74,
        "GDELT_DOC": 973,
        "DIRECT_FEED": 0,
        "USGS": 0,
        "GDACS": 0
      },
      "last7_score": 664.775,
      "prev7_score": 5.591,
      "trend": "up",
      "trend_arrow": "🔺",
      "change_pct": 11789.5,
      "place": "Vilnius County, Lithuania"
    },
    {
      "lon": 19.25,
      "lat": 47.75,
      "type": "hotspot_cell",
      "score": 267.96,
      "count": 528,
      "cell_deg": 0.5,
      "sources": {
        "GDELT": 297,
        "GDELT_DOC": 0,
        "DIRECT_FEED": 231,
        "USGS": 0,
        "GDACS": 0
      },
      "last7_score": 244.906,
      "prev7_score": 23.054,
      "trend": "up",
      "trend_arrow": "🔺",
      "change_pct": 962.3,
      "place": "Pest, Hungary"
    },
    {
      "lon": 20.25,
      "lat": 52.25,
      "type": "hotspot_cell",
      "score": 255.2,
      "count": 614,
      "cell_deg": 0.5,
      "sources": {
        "GDELT": 614,
        "GDELT_DOC": 0,
        "DIRECT_FEED": 0,
        "USGS": 0,
        "GDACS": 0
      },
      "last7_score": 217.535,
      "prev7_score": 37.665,
      "trend": "up",
      "trend_arrow": "🔺",
      "change_pct": 477.5,
      "place": "Sochaczew County, Poland"
    },
    {
      "lon": 24.25,
      "lat": 56.75,
      "type": "hotspot_cell",
      "score": 125.573,
      "count": 192,
      "cell_deg": 0.5,
      "sources": {
        "GDELT": 39,
        "GDELT_DOC": 0,
        "DIRECT_FEED": 153,
        "USGS": 0,
        "GDACS": 0
      },
      "last7_score": 123.062,
      "prev7_score": 2.511,
      "trend": "up",
      "trend_arrow": "🔺",
      "change_pct": 4801.6,
      "place": "Ķekavas novads, Latvia"
    },
    {
      "lon": 20.25,
      "lat": 47.25,
      "type": "hotspot_cell",
      "score": 113.308,
      "count": 293,
      "cell_deg": 0.5,
      "sources": {
        "GDELT": 293,
        "GDELT_DOC": 0,
        "DIRECT_FEED": 0,
        "USGS": 0,
        "GDACS": 0
      },
      "last7_score": 94.133,
      "prev7_score": 19.175,
      "trend": "up",
      "trend_arrow": "🔺",
      "change_pct": 390.9,
      "place": "Jász-Nagykun-Szolnok, Hungary"
    },
    {
      "lon": 25.25,
      "lat": 46.25,
      "type": "hotspot_cell",
      "score": 106.772,
      "count": 302,
      "cell_deg": 0.5,
      "sources": {
        "GDELT": 302,
        "GDELT_DOC": 0,
        "DIRECT_FEED": 0,
        "USGS": 0,
        "GDACS": 0
      },
      "last7_score": 88.352,
      "prev7_score": 18.42,
      "trend": "up",
      "trend_arrow": "🔺",
      "change_pct": 379.6,
      "place": "Harghita, Romania"
    },
    {
      "lon": 21.25,
      "lat": 52.25,
      "type": "hotspot_cell",
      "score": 98.897,
      "count": 216,
      "cell_deg": 0.5,
      "sources": {
        "GDELT": 216,
        "GDELT_DOC": 0,
        "DIRECT_FEED": 0,
        "USGS": 0,
        "GDACS": 0
      },
      "last7_score": 84.353,
      "prev7_score": 14.544,
      "trend": "up",
      "trend_arrow": "🔺",
      "change_pct": 480.0,
      "place": "Warsaw, Poland"
    },
    {
      "lon": 25.25,
      "lat": 57.25,
      "type": "hotspot_cell",
      "score": 92.38,
      "count": 164,
      "cell_deg": 0.5,
      "sources": {
        "GDELT": 164,
        "GDELT_DOC": 0,
        "DIRECT_FEED": 0,
        "USGS": 0,
        "GDACS": 0
      },
      "last7_score": 86.154,
      "prev7_score": 6.227,
      "trend": "up",
      "trend_arrow": "🔺",
      "change_pct": 1283.6,
      "place": "Cēsu novads, Latvia"
    }
  ]
}