{
  "generated_utc": "2026-05-09T19:10:22Z",
  "top": [
    {
      "lon": 14.25,
      "lat": 50.25,
      "type": "hotspot_cell",
      "score": 814.881,
      "count": 1393,
      "cell_deg": 0.5,
      "sources": {
        "GDELT": 156,
        "GDELT_DOC": 1234,
        "DIRECT_FEED": 3,
        "USGS": 0,
        "GDACS": 0
      },
      "last7_score": 803.983,
      "prev7_score": 10.899,
      "trend": "up",
      "trend_arrow": "🔺",
      "change_pct": 7277.0,
      "place": "SO ORP Kralupy nad Vltavou, Czechia"
    },
    {
      "lon": 26.25,
      "lat": 44.25,
      "type": "hotspot_cell",
      "score": 703.478,
      "count": 1121,
      "cell_deg": 0.5,
      "sources": {
        "GDELT": 157,
        "GDELT_DOC": 955,
        "DIRECT_FEED": 9,
        "USGS": 0,
        "GDACS": 0
      },
      "last7_score": 696.592,
      "prev7_score": 6.886,
      "trend": "up",
      "trend_arrow": "🔺",
      "change_pct": 10015.9,
      "place": "Giurgiu, Romania"
    },
    {
      "lon": 25.25,
      "lat": 54.75,
      "type": "hotspot_cell",
      "score": 662.435,
      "count": 1033,
      "cell_deg": 0.5,
      "sources": {
        "GDELT": 72,
        "GDELT_DOC": 961,
        "DIRECT_FEED": 0,
        "USGS": 0,
        "GDACS": 0
      },
      "last7_score": 658.692,
      "prev7_score": 3.743,
      "trend": "up",
      "trend_arrow": "🔺",
      "change_pct": 17496.8,
      "place": "Vilnius County, Lithuania"
    },
    {
      "lon": 19.25,
      "lat": 47.75,
      "type": "hotspot_cell",
      "score": 244.08,
      "count": 433,
      "cell_deg": 0.5,
      "sources": {
        "GDELT": 253,
        "GDELT_DOC": 0,
        "DIRECT_FEED": 180,
        "USGS": 0,
        "GDACS": 0
      },
      "last7_score": 231.219,
      "prev7_score": 12.862,
      "trend": "up",
      "trend_arrow": "🔺",
      "change_pct": 1697.7,
      "place": "Pest, Hungary"
    },
    {
      "lon": 20.25,
      "lat": 52.25,
      "type": "hotspot_cell",
      "score": 204.484,
      "count": 526,
      "cell_deg": 0.5,
      "sources": {
        "GDELT": 526,
        "GDELT_DOC": 0,
        "DIRECT_FEED": 0,
        "USGS": 0,
        "GDACS": 0
      },
      "last7_score": 176.201,
      "prev7_score": 28.283,
      "trend": "up",
      "trend_arrow": "🔺",
      "change_pct": 523.0,
      "place": "Sochaczew County, Poland"
    },
    {
      "lon": 25.25,
      "lat": 46.25,
      "type": "hotspot_cell",
      "score": 111.711,
      "count": 351,
      "cell_deg": 0.5,
      "sources": {
        "GDELT": 351,
        "GDELT_DOC": 0,
        "DIRECT_FEED": 0,
        "USGS": 0,
        "GDACS": 0
      },
      "last7_score": 87.878,
      "prev7_score": 23.832,
      "trend": "up",
      "trend_arrow": "🔺",
      "change_pct": 268.7,
      "place": "Harghita, Romania"
    },
    {
      "lon": 20.25,
      "lat": 47.25,
      "type": "hotspot_cell",
      "score": 105.355,
      "count": 305,
      "cell_deg": 0.5,
      "sources": {
        "GDELT": 305,
        "GDELT_DOC": 0,
        "DIRECT_FEED": 0,
        "USGS": 0,
        "GDACS": 0
      },
      "last7_score": 87.05,
      "prev7_score": 18.305,
      "trend": "up",
      "trend_arrow": "🔺",
      "change_pct": 375.6,
      "place": "Jász-Nagykun-Szolnok, Hungary"
    },
    {
      "lon": 24.25,
      "lat": 56.75,
      "type": "hotspot_cell",
      "score": 95.441,
      "count": 152,
      "cell_deg": 0.5,
      "sources": {
        "GDELT": 34,
        "GDELT_DOC": 0,
        "DIRECT_FEED": 118,
        "USGS": 0,
        "GDACS": 0
      },
      "last7_score": 94.35,
      "prev7_score": 1.091,
      "trend": "up",
      "trend_arrow": "🔺",
      "change_pct": 8549.0,
      "place": "Ķekavas novads, Latvia"
    },
    {
      "lon": 21.25,
      "lat": 52.25,
      "type": "hotspot_cell",
      "score": 76.199,
      "count": 181,
      "cell_deg": 0.5,
      "sources": {
        "GDELT": 181,
        "GDELT_DOC": 0,
        "DIRECT_FEED": 0,
        "USGS": 0,
        "GDACS": 0
      },
      "last7_score": 66.82,
      "prev7_score": 9.379,
      "trend": "up",
      "trend_arrow": "🔺",
      "change_pct": 612.4,
      "place": "Warsaw, Poland"
    },
    {
      "lon": 27.75,
      "lat": 47.25,
      "type": "hotspot_cell",
      "score": 68.514,
      "count": 94,
      "cell_deg": 0.5,
      "sources": {
        "GDELT": 0,
        "GDELT_DOC": 94,
        "DIRECT_FEED": 0,
        "USGS": 0,
        "GDACS": 0
      },
      "last7_score": 68.514,
      "prev7_score": 0.0,
      "trend": "new",
      "trend_arrow": "🆕",
      "change_pct": null,
      "place": "Iași, Romania"
    }
  ]
}