{
  "generated_utc": "2026-06-18T20:21:32Z",
  "top": [
    {
      "lon": 25.25,
      "lat": 54.75,
      "type": "hotspot_cell",
      "score": 583.117,
      "count": 862,
      "cell_deg": 0.5,
      "sources": {
        "GDELT": 60,
        "GDELT_DOC": 801,
        "DIRECT_FEED": 1,
        "USGS": 0,
        "GDACS": 0
      },
      "last7_score": 578.962,
      "prev7_score": 4.155,
      "trend": "up",
      "trend_arrow": "🔺",
      "change_pct": 13834.0,
      "place": "Vilnius County, Lithuania"
    },
    {
      "lon": 26.25,
      "lat": 44.25,
      "type": "hotspot_cell",
      "score": 561.968,
      "count": 980,
      "cell_deg": 0.5,
      "sources": {
        "GDELT": 165,
        "GDELT_DOC": 807,
        "DIRECT_FEED": 8,
        "USGS": 0,
        "GDACS": 0
      },
      "last7_score": 550.478,
      "prev7_score": 11.49,
      "trend": "up",
      "trend_arrow": "🔺",
      "change_pct": 4691.1,
      "place": "Giurgiu, Romania"
    },
    {
      "lon": 14.25,
      "lat": 50.25,
      "type": "hotspot_cell",
      "score": 421.651,
      "count": 685,
      "cell_deg": 0.5,
      "sources": {
        "GDELT": 97,
        "GDELT_DOC": 577,
        "DIRECT_FEED": 11,
        "USGS": 0,
        "GDACS": 0
      },
      "last7_score": 415.608,
      "prev7_score": 6.043,
      "trend": "up",
      "trend_arrow": "🔺",
      "change_pct": 6777.6,
      "place": "SO ORP Kralupy nad Vltavou, Czechia"
    },
    {
      "lon": 19.25,
      "lat": 47.75,
      "type": "hotspot_cell",
      "score": 195.701,
      "count": 346,
      "cell_deg": 0.5,
      "sources": {
        "GDELT": 167,
        "GDELT_DOC": 0,
        "DIRECT_FEED": 179,
        "USGS": 0,
        "GDACS": 0
      },
      "last7_score": 186.495,
      "prev7_score": 9.206,
      "trend": "up",
      "trend_arrow": "🔺",
      "change_pct": 1925.9,
      "place": "Pest, Hungary"
    },
    {
      "lon": 20.25,
      "lat": 52.25,
      "type": "hotspot_cell",
      "score": 189.994,
      "count": 470,
      "cell_deg": 0.5,
      "sources": {
        "GDELT": 470,
        "GDELT_DOC": 0,
        "DIRECT_FEED": 0,
        "USGS": 0,
        "GDACS": 0
      },
      "last7_score": 159.159,
      "prev7_score": 30.835,
      "trend": "up",
      "trend_arrow": "🔺",
      "change_pct": 416.2,
      "place": "Sochaczew County, Poland"
    },
    {
      "lon": 25.25,
      "lat": 46.25,
      "type": "hotspot_cell",
      "score": 173.846,
      "count": 446,
      "cell_deg": 0.5,
      "sources": {
        "GDELT": 446,
        "GDELT_DOC": 0,
        "DIRECT_FEED": 0,
        "USGS": 0,
        "GDACS": 0
      },
      "last7_score": 145.588,
      "prev7_score": 28.258,
      "trend": "up",
      "trend_arrow": "🔺",
      "change_pct": 415.2,
      "place": "Harghita, Romania"
    },
    {
      "lon": 24.25,
      "lat": 56.75,
      "type": "hotspot_cell",
      "score": 116.746,
      "count": 178,
      "cell_deg": 0.5,
      "sources": {
        "GDELT": 39,
        "GDELT_DOC": 0,
        "DIRECT_FEED": 139,
        "USGS": 0,
        "GDACS": 0
      },
      "last7_score": 113.789,
      "prev7_score": 2.957,
      "trend": "up",
      "trend_arrow": "🔺",
      "change_pct": 3748.3,
      "place": "Ķekavas novads, Latvia"
    },
    {
      "lon": 20.25,
      "lat": 47.25,
      "type": "hotspot_cell",
      "score": 102.288,
      "count": 256,
      "cell_deg": 0.5,
      "sources": {
        "GDELT": 256,
        "GDELT_DOC": 0,
        "DIRECT_FEED": 0,
        "USGS": 0,
        "GDACS": 0
      },
      "last7_score": 86.405,
      "prev7_score": 15.883,
      "trend": "up",
      "trend_arrow": "🔺",
      "change_pct": 444.0,
      "place": "Jász-Nagykun-Szolnok, Hungary"
    },
    {
      "lon": 21.25,
      "lat": 52.25,
      "type": "hotspot_cell",
      "score": 96.971,
      "count": 195,
      "cell_deg": 0.5,
      "sources": {
        "GDELT": 195,
        "GDELT_DOC": 0,
        "DIRECT_FEED": 0,
        "USGS": 0,
        "GDACS": 0
      },
      "last7_score": 87.828,
      "prev7_score": 9.143,
      "trend": "up",
      "trend_arrow": "🔺",
      "change_pct": 860.6,
      "place": "Warsaw, Poland"
    },
    {
      "lon": 17.25,
      "lat": 48.25,
      "type": "hotspot_cell",
      "score": 86.476,
      "count": 164,
      "cell_deg": 0.5,
      "sources": {
        "GDELT": 163,
        "GDELT_DOC": 0,
        "DIRECT_FEED": 1,
        "USGS": 0,
        "GDACS": 0
      },
      "last7_score": 84.008,
      "prev7_score": 2.468,
      "trend": "up",
      "trend_arrow": "🔺",
      "change_pct": 3303.6,
      "place": "District of Pezinok, Slovakia"
    }
  ]
}