{
  "generated_utc": "2026-04-12T18:54:54Z",
  "top": [
    {
      "lon": 26.25,
      "lat": 44.25,
      "type": "hotspot_cell",
      "score": 818.988,
      "count": 1469,
      "cell_deg": 0.5,
      "sources": {
        "GDELT": 157,
        "GDELT_DOC": 1306,
        "DIRECT_FEED": 6,
        "USGS": 0,
        "GDACS": 0
      },
      "last7_score": 808.407,
      "prev7_score": 10.581,
      "trend": "up",
      "trend_arrow": "🔺",
      "change_pct": 7540.1,
      "place": "Giurgiu, Romania"
    },
    {
      "lon": 14.25,
      "lat": 50.25,
      "type": "hotspot_cell",
      "score": 705.929,
      "count": 1169,
      "cell_deg": 0.5,
      "sources": {
        "GDELT": 87,
        "GDELT_DOC": 1082,
        "DIRECT_FEED": 0,
        "USGS": 0,
        "GDACS": 0
      },
      "last7_score": 700.375,
      "prev7_score": 5.554,
      "trend": "up",
      "trend_arrow": "🔺",
      "change_pct": 12509.4,
      "place": "SO ORP Kralupy nad Vltavou, Czechia"
    },
    {
      "lon": 25.25,
      "lat": 54.75,
      "type": "hotspot_cell",
      "score": 536.171,
      "count": 901,
      "cell_deg": 0.5,
      "sources": {
        "GDELT": 77,
        "GDELT_DOC": 822,
        "DIRECT_FEED": 2,
        "USGS": 0,
        "GDACS": 0
      },
      "last7_score": 531.422,
      "prev7_score": 4.749,
      "trend": "up",
      "trend_arrow": "🔺",
      "change_pct": 11089.9,
      "place": "Vilnius County, Lithuania"
    },
    {
      "lon": 19.25,
      "lat": 47.75,
      "type": "hotspot_cell",
      "score": 492.619,
      "count": 899,
      "cell_deg": 0.5,
      "sources": {
        "GDELT": 641,
        "GDELT_DOC": 0,
        "DIRECT_FEED": 258,
        "USGS": 0,
        "GDACS": 0
      },
      "last7_score": 477.982,
      "prev7_score": 14.638,
      "trend": "up",
      "trend_arrow": "🔺",
      "change_pct": 3165.4,
      "place": "Pest, Hungary"
    },
    {
      "lon": 20.25,
      "lat": 47.25,
      "type": "hotspot_cell",
      "score": 206.218,
      "count": 476,
      "cell_deg": 0.5,
      "sources": {
        "GDELT": 476,
        "GDELT_DOC": 0,
        "DIRECT_FEED": 0,
        "USGS": 0,
        "GDACS": 0
      },
      "last7_score": 185.585,
      "prev7_score": 20.632,
      "trend": "up",
      "trend_arrow": "🔺",
      "change_pct": 799.5,
      "place": "Jász-Nagykun-Szolnok, Hungary"
    },
    {
      "lon": 20.25,
      "lat": 52.25,
      "type": "hotspot_cell",
      "score": 130.97,
      "count": 421,
      "cell_deg": 0.5,
      "sources": {
        "GDELT": 421,
        "GDELT_DOC": 0,
        "DIRECT_FEED": 0,
        "USGS": 0,
        "GDACS": 0
      },
      "last7_score": 105.808,
      "prev7_score": 25.162,
      "trend": "up",
      "trend_arrow": "🔺",
      "change_pct": 320.5,
      "place": "Sochaczew County, Poland"
    },
    {
      "lon": 24.25,
      "lat": 56.75,
      "type": "hotspot_cell",
      "score": 95.269,
      "count": 160,
      "cell_deg": 0.5,
      "sources": {
        "GDELT": 27,
        "GDELT_DOC": 0,
        "DIRECT_FEED": 133,
        "USGS": 0,
        "GDACS": 0
      },
      "last7_score": 93.976,
      "prev7_score": 1.293,
      "trend": "up",
      "trend_arrow": "🔺",
      "change_pct": 7168.4,
      "place": "Ķekavas novads, Latvia"
    },
    {
      "lon": 25.25,
      "lat": 46.25,
      "type": "hotspot_cell",
      "score": 69.255,
      "count": 257,
      "cell_deg": 0.5,
      "sources": {
        "GDELT": 257,
        "GDELT_DOC": 0,
        "DIRECT_FEED": 0,
        "USGS": 0,
        "GDACS": 0
      },
      "last7_score": 54.657,
      "prev7_score": 14.598,
      "trend": "up",
      "trend_arrow": "🔺",
      "change_pct": 274.4,
      "place": "Harghita, Romania"
    },
    {
      "lon": 15.25,
      "lat": 49.75,
      "type": "hotspot_cell",
      "score": 47.97,
      "count": 131,
      "cell_deg": 0.5,
      "sources": {
        "GDELT": 131,
        "GDELT_DOC": 0,
        "DIRECT_FEED": 0,
        "USGS": 0,
        "GDACS": 0
      },
      "last7_score": 41.949,
      "prev7_score": 6.021,
      "trend": "up",
      "trend_arrow": "🔺",
      "change_pct": 596.7,
      "place": "Vysočina Region, Czechia"
    },
    {
      "lon": 24.25,
      "lat": 56.25,
      "type": "hotspot_cell",
      "score": 41.891,
      "count": 115,
      "cell_deg": 0.5,
      "sources": {
        "GDELT": 115,
        "GDELT_DOC": 0,
        "DIRECT_FEED": 0,
        "USGS": 0,
        "GDACS": 0
      },
      "last7_score": 37.311,
      "prev7_score": 4.581,
      "trend": "up",
      "trend_arrow": "🔺",
      "change_pct": 714.5,
      "place": "Namišių seniūnija, Lithuania"
    }
  ]
}