{
  "generated_utc": "2026-06-13T19:14:39Z",
  "top": [
    {
      "lon": 26.25,
      "lat": 44.25,
      "type": "hotspot_cell",
      "score": 604.458,
      "count": 948,
      "cell_deg": 0.5,
      "sources": {
        "GDELT": 177,
        "GDELT_DOC": 761,
        "DIRECT_FEED": 10,
        "USGS": 0,
        "GDACS": 0
      },
      "last7_score": 592.475,
      "prev7_score": 11.983,
      "trend": "up",
      "trend_arrow": "🔺",
      "change_pct": 4844.3,
      "place": "Giurgiu, Romania"
    },
    {
      "lon": 14.25,
      "lat": 50.25,
      "type": "hotspot_cell",
      "score": 481.576,
      "count": 806,
      "cell_deg": 0.5,
      "sources": {
        "GDELT": 101,
        "GDELT_DOC": 701,
        "DIRECT_FEED": 4,
        "USGS": 0,
        "GDACS": 0
      },
      "last7_score": 474.742,
      "prev7_score": 6.833,
      "trend": "up",
      "trend_arrow": "🔺",
      "change_pct": 6847.6,
      "place": "SO ORP Kralupy nad Vltavou, Czechia"
    },
    {
      "lon": 25.25,
      "lat": 54.75,
      "type": "hotspot_cell",
      "score": 413.824,
      "count": 722,
      "cell_deg": 0.5,
      "sources": {
        "GDELT": 75,
        "GDELT_DOC": 647,
        "DIRECT_FEED": 0,
        "USGS": 0,
        "GDACS": 0
      },
      "last7_score": 408.64,
      "prev7_score": 5.183,
      "trend": "up",
      "trend_arrow": "🔺",
      "change_pct": 7783.5,
      "place": "Vilnius County, Lithuania"
    },
    {
      "lon": 19.25,
      "lat": 47.75,
      "type": "hotspot_cell",
      "score": 188.289,
      "count": 381,
      "cell_deg": 0.5,
      "sources": {
        "GDELT": 215,
        "GDELT_DOC": 0,
        "DIRECT_FEED": 166,
        "USGS": 0,
        "GDACS": 0
      },
      "last7_score": 171.507,
      "prev7_score": 16.782,
      "trend": "up",
      "trend_arrow": "🔺",
      "change_pct": 921.9,
      "place": "Pest, Hungary"
    },
    {
      "lon": 20.25,
      "lat": 52.25,
      "type": "hotspot_cell",
      "score": 175.431,
      "count": 498,
      "cell_deg": 0.5,
      "sources": {
        "GDELT": 498,
        "GDELT_DOC": 0,
        "DIRECT_FEED": 0,
        "USGS": 0,
        "GDACS": 0
      },
      "last7_score": 142.461,
      "prev7_score": 32.97,
      "trend": "up",
      "trend_arrow": "🔺",
      "change_pct": 332.1,
      "place": "Sochaczew County, Poland"
    },
    {
      "lon": 25.25,
      "lat": 46.25,
      "type": "hotspot_cell",
      "score": 147.711,
      "count": 434,
      "cell_deg": 0.5,
      "sources": {
        "GDELT": 434,
        "GDELT_DOC": 0,
        "DIRECT_FEED": 0,
        "USGS": 0,
        "GDACS": 0
      },
      "last7_score": 116.108,
      "prev7_score": 31.603,
      "trend": "up",
      "trend_arrow": "🔺",
      "change_pct": 267.4,
      "place": "Harghita, Romania"
    },
    {
      "lon": 24.25,
      "lat": 56.75,
      "type": "hotspot_cell",
      "score": 106.364,
      "count": 172,
      "cell_deg": 0.5,
      "sources": {
        "GDELT": 46,
        "GDELT_DOC": 0,
        "DIRECT_FEED": 126,
        "USGS": 0,
        "GDACS": 0
      },
      "last7_score": 102.575,
      "prev7_score": 3.789,
      "trend": "up",
      "trend_arrow": "🔺",
      "change_pct": 2607.4,
      "place": "Ķekavas novads, Latvia"
    },
    {
      "lon": 20.25,
      "lat": 47.25,
      "type": "hotspot_cell",
      "score": 98.775,
      "count": 266,
      "cell_deg": 0.5,
      "sources": {
        "GDELT": 266,
        "GDELT_DOC": 0,
        "DIRECT_FEED": 0,
        "USGS": 0,
        "GDACS": 0
      },
      "last7_score": 82.602,
      "prev7_score": 16.173,
      "trend": "up",
      "trend_arrow": "🔺",
      "change_pct": 410.7,
      "place": "Jász-Nagykun-Szolnok, Hungary"
    },
    {
      "lon": 27.75,
      "lat": 47.25,
      "type": "hotspot_cell",
      "score": 69.895,
      "count": 82,
      "cell_deg": 0.5,
      "sources": {
        "GDELT": 0,
        "GDELT_DOC": 82,
        "DIRECT_FEED": 0,
        "USGS": 0,
        "GDACS": 0
      },
      "last7_score": 69.895,
      "prev7_score": 0.0,
      "trend": "new",
      "trend_arrow": "🆕",
      "change_pct": null,
      "place": "Iași, Romania"
    },
    {
      "lon": 21.25,
      "lat": 52.25,
      "type": "hotspot_cell",
      "score": 59.111,
      "count": 184,
      "cell_deg": 0.5,
      "sources": {
        "GDELT": 184,
        "GDELT_DOC": 0,
        "DIRECT_FEED": 0,
        "USGS": 0,
        "GDACS": 0
      },
      "last7_score": 46.649,
      "prev7_score": 12.462,
      "trend": "up",
      "trend_arrow": "🔺",
      "change_pct": 274.3,
      "place": "Warsaw, Poland"
    }
  ]
}