{
  "generated_utc": "2026-04-21T08:00:24Z",
  "top": [
    {
      "lon": 14.25,
      "lat": 50.25,
      "type": "hotspot_cell",
      "score": 757.738,
      "count": 1362,
      "cell_deg": 0.5,
      "sources": {
        "GDELT": 137,
        "GDELT_DOC": 1222,
        "DIRECT_FEED": 3,
        "USGS": 0,
        "GDACS": 0
      },
      "last7_score": 752.109,
      "prev7_score": 5.629,
      "trend": "up",
      "trend_arrow": "🔺",
      "change_pct": 13262.5,
      "place": "SO ORP Kralupy nad Vltavou, Czechia"
    },
    {
      "lon": 26.25,
      "lat": 44.25,
      "type": "hotspot_cell",
      "score": 714.596,
      "count": 1233,
      "cell_deg": 0.5,
      "sources": {
        "GDELT": 97,
        "GDELT_DOC": 1132,
        "DIRECT_FEED": 4,
        "USGS": 0,
        "GDACS": 0
      },
      "last7_score": 710.037,
      "prev7_score": 4.559,
      "trend": "up",
      "trend_arrow": "🔺",
      "change_pct": 15475.1,
      "place": "Giurgiu, Romania"
    },
    {
      "lon": 25.25,
      "lat": 54.75,
      "type": "hotspot_cell",
      "score": 572.62,
      "count": 910,
      "cell_deg": 0.5,
      "sources": {
        "GDELT": 74,
        "GDELT_DOC": 836,
        "DIRECT_FEED": 0,
        "USGS": 0,
        "GDACS": 0
      },
      "last7_score": 566.541,
      "prev7_score": 6.08,
      "trend": "up",
      "trend_arrow": "🔺",
      "change_pct": 9218.7,
      "place": "Vilnius County, Lithuania"
    },
    {
      "lon": 19.25,
      "lat": 47.75,
      "type": "hotspot_cell",
      "score": 463.011,
      "count": 1376,
      "cell_deg": 0.5,
      "sources": {
        "GDELT": 1089,
        "GDELT_DOC": 0,
        "DIRECT_FEED": 287,
        "USGS": 0,
        "GDACS": 0
      },
      "last7_score": 333.558,
      "prev7_score": 129.453,
      "trend": "up",
      "trend_arrow": "🔺",
      "change_pct": 157.7,
      "place": "Pest, Hungary"
    },
    {
      "lon": 20.25,
      "lat": 47.25,
      "type": "hotspot_cell",
      "score": 258.934,
      "count": 808,
      "cell_deg": 0.5,
      "sources": {
        "GDELT": 808,
        "GDELT_DOC": 0,
        "DIRECT_FEED": 0,
        "USGS": 0,
        "GDACS": 0
      },
      "last7_score": 179.166,
      "prev7_score": 79.769,
      "trend": "up",
      "trend_arrow": "🔺",
      "change_pct": 124.6,
      "place": "Jász-Nagykun-Szolnok, Hungary"
    },
    {
      "lon": 20.25,
      "lat": 52.25,
      "type": "hotspot_cell",
      "score": 149.644,
      "count": 410,
      "cell_deg": 0.5,
      "sources": {
        "GDELT": 410,
        "GDELT_DOC": 0,
        "DIRECT_FEED": 0,
        "USGS": 0,
        "GDACS": 0
      },
      "last7_score": 118.205,
      "prev7_score": 31.439,
      "trend": "up",
      "trend_arrow": "🔺",
      "change_pct": 276.0,
      "place": "Sochaczew County, Poland"
    },
    {
      "lon": 24.25,
      "lat": 56.75,
      "type": "hotspot_cell",
      "score": 99.136,
      "count": 161,
      "cell_deg": 0.5,
      "sources": {
        "GDELT": 34,
        "GDELT_DOC": 0,
        "DIRECT_FEED": 127,
        "USGS": 0,
        "GDACS": 0
      },
      "last7_score": 95.905,
      "prev7_score": 3.231,
      "trend": "up",
      "trend_arrow": "🔺",
      "change_pct": 2867.9,
      "place": "Ķekavas novads, Latvia"
    },
    {
      "lon": 25.25,
      "lat": 46.25,
      "type": "hotspot_cell",
      "score": 84.3,
      "count": 232,
      "cell_deg": 0.5,
      "sources": {
        "GDELT": 232,
        "GDELT_DOC": 0,
        "DIRECT_FEED": 0,
        "USGS": 0,
        "GDACS": 0
      },
      "last7_score": 68.076,
      "prev7_score": 16.224,
      "trend": "up",
      "trend_arrow": "🔺",
      "change_pct": 319.6,
      "place": "Harghita, Romania"
    },
    {
      "lon": 15.25,
      "lat": 49.75,
      "type": "hotspot_cell",
      "score": 79.03,
      "count": 189,
      "cell_deg": 0.5,
      "sources": {
        "GDELT": 189,
        "GDELT_DOC": 0,
        "DIRECT_FEED": 0,
        "USGS": 0,
        "GDACS": 0
      },
      "last7_score": 65.839,
      "prev7_score": 13.191,
      "trend": "up",
      "trend_arrow": "🔺",
      "change_pct": 399.1,
      "place": "Vysočina Region, Czechia"
    },
    {
      "lon": 21.25,
      "lat": 52.25,
      "type": "hotspot_cell",
      "score": 60.901,
      "count": 175,
      "cell_deg": 0.5,
      "sources": {
        "GDELT": 175,
        "GDELT_DOC": 0,
        "DIRECT_FEED": 0,
        "USGS": 0,
        "GDACS": 0
      },
      "last7_score": 46.973,
      "prev7_score": 13.928,
      "trend": "up",
      "trend_arrow": "🔺",
      "change_pct": 237.3,
      "place": "Warsaw, Poland"
    }
  ]
}