{
  "generated_utc": "2026-07-14T13:21:28Z",
  "top": [
    {
      "lon": 14.25,
      "lat": 50.25,
      "type": "hotspot_cell",
      "score": 764.65,
      "count": 1345,
      "cell_deg": 0.5,
      "sources": {
        "GDELT": 91,
        "GDELT_DOC": 1248,
        "DIRECT_FEED": 6,
        "USGS": 0,
        "GDACS": 0
      },
      "last7_score": 757.927,
      "prev7_score": 6.722,
      "trend": "up",
      "trend_arrow": "🔺",
      "change_pct": 11174.5,
      "place": "SO ORP Kralupy nad Vltavou, Czechia"
    },
    {
      "lon": 26.25,
      "lat": 44.25,
      "type": "hotspot_cell",
      "score": 538.268,
      "count": 894,
      "cell_deg": 0.5,
      "sources": {
        "GDELT": 111,
        "GDELT_DOC": 780,
        "DIRECT_FEED": 3,
        "USGS": 0,
        "GDACS": 0
      },
      "last7_score": 531.447,
      "prev7_score": 6.821,
      "trend": "up",
      "trend_arrow": "🔺",
      "change_pct": 7691.6,
      "place": "Giurgiu, Romania"
    },
    {
      "lon": 25.25,
      "lat": 54.75,
      "type": "hotspot_cell",
      "score": 450.669,
      "count": 888,
      "cell_deg": 0.5,
      "sources": {
        "GDELT": 73,
        "GDELT_DOC": 814,
        "DIRECT_FEED": 1,
        "USGS": 0,
        "GDACS": 0
      },
      "last7_score": 444.961,
      "prev7_score": 5.708,
      "trend": "up",
      "trend_arrow": "🔺",
      "change_pct": 7695.4,
      "place": "Vilnius County, Lithuania"
    },
    {
      "lon": 19.25,
      "lat": 47.75,
      "type": "hotspot_cell",
      "score": 182.958,
      "count": 335,
      "cell_deg": 0.5,
      "sources": {
        "GDELT": 152,
        "GDELT_DOC": 0,
        "DIRECT_FEED": 183,
        "USGS": 0,
        "GDACS": 0
      },
      "last7_score": 174.6,
      "prev7_score": 8.359,
      "trend": "up",
      "trend_arrow": "🔺",
      "change_pct": 1988.8,
      "place": "Pest, Hungary"
    },
    {
      "lon": 20.25,
      "lat": 52.25,
      "type": "hotspot_cell",
      "score": 170.13,
      "count": 493,
      "cell_deg": 0.5,
      "sources": {
        "GDELT": 493,
        "GDELT_DOC": 0,
        "DIRECT_FEED": 0,
        "USGS": 0,
        "GDACS": 0
      },
      "last7_score": 132.138,
      "prev7_score": 37.992,
      "trend": "up",
      "trend_arrow": "🔺",
      "change_pct": 247.8,
      "place": "Sochaczew County, Poland"
    },
    {
      "lon": 25.25,
      "lat": 46.25,
      "type": "hotspot_cell",
      "score": 142.297,
      "count": 366,
      "cell_deg": 0.5,
      "sources": {
        "GDELT": 366,
        "GDELT_DOC": 0,
        "DIRECT_FEED": 0,
        "USGS": 0,
        "GDACS": 0
      },
      "last7_score": 117.258,
      "prev7_score": 25.04,
      "trend": "up",
      "trend_arrow": "🔺",
      "change_pct": 368.3,
      "place": "Harghita, Romania"
    },
    {
      "lon": 24.25,
      "lat": 56.75,
      "type": "hotspot_cell",
      "score": 105.589,
      "count": 153,
      "cell_deg": 0.5,
      "sources": {
        "GDELT": 19,
        "GDELT_DOC": 0,
        "DIRECT_FEED": 134,
        "USGS": 0,
        "GDACS": 0
      },
      "last7_score": 103.757,
      "prev7_score": 1.832,
      "trend": "up",
      "trend_arrow": "🔺",
      "change_pct": 5562.6,
      "place": "Ķekavas novads, Latvia"
    },
    {
      "lon": 21.25,
      "lat": 52.25,
      "type": "hotspot_cell",
      "score": 84.434,
      "count": 246,
      "cell_deg": 0.5,
      "sources": {
        "GDELT": 246,
        "GDELT_DOC": 0,
        "DIRECT_FEED": 0,
        "USGS": 0,
        "GDACS": 0
      },
      "last7_score": 66.463,
      "prev7_score": 17.971,
      "trend": "up",
      "trend_arrow": "🔺",
      "change_pct": 269.8,
      "place": "Warsaw, Poland"
    },
    {
      "lon": 20.25,
      "lat": 47.25,
      "type": "hotspot_cell",
      "score": 77.082,
      "count": 187,
      "cell_deg": 0.5,
      "sources": {
        "GDELT": 187,
        "GDELT_DOC": 0,
        "DIRECT_FEED": 0,
        "USGS": 0,
        "GDACS": 0
      },
      "last7_score": 64.339,
      "prev7_score": 12.743,
      "trend": "up",
      "trend_arrow": "🔺",
      "change_pct": 404.9,
      "place": "Jász-Nagykun-Szolnok, Hungary"
    },
    {
      "lon": 15.25,
      "lat": 49.75,
      "type": "hotspot_cell",
      "score": 58.685,
      "count": 162,
      "cell_deg": 0.5,
      "sources": {
        "GDELT": 162,
        "GDELT_DOC": 0,
        "DIRECT_FEED": 0,
        "USGS": 0,
        "GDACS": 0
      },
      "last7_score": 46.852,
      "prev7_score": 11.833,
      "trend": "up",
      "trend_arrow": "🔺",
      "change_pct": 295.9,
      "place": "Vysočina Region, Czechia"
    }
  ]
}