{
  "generated_utc": "2026-06-15T17:08:29Z",
  "top": [
    {
      "lon": 26.25,
      "lat": 44.25,
      "type": "hotspot_cell",
      "score": 531.423,
      "count": 936,
      "cell_deg": 0.5,
      "sources": {
        "GDELT": 179,
        "GDELT_DOC": 745,
        "DIRECT_FEED": 12,
        "USGS": 0,
        "GDACS": 0
      },
      "last7_score": 519.782,
      "prev7_score": 11.64,
      "trend": "up",
      "trend_arrow": "🔺",
      "change_pct": 4365.4,
      "place": "Giurgiu, Romania"
    },
    {
      "lon": 14.25,
      "lat": 50.25,
      "type": "hotspot_cell",
      "score": 447.024,
      "count": 847,
      "cell_deg": 0.5,
      "sources": {
        "GDELT": 96,
        "GDELT_DOC": 745,
        "DIRECT_FEED": 6,
        "USGS": 0,
        "GDACS": 0
      },
      "last7_score": 441.988,
      "prev7_score": 5.036,
      "trend": "up",
      "trend_arrow": "🔺",
      "change_pct": 8675.7,
      "place": "SO ORP Kralupy nad Vltavou, Czechia"
    },
    {
      "lon": 25.25,
      "lat": 54.75,
      "type": "hotspot_cell",
      "score": 392.846,
      "count": 644,
      "cell_deg": 0.5,
      "sources": {
        "GDELT": 61,
        "GDELT_DOC": 583,
        "DIRECT_FEED": 0,
        "USGS": 0,
        "GDACS": 0
      },
      "last7_score": 388.86,
      "prev7_score": 3.985,
      "trend": "up",
      "trend_arrow": "🔺",
      "change_pct": 9657.1,
      "place": "Vilnius County, Lithuania"
    },
    {
      "lon": 19.25,
      "lat": 47.75,
      "type": "hotspot_cell",
      "score": 171.398,
      "count": 367,
      "cell_deg": 0.5,
      "sources": {
        "GDELT": 197,
        "GDELT_DOC": 0,
        "DIRECT_FEED": 170,
        "USGS": 0,
        "GDACS": 0
      },
      "last7_score": 158.266,
      "prev7_score": 13.132,
      "trend": "up",
      "trend_arrow": "🔺",
      "change_pct": 1105.2,
      "place": "Pest, Hungary"
    },
    {
      "lon": 25.25,
      "lat": 46.25,
      "type": "hotspot_cell",
      "score": 147.282,
      "count": 442,
      "cell_deg": 0.5,
      "sources": {
        "GDELT": 442,
        "GDELT_DOC": 0,
        "DIRECT_FEED": 0,
        "USGS": 0,
        "GDACS": 0
      },
      "last7_score": 116.197,
      "prev7_score": 31.085,
      "trend": "up",
      "trend_arrow": "🔺",
      "change_pct": 273.8,
      "place": "Harghita, Romania"
    },
    {
      "lon": 20.25,
      "lat": 52.25,
      "type": "hotspot_cell",
      "score": 147.266,
      "count": 457,
      "cell_deg": 0.5,
      "sources": {
        "GDELT": 457,
        "GDELT_DOC": 0,
        "DIRECT_FEED": 0,
        "USGS": 0,
        "GDACS": 0
      },
      "last7_score": 119.504,
      "prev7_score": 27.763,
      "trend": "up",
      "trend_arrow": "🔺",
      "change_pct": 330.4,
      "place": "Sochaczew County, Poland"
    },
    {
      "lon": 24.25,
      "lat": 56.75,
      "type": "hotspot_cell",
      "score": 113.158,
      "count": 179,
      "cell_deg": 0.5,
      "sources": {
        "GDELT": 44,
        "GDELT_DOC": 0,
        "DIRECT_FEED": 135,
        "USGS": 0,
        "GDACS": 0
      },
      "last7_score": 110.329,
      "prev7_score": 2.829,
      "trend": "up",
      "trend_arrow": "🔺",
      "change_pct": 3800.5,
      "place": "Ķekavas novads, Latvia"
    },
    {
      "lon": 17.25,
      "lat": 48.25,
      "type": "hotspot_cell",
      "score": 83.423,
      "count": 105,
      "cell_deg": 0.5,
      "sources": {
        "GDELT": 105,
        "GDELT_DOC": 0,
        "DIRECT_FEED": 0,
        "USGS": 0,
        "GDACS": 0
      },
      "last7_score": 82.528,
      "prev7_score": 0.895,
      "trend": "up",
      "trend_arrow": "🔺",
      "change_pct": 9119.0,
      "place": "District of Pezinok, Slovakia"
    },
    {
      "lon": 20.25,
      "lat": 47.25,
      "type": "hotspot_cell",
      "score": 79.324,
      "count": 245,
      "cell_deg": 0.5,
      "sources": {
        "GDELT": 245,
        "GDELT_DOC": 0,
        "DIRECT_FEED": 0,
        "USGS": 0,
        "GDACS": 0
      },
      "last7_score": 64.231,
      "prev7_score": 15.092,
      "trend": "up",
      "trend_arrow": "🔺",
      "change_pct": 325.6,
      "place": "Jász-Nagykun-Szolnok, Hungary"
    },
    {
      "lon": 27.75,
      "lat": 47.25,
      "type": "hotspot_cell",
      "score": 55.5,
      "count": 83,
      "cell_deg": 0.5,
      "sources": {
        "GDELT": 0,
        "GDELT_DOC": 83,
        "DIRECT_FEED": 0,
        "USGS": 0,
        "GDACS": 0
      },
      "last7_score": 55.5,
      "prev7_score": 0.0,
      "trend": "new",
      "trend_arrow": "🆕",
      "change_pct": null,
      "place": "Iași, Romania"
    }
  ]
}