{
  "generated_utc": "2026-07-23T08:22:07Z",
  "top": [
    {
      "lon": 26.25,
      "lat": 44.25,
      "type": "hotspot_cell",
      "score": 777.13,
      "count": 1176,
      "cell_deg": 0.5,
      "sources": {
        "GDELT": 129,
        "GDELT_DOC": 1043,
        "DIRECT_FEED": 4,
        "USGS": 0,
        "GDACS": 0
      },
      "last7_score": 770.329,
      "prev7_score": 6.802,
      "trend": "up",
      "trend_arrow": "🔺",
      "change_pct": 11225.3,
      "place": "Giurgiu, Romania"
    },
    {
      "lon": 14.25,
      "lat": 50.25,
      "type": "hotspot_cell",
      "score": 606.598,
      "count": 995,
      "cell_deg": 0.5,
      "sources": {
        "GDELT": 99,
        "GDELT_DOC": 895,
        "DIRECT_FEED": 1,
        "USGS": 0,
        "GDACS": 0
      },
      "last7_score": 596.931,
      "prev7_score": 9.667,
      "trend": "up",
      "trend_arrow": "🔺",
      "change_pct": 6074.7,
      "place": "SO ORP Kralupy nad Vltavou, Czechia"
    },
    {
      "lon": 25.25,
      "lat": 54.75,
      "type": "hotspot_cell",
      "score": 420.574,
      "count": 732,
      "cell_deg": 0.5,
      "sources": {
        "GDELT": 68,
        "GDELT_DOC": 664,
        "DIRECT_FEED": 0,
        "USGS": 0,
        "GDACS": 0
      },
      "last7_score": 413.915,
      "prev7_score": 6.658,
      "trend": "up",
      "trend_arrow": "🔺",
      "change_pct": 6116.4,
      "place": "Vilnius County, Lithuania"
    },
    {
      "lon": 19.25,
      "lat": 47.75,
      "type": "hotspot_cell",
      "score": 192.628,
      "count": 351,
      "cell_deg": 0.5,
      "sources": {
        "GDELT": 177,
        "GDELT_DOC": 0,
        "DIRECT_FEED": 174,
        "USGS": 0,
        "GDACS": 0
      },
      "last7_score": 179.078,
      "prev7_score": 13.55,
      "trend": "up",
      "trend_arrow": "🔺",
      "change_pct": 1221.6,
      "place": "Pest, Hungary"
    },
    {
      "lon": 25.25,
      "lat": 46.25,
      "type": "hotspot_cell",
      "score": 171.557,
      "count": 435,
      "cell_deg": 0.5,
      "sources": {
        "GDELT": 435,
        "GDELT_DOC": 0,
        "DIRECT_FEED": 0,
        "USGS": 0,
        "GDACS": 0
      },
      "last7_score": 141.066,
      "prev7_score": 30.491,
      "trend": "up",
      "trend_arrow": "🔺",
      "change_pct": 362.6,
      "place": "Harghita, Romania"
    },
    {
      "lon": 20.25,
      "lat": 52.25,
      "type": "hotspot_cell",
      "score": 152.146,
      "count": 406,
      "cell_deg": 0.5,
      "sources": {
        "GDELT": 406,
        "GDELT_DOC": 0,
        "DIRECT_FEED": 0,
        "USGS": 0,
        "GDACS": 0
      },
      "last7_score": 119.054,
      "prev7_score": 33.092,
      "trend": "up",
      "trend_arrow": "🔺",
      "change_pct": 259.8,
      "place": "Sochaczew County, Poland"
    },
    {
      "lon": 24.25,
      "lat": 56.75,
      "type": "hotspot_cell",
      "score": 108.259,
      "count": 153,
      "cell_deg": 0.5,
      "sources": {
        "GDELT": 21,
        "GDELT_DOC": 0,
        "DIRECT_FEED": 132,
        "USGS": 0,
        "GDACS": 0
      },
      "last7_score": 106.956,
      "prev7_score": 1.304,
      "trend": "up",
      "trend_arrow": "🔺",
      "change_pct": 8104.8,
      "place": "Ķekavas novads, Latvia"
    },
    {
      "lon": 20.25,
      "lat": 47.25,
      "type": "hotspot_cell",
      "score": 59.791,
      "count": 179,
      "cell_deg": 0.5,
      "sources": {
        "GDELT": 179,
        "GDELT_DOC": 0,
        "DIRECT_FEED": 0,
        "USGS": 0,
        "GDACS": 0
      },
      "last7_score": 44.221,
      "prev7_score": 15.569,
      "trend": "up",
      "trend_arrow": "🔺",
      "change_pct": 184.0,
      "place": "Jász-Nagykun-Szolnok, Hungary"
    },
    {
      "lon": 21.25,
      "lat": 52.25,
      "type": "hotspot_cell",
      "score": 59.719,
      "count": 190,
      "cell_deg": 0.5,
      "sources": {
        "GDELT": 190,
        "GDELT_DOC": 0,
        "DIRECT_FEED": 0,
        "USGS": 0,
        "GDACS": 0
      },
      "last7_score": 41.077,
      "prev7_score": 18.642,
      "trend": "up",
      "trend_arrow": "🔺",
      "change_pct": 120.4,
      "place": "Warsaw, Poland"
    },
    {
      "lon": 27.75,
      "lat": 47.25,
      "type": "hotspot_cell",
      "score": 49.362,
      "count": 74,
      "cell_deg": 0.5,
      "sources": {
        "GDELT": 0,
        "GDELT_DOC": 74,
        "DIRECT_FEED": 0,
        "USGS": 0,
        "GDACS": 0
      },
      "last7_score": 49.362,
      "prev7_score": 0.0,
      "trend": "new",
      "trend_arrow": "🆕",
      "change_pct": null,
      "place": "Iași, Romania"
    }
  ]
}