{
  "generated_utc": "2026-07-01T14:19:35Z",
  "top": [
    {
      "lon": 26.25,
      "lat": 44.25,
      "type": "hotspot_cell",
      "score": 457.502,
      "count": 871,
      "cell_deg": 0.5,
      "sources": {
        "GDELT": 139,
        "GDELT_DOC": 726,
        "DIRECT_FEED": 6,
        "USGS": 0,
        "GDACS": 0
      },
      "last7_score": 449.426,
      "prev7_score": 8.076,
      "trend": "up",
      "trend_arrow": "🔺",
      "change_pct": 5464.9,
      "place": "Giurgiu, Romania"
    },
    {
      "lon": 14.25,
      "lat": 50.25,
      "type": "hotspot_cell",
      "score": 434.429,
      "count": 875,
      "cell_deg": 0.5,
      "sources": {
        "GDELT": 132,
        "GDELT_DOC": 737,
        "DIRECT_FEED": 6,
        "USGS": 0,
        "GDACS": 0
      },
      "last7_score": 424.629,
      "prev7_score": 9.799,
      "trend": "up",
      "trend_arrow": "🔺",
      "change_pct": 4233.3,
      "place": "SO ORP Kralupy nad Vltavou, Czechia"
    },
    {
      "lon": 25.25,
      "lat": 54.75,
      "type": "hotspot_cell",
      "score": 358.449,
      "count": 590,
      "cell_deg": 0.5,
      "sources": {
        "GDELT": 59,
        "GDELT_DOC": 531,
        "DIRECT_FEED": 0,
        "USGS": 0,
        "GDACS": 0
      },
      "last7_score": 354.069,
      "prev7_score": 4.38,
      "trend": "up",
      "trend_arrow": "🔺",
      "change_pct": 7983.6,
      "place": "Vilnius County, Lithuania"
    },
    {
      "lon": 20.25,
      "lat": 52.25,
      "type": "hotspot_cell",
      "score": 206.156,
      "count": 533,
      "cell_deg": 0.5,
      "sources": {
        "GDELT": 533,
        "GDELT_DOC": 0,
        "DIRECT_FEED": 0,
        "USGS": 0,
        "GDACS": 0
      },
      "last7_score": 172.06,
      "prev7_score": 34.096,
      "trend": "up",
      "trend_arrow": "🔺",
      "change_pct": 404.6,
      "place": "Sochaczew County, Poland"
    },
    {
      "lon": 19.25,
      "lat": 47.75,
      "type": "hotspot_cell",
      "score": 190.437,
      "count": 355,
      "cell_deg": 0.5,
      "sources": {
        "GDELT": 191,
        "GDELT_DOC": 0,
        "DIRECT_FEED": 164,
        "USGS": 0,
        "GDACS": 0
      },
      "last7_score": 176.204,
      "prev7_score": 14.234,
      "trend": "up",
      "trend_arrow": "🔺",
      "change_pct": 1137.9,
      "place": "Pest, Hungary"
    },
    {
      "lon": 25.25,
      "lat": 46.25,
      "type": "hotspot_cell",
      "score": 124.371,
      "count": 357,
      "cell_deg": 0.5,
      "sources": {
        "GDELT": 357,
        "GDELT_DOC": 0,
        "DIRECT_FEED": 0,
        "USGS": 0,
        "GDACS": 0
      },
      "last7_score": 98.981,
      "prev7_score": 25.39,
      "trend": "up",
      "trend_arrow": "🔺",
      "change_pct": 289.8,
      "place": "Harghita, Romania"
    },
    {
      "lon": 24.25,
      "lat": 56.75,
      "type": "hotspot_cell",
      "score": 121.508,
      "count": 182,
      "cell_deg": 0.5,
      "sources": {
        "GDELT": 30,
        "GDELT_DOC": 0,
        "DIRECT_FEED": 152,
        "USGS": 0,
        "GDACS": 0
      },
      "last7_score": 119.22,
      "prev7_score": 2.288,
      "trend": "up",
      "trend_arrow": "🔺",
      "change_pct": 5111.8,
      "place": "Ķekavas novads, Latvia"
    },
    {
      "lon": 21.25,
      "lat": 52.25,
      "type": "hotspot_cell",
      "score": 105.252,
      "count": 343,
      "cell_deg": 0.5,
      "sources": {
        "GDELT": 343,
        "GDELT_DOC": 0,
        "DIRECT_FEED": 0,
        "USGS": 0,
        "GDACS": 0
      },
      "last7_score": 78.855,
      "prev7_score": 26.397,
      "trend": "up",
      "trend_arrow": "🔺",
      "change_pct": 198.7,
      "place": "Warsaw, Poland"
    },
    {
      "lon": 15.25,
      "lat": 49.75,
      "type": "hotspot_cell",
      "score": 64.895,
      "count": 162,
      "cell_deg": 0.5,
      "sources": {
        "GDELT": 162,
        "GDELT_DOC": 0,
        "DIRECT_FEED": 0,
        "USGS": 0,
        "GDACS": 0
      },
      "last7_score": 54.759,
      "prev7_score": 10.136,
      "trend": "up",
      "trend_arrow": "🔺",
      "change_pct": 440.3,
      "place": "Vysočina Region, Czechia"
    },
    {
      "lon": 20.25,
      "lat": 47.25,
      "type": "hotspot_cell",
      "score": 60.948,
      "count": 194,
      "cell_deg": 0.5,
      "sources": {
        "GDELT": 194,
        "GDELT_DOC": 0,
        "DIRECT_FEED": 0,
        "USGS": 0,
        "GDACS": 0
      },
      "last7_score": 44.486,
      "prev7_score": 16.462,
      "trend": "up",
      "trend_arrow": "🔺",
      "change_pct": 170.2,
      "place": "Jász-Nagykun-Szolnok, Hungary"
    }
  ]
}