{
  "generated_utc": "2026-07-13T19:23:05Z",
  "top": [
    {
      "lon": 14.25,
      "lat": 50.25,
      "type": "hotspot_cell",
      "score": 690.085,
      "count": 1346,
      "cell_deg": 0.5,
      "sources": {
        "GDELT": 102,
        "GDELT_DOC": 1237,
        "DIRECT_FEED": 7,
        "USGS": 0,
        "GDACS": 0
      },
      "last7_score": 683.233,
      "prev7_score": 6.853,
      "trend": "up",
      "trend_arrow": "🔺",
      "change_pct": 9870.3,
      "place": "SO ORP Kralupy nad Vltavou, Czechia"
    },
    {
      "lon": 26.25,
      "lat": 44.25,
      "type": "hotspot_cell",
      "score": 450.497,
      "count": 797,
      "cell_deg": 0.5,
      "sources": {
        "GDELT": 117,
        "GDELT_DOC": 676,
        "DIRECT_FEED": 4,
        "USGS": 0,
        "GDACS": 0
      },
      "last7_score": 444.299,
      "prev7_score": 6.198,
      "trend": "up",
      "trend_arrow": "🔺",
      "change_pct": 7068.5,
      "place": "Giurgiu, Romania"
    },
    {
      "lon": 25.25,
      "lat": 54.75,
      "type": "hotspot_cell",
      "score": 445.483,
      "count": 831,
      "cell_deg": 0.5,
      "sources": {
        "GDELT": 82,
        "GDELT_DOC": 748,
        "DIRECT_FEED": 1,
        "USGS": 0,
        "GDACS": 0
      },
      "last7_score": 441.494,
      "prev7_score": 3.989,
      "trend": "up",
      "trend_arrow": "🔺",
      "change_pct": 10967.0,
      "place": "Vilnius County, Lithuania"
    },
    {
      "lon": 19.25,
      "lat": 47.75,
      "type": "hotspot_cell",
      "score": 176.362,
      "count": 328,
      "cell_deg": 0.5,
      "sources": {
        "GDELT": 155,
        "GDELT_DOC": 0,
        "DIRECT_FEED": 173,
        "USGS": 0,
        "GDACS": 0
      },
      "last7_score": 169.579,
      "prev7_score": 6.784,
      "trend": "up",
      "trend_arrow": "🔺",
      "change_pct": 2399.9,
      "place": "Pest, Hungary"
    },
    {
      "lon": 20.25,
      "lat": 52.25,
      "type": "hotspot_cell",
      "score": 163.074,
      "count": 512,
      "cell_deg": 0.5,
      "sources": {
        "GDELT": 512,
        "GDELT_DOC": 0,
        "DIRECT_FEED": 0,
        "USGS": 0,
        "GDACS": 0
      },
      "last7_score": 132.003,
      "prev7_score": 31.072,
      "trend": "up",
      "trend_arrow": "🔺",
      "change_pct": 324.8,
      "place": "Sochaczew County, Poland"
    },
    {
      "lon": 25.25,
      "lat": 46.25,
      "type": "hotspot_cell",
      "score": 129.842,
      "count": 360,
      "cell_deg": 0.5,
      "sources": {
        "GDELT": 360,
        "GDELT_DOC": 0,
        "DIRECT_FEED": 0,
        "USGS": 0,
        "GDACS": 0
      },
      "last7_score": 108.677,
      "prev7_score": 21.165,
      "trend": "up",
      "trend_arrow": "🔺",
      "change_pct": 413.5,
      "place": "Harghita, Romania"
    },
    {
      "lon": 24.25,
      "lat": 56.75,
      "type": "hotspot_cell",
      "score": 102.365,
      "count": 157,
      "cell_deg": 0.5,
      "sources": {
        "GDELT": 21,
        "GDELT_DOC": 0,
        "DIRECT_FEED": 136,
        "USGS": 0,
        "GDACS": 0
      },
      "last7_score": 100.628,
      "prev7_score": 1.737,
      "trend": "up",
      "trend_arrow": "🔺",
      "change_pct": 5693.1,
      "place": "Ķekavas novads, Latvia"
    },
    {
      "lon": 21.25,
      "lat": 52.25,
      "type": "hotspot_cell",
      "score": 74.324,
      "count": 243,
      "cell_deg": 0.5,
      "sources": {
        "GDELT": 243,
        "GDELT_DOC": 0,
        "DIRECT_FEED": 0,
        "USGS": 0,
        "GDACS": 0
      },
      "last7_score": 58.07,
      "prev7_score": 16.254,
      "trend": "up",
      "trend_arrow": "🔺",
      "change_pct": 257.3,
      "place": "Warsaw, Poland"
    },
    {
      "lon": 20.25,
      "lat": 47.25,
      "type": "hotspot_cell",
      "score": 64.558,
      "count": 180,
      "cell_deg": 0.5,
      "sources": {
        "GDELT": 180,
        "GDELT_DOC": 0,
        "DIRECT_FEED": 0,
        "USGS": 0,
        "GDACS": 0
      },
      "last7_score": 54.581,
      "prev7_score": 9.977,
      "trend": "up",
      "trend_arrow": "🔺",
      "change_pct": 447.1,
      "place": "Jász-Nagykun-Szolnok, Hungary"
    },
    {
      "lon": 26.25,
      "lat": 59.25,
      "type": "hotspot_cell",
      "score": 64.198,
      "count": 172,
      "cell_deg": 0.5,
      "sources": {
        "GDELT": 172,
        "GDELT_DOC": 0,
        "DIRECT_FEED": 0,
        "USGS": 0,
        "GDACS": 0
      },
      "last7_score": 54.29,
      "prev7_score": 9.908,
      "trend": "up",
      "trend_arrow": "🔺",
      "change_pct": 447.9,
      "place": "Lääne-Viru County, Estonia"
    }
  ]
}