{
  "generated_utc": "2026-05-18T19:51:41Z",
  "top": [
    {
      "lon": 26.25,
      "lat": 44.25,
      "type": "hotspot_cell",
      "score": 850.08,
      "count": 1420,
      "cell_deg": 0.5,
      "sources": {
        "GDELT": 230,
        "GDELT_DOC": 1186,
        "DIRECT_FEED": 4,
        "USGS": 0,
        "GDACS": 0
      },
      "last7_score": 839.557,
      "prev7_score": 10.523,
      "trend": "up",
      "trend_arrow": "🔺",
      "change_pct": 7878.6,
      "place": "Giurgiu, Romania"
    },
    {
      "lon": 14.25,
      "lat": 50.25,
      "type": "hotspot_cell",
      "score": 838.633,
      "count": 1531,
      "cell_deg": 0.5,
      "sources": {
        "GDELT": 117,
        "GDELT_DOC": 1409,
        "DIRECT_FEED": 5,
        "USGS": 0,
        "GDACS": 0
      },
      "last7_score": 831.951,
      "prev7_score": 6.682,
      "trend": "up",
      "trend_arrow": "🔺",
      "change_pct": 12350.8,
      "place": "SO ORP Kralupy nad Vltavou, Czechia"
    },
    {
      "lon": 25.25,
      "lat": 54.75,
      "type": "hotspot_cell",
      "score": 597.07,
      "count": 1016,
      "cell_deg": 0.5,
      "sources": {
        "GDELT": 74,
        "GDELT_DOC": 942,
        "DIRECT_FEED": 0,
        "USGS": 0,
        "GDACS": 0
      },
      "last7_score": 593.19,
      "prev7_score": 3.88,
      "trend": "up",
      "trend_arrow": "🔺",
      "change_pct": 15188.8,
      "place": "Vilnius County, Lithuania"
    },
    {
      "lon": 19.25,
      "lat": 47.75,
      "type": "hotspot_cell",
      "score": 242.241,
      "count": 537,
      "cell_deg": 0.5,
      "sources": {
        "GDELT": 313,
        "GDELT_DOC": 0,
        "DIRECT_FEED": 224,
        "USGS": 0,
        "GDACS": 0
      },
      "last7_score": 219.194,
      "prev7_score": 23.047,
      "trend": "up",
      "trend_arrow": "🔺",
      "change_pct": 851.1,
      "place": "Pest, Hungary"
    },
    {
      "lon": 20.25,
      "lat": 52.25,
      "type": "hotspot_cell",
      "score": 212.247,
      "count": 597,
      "cell_deg": 0.5,
      "sources": {
        "GDELT": 597,
        "GDELT_DOC": 0,
        "DIRECT_FEED": 0,
        "USGS": 0,
        "GDACS": 0
      },
      "last7_score": 179.698,
      "prev7_score": 32.549,
      "trend": "up",
      "trend_arrow": "🔺",
      "change_pct": 452.1,
      "place": "Sochaczew County, Poland"
    },
    {
      "lon": 24.25,
      "lat": 56.75,
      "type": "hotspot_cell",
      "score": 117.295,
      "count": 195,
      "cell_deg": 0.5,
      "sources": {
        "GDELT": 44,
        "GDELT_DOC": 0,
        "DIRECT_FEED": 151,
        "USGS": 0,
        "GDACS": 0
      },
      "last7_score": 115.867,
      "prev7_score": 1.428,
      "trend": "up",
      "trend_arrow": "🔺",
      "change_pct": 8013.1,
      "place": "Ķekavas novads, Latvia"
    },
    {
      "lon": 20.25,
      "lat": 47.25,
      "type": "hotspot_cell",
      "score": 99.749,
      "count": 293,
      "cell_deg": 0.5,
      "sources": {
        "GDELT": 293,
        "GDELT_DOC": 0,
        "DIRECT_FEED": 0,
        "USGS": 0,
        "GDACS": 0
      },
      "last7_score": 78.66,
      "prev7_score": 21.089,
      "trend": "up",
      "trend_arrow": "🔺",
      "change_pct": 273.0,
      "place": "Jász-Nagykun-Szolnok, Hungary"
    },
    {
      "lon": 25.25,
      "lat": 46.25,
      "type": "hotspot_cell",
      "score": 91.435,
      "count": 292,
      "cell_deg": 0.5,
      "sources": {
        "GDELT": 292,
        "GDELT_DOC": 0,
        "DIRECT_FEED": 0,
        "USGS": 0,
        "GDACS": 0
      },
      "last7_score": 75.681,
      "prev7_score": 15.753,
      "trend": "up",
      "trend_arrow": "🔺",
      "change_pct": 380.4,
      "place": "Harghita, Romania"
    },
    {
      "lon": 25.25,
      "lat": 57.25,
      "type": "hotspot_cell",
      "score": 78.679,
      "count": 184,
      "cell_deg": 0.5,
      "sources": {
        "GDELT": 184,
        "GDELT_DOC": 0,
        "DIRECT_FEED": 0,
        "USGS": 0,
        "GDACS": 0
      },
      "last7_score": 68.617,
      "prev7_score": 10.063,
      "trend": "up",
      "trend_arrow": "🔺",
      "change_pct": 581.9,
      "place": "Cēsu novads, Latvia"
    },
    {
      "lon": 21.25,
      "lat": 52.25,
      "type": "hotspot_cell",
      "score": 71.984,
      "count": 213,
      "cell_deg": 0.5,
      "sources": {
        "GDELT": 213,
        "GDELT_DOC": 0,
        "DIRECT_FEED": 0,
        "USGS": 0,
        "GDACS": 0
      },
      "last7_score": 59.518,
      "prev7_score": 12.466,
      "trend": "up",
      "trend_arrow": "🔺",
      "change_pct": 377.4,
      "place": "Warsaw, Poland"
    }
  ]
}