{
  "generated_utc": "2026-06-17T10:34:16Z",
  "top": [
    {
      "lon": 26.25,
      "lat": 44.25,
      "type": "hotspot_cell",
      "score": 638.12,
      "count": 1032,
      "cell_deg": 0.5,
      "sources": {
        "GDELT": 164,
        "GDELT_DOC": 858,
        "DIRECT_FEED": 10,
        "USGS": 0,
        "GDACS": 0
      },
      "last7_score": 626.382,
      "prev7_score": 11.738,
      "trend": "up",
      "trend_arrow": "🔺",
      "change_pct": 5236.5,
      "place": "Giurgiu, Romania"
    },
    {
      "lon": 25.25,
      "lat": 54.75,
      "type": "hotspot_cell",
      "score": 440.505,
      "count": 656,
      "cell_deg": 0.5,
      "sources": {
        "GDELT": 51,
        "GDELT_DOC": 604,
        "DIRECT_FEED": 1,
        "USGS": 0,
        "GDACS": 0
      },
      "last7_score": 435.8,
      "prev7_score": 4.705,
      "trend": "up",
      "trend_arrow": "🔺",
      "change_pct": 9161.9,
      "place": "Vilnius County, Lithuania"
    },
    {
      "lon": 14.25,
      "lat": 50.25,
      "type": "hotspot_cell",
      "score": 415.508,
      "count": 829,
      "cell_deg": 0.5,
      "sources": {
        "GDELT": 96,
        "GDELT_DOC": 726,
        "DIRECT_FEED": 7,
        "USGS": 0,
        "GDACS": 0
      },
      "last7_score": 410.966,
      "prev7_score": 4.542,
      "trend": "up",
      "trend_arrow": "🔺",
      "change_pct": 8948.2,
      "place": "SO ORP Kralupy nad Vltavou, Czechia"
    },
    {
      "lon": 19.25,
      "lat": 47.75,
      "type": "hotspot_cell",
      "score": 174.815,
      "count": 346,
      "cell_deg": 0.5,
      "sources": {
        "GDELT": 178,
        "GDELT_DOC": 0,
        "DIRECT_FEED": 168,
        "USGS": 0,
        "GDACS": 0
      },
      "last7_score": 164.069,
      "prev7_score": 10.746,
      "trend": "up",
      "trend_arrow": "🔺",
      "change_pct": 1426.7,
      "place": "Pest, Hungary"
    },
    {
      "lon": 20.25,
      "lat": 52.25,
      "type": "hotspot_cell",
      "score": 170.458,
      "count": 442,
      "cell_deg": 0.5,
      "sources": {
        "GDELT": 442,
        "GDELT_DOC": 0,
        "DIRECT_FEED": 0,
        "USGS": 0,
        "GDACS": 0
      },
      "last7_score": 140.922,
      "prev7_score": 29.537,
      "trend": "up",
      "trend_arrow": "🔺",
      "change_pct": 377.1,
      "place": "Sochaczew County, Poland"
    },
    {
      "lon": 25.25,
      "lat": 46.25,
      "type": "hotspot_cell",
      "score": 154.473,
      "count": 415,
      "cell_deg": 0.5,
      "sources": {
        "GDELT": 415,
        "GDELT_DOC": 0,
        "DIRECT_FEED": 0,
        "USGS": 0,
        "GDACS": 0
      },
      "last7_score": 122.366,
      "prev7_score": 32.107,
      "trend": "up",
      "trend_arrow": "🔺",
      "change_pct": 281.1,
      "place": "Harghita, Romania"
    },
    {
      "lon": 17.25,
      "lat": 48.25,
      "type": "hotspot_cell",
      "score": 111.452,
      "count": 160,
      "cell_deg": 0.5,
      "sources": {
        "GDELT": 159,
        "GDELT_DOC": 0,
        "DIRECT_FEED": 1,
        "USGS": 0,
        "GDACS": 0
      },
      "last7_score": 110.854,
      "prev7_score": 0.598,
      "trend": "up",
      "trend_arrow": "🔺",
      "change_pct": 18438.3,
      "place": "District of Pezinok, Slovakia"
    },
    {
      "lon": 24.25,
      "lat": 56.75,
      "type": "hotspot_cell",
      "score": 108.527,
      "count": 178,
      "cell_deg": 0.5,
      "sources": {
        "GDELT": 39,
        "GDELT_DOC": 0,
        "DIRECT_FEED": 139,
        "USGS": 0,
        "GDACS": 0
      },
      "last7_score": 105.27,
      "prev7_score": 3.257,
      "trend": "up",
      "trend_arrow": "🔺",
      "change_pct": 3132.2,
      "place": "Ķekavas novads, Latvia"
    },
    {
      "lon": 20.25,
      "lat": 47.25,
      "type": "hotspot_cell",
      "score": 95.352,
      "count": 245,
      "cell_deg": 0.5,
      "sources": {
        "GDELT": 245,
        "GDELT_DOC": 0,
        "DIRECT_FEED": 0,
        "USGS": 0,
        "GDACS": 0
      },
      "last7_score": 77.999,
      "prev7_score": 17.353,
      "trend": "up",
      "trend_arrow": "🔺",
      "change_pct": 349.5,
      "place": "Jász-Nagykun-Szolnok, Hungary"
    },
    {
      "lon": 21.25,
      "lat": 52.25,
      "type": "hotspot_cell",
      "score": 70.038,
      "count": 166,
      "cell_deg": 0.5,
      "sources": {
        "GDELT": 166,
        "GDELT_DOC": 0,
        "DIRECT_FEED": 0,
        "USGS": 0,
        "GDACS": 0
      },
      "last7_score": 58.428,
      "prev7_score": 11.61,
      "trend": "up",
      "trend_arrow": "🔺",
      "change_pct": 403.3,
      "place": "Warsaw, Poland"
    }
  ]
}