{
  "generated_utc": "2026-04-15T19:25:59Z",
  "top": [
    {
      "lon": 14.25,
      "lat": 50.25,
      "type": "hotspot_cell",
      "score": 864.147,
      "count": 1333,
      "cell_deg": 0.5,
      "sources": {
        "GDELT": 85,
        "GDELT_DOC": 1248,
        "DIRECT_FEED": 0,
        "USGS": 0,
        "GDACS": 0
      },
      "last7_score": 859.088,
      "prev7_score": 5.06,
      "trend": "up",
      "trend_arrow": "🔺",
      "change_pct": 16879.5,
      "place": "SO ORP Kralupy nad Vltavou, Czechia"
    },
    {
      "lon": 19.25,
      "lat": 47.75,
      "type": "hotspot_cell",
      "score": 806.311,
      "count": 1447,
      "cell_deg": 0.5,
      "sources": {
        "GDELT": 1117,
        "GDELT_DOC": 0,
        "DIRECT_FEED": 330,
        "USGS": 0,
        "GDACS": 0
      },
      "last7_score": 749.393,
      "prev7_score": 56.918,
      "trend": "up",
      "trend_arrow": "🔺",
      "change_pct": 1216.6,
      "place": "Pest, Hungary"
    },
    {
      "lon": 26.25,
      "lat": 44.25,
      "type": "hotspot_cell",
      "score": 788.189,
      "count": 1356,
      "cell_deg": 0.5,
      "sources": {
        "GDELT": 119,
        "GDELT_DOC": 1235,
        "DIRECT_FEED": 2,
        "USGS": 0,
        "GDACS": 0
      },
      "last7_score": 778.185,
      "prev7_score": 10.004,
      "trend": "up",
      "trend_arrow": "🔺",
      "change_pct": 7678.4,
      "place": "Giurgiu, Romania"
    },
    {
      "lon": 25.25,
      "lat": 54.75,
      "type": "hotspot_cell",
      "score": 540.081,
      "count": 914,
      "cell_deg": 0.5,
      "sources": {
        "GDELT": 79,
        "GDELT_DOC": 833,
        "DIRECT_FEED": 2,
        "USGS": 0,
        "GDACS": 0
      },
      "last7_score": 535.478,
      "prev7_score": 4.602,
      "trend": "up",
      "trend_arrow": "🔺",
      "change_pct": 11535.1,
      "place": "Vilnius County, Lithuania"
    },
    {
      "lon": 20.25,
      "lat": 47.25,
      "type": "hotspot_cell",
      "score": 377.729,
      "count": 726,
      "cell_deg": 0.5,
      "sources": {
        "GDELT": 726,
        "GDELT_DOC": 0,
        "DIRECT_FEED": 0,
        "USGS": 0,
        "GDACS": 0
      },
      "last7_score": 345.257,
      "prev7_score": 32.472,
      "trend": "up",
      "trend_arrow": "🔺",
      "change_pct": 963.2,
      "place": "Jász-Nagykun-Szolnok, Hungary"
    },
    {
      "lon": 20.25,
      "lat": 52.25,
      "type": "hotspot_cell",
      "score": 151.264,
      "count": 392,
      "cell_deg": 0.5,
      "sources": {
        "GDELT": 392,
        "GDELT_DOC": 0,
        "DIRECT_FEED": 0,
        "USGS": 0,
        "GDACS": 0
      },
      "last7_score": 129.99,
      "prev7_score": 21.274,
      "trend": "up",
      "trend_arrow": "🔺",
      "change_pct": 511.0,
      "place": "Sochaczew County, Poland"
    },
    {
      "lon": 24.25,
      "lat": 56.75,
      "type": "hotspot_cell",
      "score": 111.368,
      "count": 159,
      "cell_deg": 0.5,
      "sources": {
        "GDELT": 28,
        "GDELT_DOC": 0,
        "DIRECT_FEED": 131,
        "USGS": 0,
        "GDACS": 0
      },
      "last7_score": 110.707,
      "prev7_score": 0.661,
      "trend": "up",
      "trend_arrow": "🔺",
      "change_pct": 16646.7,
      "place": "Ķekavas novads, Latvia"
    },
    {
      "lon": 25.25,
      "lat": 46.25,
      "type": "hotspot_cell",
      "score": 102.054,
      "count": 253,
      "cell_deg": 0.5,
      "sources": {
        "GDELT": 253,
        "GDELT_DOC": 0,
        "DIRECT_FEED": 0,
        "USGS": 0,
        "GDACS": 0
      },
      "last7_score": 83.735,
      "prev7_score": 18.319,
      "trend": "up",
      "trend_arrow": "🔺",
      "change_pct": 357.1,
      "place": "Harghita, Romania"
    },
    {
      "lon": 21.25,
      "lat": 52.25,
      "type": "hotspot_cell",
      "score": 90.239,
      "count": 161,
      "cell_deg": 0.5,
      "sources": {
        "GDELT": 161,
        "GDELT_DOC": 0,
        "DIRECT_FEED": 0,
        "USGS": 0,
        "GDACS": 0
      },
      "last7_score": 82.677,
      "prev7_score": 7.562,
      "trend": "up",
      "trend_arrow": "🔺",
      "change_pct": 993.3,
      "place": "Warsaw, Poland"
    },
    {
      "lon": 15.25,
      "lat": 49.75,
      "type": "hotspot_cell",
      "score": 71.026,
      "count": 151,
      "cell_deg": 0.5,
      "sources": {
        "GDELT": 151,
        "GDELT_DOC": 0,
        "DIRECT_FEED": 0,
        "USGS": 0,
        "GDACS": 0
      },
      "last7_score": 63.497,
      "prev7_score": 7.529,
      "trend": "up",
      "trend_arrow": "🔺",
      "change_pct": 743.3,
      "place": "Vysočina Region, Czechia"
    }
  ]
}