{
  "generated_utc": "2026-04-26T07:47:08Z",
  "top": [
    {
      "lon": 14.25,
      "lat": 50.25,
      "type": "hotspot_cell",
      "score": 1019.445,
      "count": 1686,
      "cell_deg": 0.5,
      "sources": {
        "GDELT": 182,
        "GDELT_DOC": 1500,
        "DIRECT_FEED": 4,
        "USGS": 0,
        "GDACS": 0
      },
      "last7_score": 1005.361,
      "prev7_score": 14.085,
      "trend": "up",
      "trend_arrow": "🔺",
      "change_pct": 7037.8,
      "place": "SO ORP Kralupy nad Vltavou, Czechia"
    },
    {
      "lon": 26.25,
      "lat": 44.25,
      "type": "hotspot_cell",
      "score": 959.479,
      "count": 1503,
      "cell_deg": 0.5,
      "sources": {
        "GDELT": 138,
        "GDELT_DOC": 1358,
        "DIRECT_FEED": 7,
        "USGS": 0,
        "GDACS": 0
      },
      "last7_score": 952.518,
      "prev7_score": 6.961,
      "trend": "up",
      "trend_arrow": "🔺",
      "change_pct": 13584.4,
      "place": "Giurgiu, Romania"
    },
    {
      "lon": 25.25,
      "lat": 54.75,
      "type": "hotspot_cell",
      "score": 695.921,
      "count": 1200,
      "cell_deg": 0.5,
      "sources": {
        "GDELT": 74,
        "GDELT_DOC": 1126,
        "DIRECT_FEED": 0,
        "USGS": 0,
        "GDACS": 0
      },
      "last7_score": 691.198,
      "prev7_score": 4.723,
      "trend": "up",
      "trend_arrow": "🔺",
      "change_pct": 14533.5,
      "place": "Vilnius County, Lithuania"
    },
    {
      "lon": 19.25,
      "lat": 47.75,
      "type": "hotspot_cell",
      "score": 325.566,
      "count": 1073,
      "cell_deg": 0.5,
      "sources": {
        "GDELT": 823,
        "GDELT_DOC": 0,
        "DIRECT_FEED": 250,
        "USGS": 0,
        "GDACS": 0
      },
      "last7_score": 272.035,
      "prev7_score": 53.531,
      "trend": "up",
      "trend_arrow": "🔺",
      "change_pct": 408.2,
      "place": "Pest, Hungary"
    },
    {
      "lon": 20.25,
      "lat": 47.25,
      "type": "hotspot_cell",
      "score": 230.248,
      "count": 795,
      "cell_deg": 0.5,
      "sources": {
        "GDELT": 795,
        "GDELT_DOC": 0,
        "DIRECT_FEED": 0,
        "USGS": 0,
        "GDACS": 0
      },
      "last7_score": 179.921,
      "prev7_score": 50.327,
      "trend": "up",
      "trend_arrow": "🔺",
      "change_pct": 257.5,
      "place": "Jász-Nagykun-Szolnok, Hungary"
    },
    {
      "lon": 20.25,
      "lat": 52.25,
      "type": "hotspot_cell",
      "score": 175.503,
      "count": 473,
      "cell_deg": 0.5,
      "sources": {
        "GDELT": 473,
        "GDELT_DOC": 0,
        "DIRECT_FEED": 0,
        "USGS": 0,
        "GDACS": 0
      },
      "last7_score": 145.861,
      "prev7_score": 29.642,
      "trend": "up",
      "trend_arrow": "🔺",
      "change_pct": 392.1,
      "place": "Sochaczew County, Poland"
    },
    {
      "lon": 26.75,
      "lat": 47.75,
      "type": "hotspot_cell",
      "score": 148.569,
      "count": 150,
      "cell_deg": 0.5,
      "sources": {
        "GDELT": 2,
        "GDELT_DOC": 146,
        "DIRECT_FEED": 2,
        "USGS": 0,
        "GDACS": 0
      },
      "last7_score": 148.403,
      "prev7_score": 0.166,
      "trend": "up",
      "trend_arrow": "🔺",
      "change_pct": 89384.3,
      "place": "Botoșani, Romania"
    },
    {
      "lon": 24.25,
      "lat": 56.75,
      "type": "hotspot_cell",
      "score": 111.863,
      "count": 178,
      "cell_deg": 0.5,
      "sources": {
        "GDELT": 33,
        "GDELT_DOC": 0,
        "DIRECT_FEED": 145,
        "USGS": 0,
        "GDACS": 0
      },
      "last7_score": 109.631,
      "prev7_score": 2.232,
      "trend": "up",
      "trend_arrow": "🔺",
      "change_pct": 4812.4,
      "place": "Ķekavas novads, Latvia"
    },
    {
      "lon": 22.25,
      "lat": 55.25,
      "type": "hotspot_cell",
      "score": 96.467,
      "count": 109,
      "cell_deg": 0.5,
      "sources": {
        "GDELT": 0,
        "GDELT_DOC": 108,
        "DIRECT_FEED": 1,
        "USGS": 0,
        "GDACS": 0
      },
      "last7_score": 96.467,
      "prev7_score": 0.0,
      "trend": "new",
      "trend_arrow": "🆕",
      "change_pct": null,
      "place": "Tauragės seniūnija, Lithuania"
    },
    {
      "lon": 25.25,
      "lat": 46.25,
      "type": "hotspot_cell",
      "score": 96.047,
      "count": 277,
      "cell_deg": 0.5,
      "sources": {
        "GDELT": 277,
        "GDELT_DOC": 0,
        "DIRECT_FEED": 0,
        "USGS": 0,
        "GDACS": 0
      },
      "last7_score": 79.572,
      "prev7_score": 16.475,
      "trend": "up",
      "trend_arrow": "🔺",
      "change_pct": 383.0,
      "place": "Harghita, Romania"
    }
  ]
}