{
  "generated_utc": "2026-03-09T18:59:26Z",
  "top": [
    {
      "lon": 14.25,
      "lat": 50.25,
      "type": "hotspot_cell",
      "score": 578.067,
      "count": 780,
      "cell_deg": 0.5,
      "sources": {
        "GDELT": 156,
        "GDELT_DOC": 624,
        "DIRECT_FEED": 0,
        "USGS": 0,
        "GDACS": 0
      },
      "last7_score": 569.53,
      "prev7_score": 8.537,
      "trend": "up",
      "trend_arrow": "🔺",
      "change_pct": 6571.3,
      "place": "SO ORP Kralupy nad Vltavou, Czechia"
    },
    {
      "lon": 26.25,
      "lat": 44.25,
      "type": "hotspot_cell",
      "score": 566.86,
      "count": 755,
      "cell_deg": 0.5,
      "sources": {
        "GDELT": 170,
        "GDELT_DOC": 584,
        "DIRECT_FEED": 1,
        "USGS": 0,
        "GDACS": 0
      },
      "last7_score": 556.977,
      "prev7_score": 9.883,
      "trend": "up",
      "trend_arrow": "🔺",
      "change_pct": 5535.8,
      "place": "Giurgiu, Romania"
    },
    {
      "lon": 25.25,
      "lat": 54.75,
      "type": "hotspot_cell",
      "score": 267.86,
      "count": 396,
      "cell_deg": 0.5,
      "sources": {
        "GDELT": 73,
        "GDELT_DOC": 323,
        "DIRECT_FEED": 0,
        "USGS": 0,
        "GDACS": 0
      },
      "last7_score": 263.153,
      "prev7_score": 4.707,
      "trend": "up",
      "trend_arrow": "🔺",
      "change_pct": 5490.4,
      "place": "Vilnius County, Lithuania"
    },
    {
      "lon": 19.25,
      "lat": 47.75,
      "type": "hotspot_cell",
      "score": 247.545,
      "count": 521,
      "cell_deg": 0.5,
      "sources": {
        "GDELT": 432,
        "GDELT_DOC": 0,
        "DIRECT_FEED": 89,
        "USGS": 0,
        "GDACS": 0
      },
      "last7_score": 228.726,
      "prev7_score": 18.818,
      "trend": "up",
      "trend_arrow": "🔺",
      "change_pct": 1115.4,
      "place": "Pest, Hungary"
    },
    {
      "lon": 20.25,
      "lat": 52.25,
      "type": "hotspot_cell",
      "score": 170.511,
      "count": 546,
      "cell_deg": 0.5,
      "sources": {
        "GDELT": 546,
        "GDELT_DOC": 0,
        "DIRECT_FEED": 0,
        "USGS": 0,
        "GDACS": 0
      },
      "last7_score": 134.735,
      "prev7_score": 35.776,
      "trend": "up",
      "trend_arrow": "🔺",
      "change_pct": 276.6,
      "place": "Sochaczew County, Poland"
    },
    {
      "lon": 20.25,
      "lat": 47.25,
      "type": "hotspot_cell",
      "score": 128.311,
      "count": 392,
      "cell_deg": 0.5,
      "sources": {
        "GDELT": 392,
        "GDELT_DOC": 0,
        "DIRECT_FEED": 0,
        "USGS": 0,
        "GDACS": 0
      },
      "last7_score": 108.054,
      "prev7_score": 20.257,
      "trend": "up",
      "trend_arrow": "🔺",
      "change_pct": 433.4,
      "place": "Jász-Nagykun-Szolnok, Hungary"
    },
    {
      "lon": 25.25,
      "lat": 46.25,
      "type": "hotspot_cell",
      "score": 91.264,
      "count": 309,
      "cell_deg": 0.5,
      "sources": {
        "GDELT": 309,
        "GDELT_DOC": 0,
        "DIRECT_FEED": 0,
        "USGS": 0,
        "GDACS": 0
      },
      "last7_score": 71.478,
      "prev7_score": 19.787,
      "trend": "up",
      "trend_arrow": "🔺",
      "change_pct": 261.2,
      "place": "Harghita, Romania"
    },
    {
      "lon": 21.25,
      "lat": 52.25,
      "type": "hotspot_cell",
      "score": 75.733,
      "count": 247,
      "cell_deg": 0.5,
      "sources": {
        "GDELT": 247,
        "GDELT_DOC": 0,
        "DIRECT_FEED": 0,
        "USGS": 0,
        "GDACS": 0
      },
      "last7_score": 61.057,
      "prev7_score": 14.676,
      "trend": "up",
      "trend_arrow": "🔺",
      "change_pct": 316.0,
      "place": "Warsaw, Poland"
    },
    {
      "lon": 24.25,
      "lat": 56.75,
      "type": "hotspot_cell",
      "score": 73.032,
      "count": 92,
      "cell_deg": 0.5,
      "sources": {
        "GDELT": 30,
        "GDELT_DOC": 0,
        "DIRECT_FEED": 62,
        "USGS": 0,
        "GDACS": 0
      },
      "last7_score": 71.052,
      "prev7_score": 1.98,
      "trend": "up",
      "trend_arrow": "🔺",
      "change_pct": 3489.1,
      "place": "Ķekavas novads, Latvia"
    },
    {
      "lon": 15.25,
      "lat": 49.75,
      "type": "hotspot_cell",
      "score": 57.355,
      "count": 171,
      "cell_deg": 0.5,
      "sources": {
        "GDELT": 171,
        "GDELT_DOC": 0,
        "DIRECT_FEED": 0,
        "USGS": 0,
        "GDACS": 0
      },
      "last7_score": 46.596,
      "prev7_score": 10.759,
      "trend": "up",
      "trend_arrow": "🔺",
      "change_pct": 333.1,
      "place": "Vysočina Region, Czechia"
    }
  ]
}