{
  "generated_utc": "2026-06-04T02:56:13Z",
  "top": [
    {
      "lon": 14.25,
      "lat": 50.25,
      "type": "hotspot_cell",
      "score": 700.153,
      "count": 1202,
      "cell_deg": 0.5,
      "sources": {
        "GDELT": 137,
        "GDELT_DOC": 1058,
        "DIRECT_FEED": 7,
        "USGS": 0,
        "GDACS": 0
      },
      "last7_score": 688.174,
      "prev7_score": 11.979,
      "trend": "up",
      "trend_arrow": "🔺",
      "change_pct": 5645.0,
      "place": "SO ORP Kralupy nad Vltavou, Czechia"
    },
    {
      "lon": 25.25,
      "lat": 54.75,
      "type": "hotspot_cell",
      "score": 640.781,
      "count": 1098,
      "cell_deg": 0.5,
      "sources": {
        "GDELT": 84,
        "GDELT_DOC": 1012,
        "DIRECT_FEED": 2,
        "USGS": 0,
        "GDACS": 0
      },
      "last7_score": 633.518,
      "prev7_score": 7.263,
      "trend": "up",
      "trend_arrow": "🔺",
      "change_pct": 8622.8,
      "place": "Vilnius County, Lithuania"
    },
    {
      "lon": 26.25,
      "lat": 44.25,
      "type": "hotspot_cell",
      "score": 627.788,
      "count": 1057,
      "cell_deg": 0.5,
      "sources": {
        "GDELT": 220,
        "GDELT_DOC": 826,
        "DIRECT_FEED": 11,
        "USGS": 0,
        "GDACS": 0
      },
      "last7_score": 617.756,
      "prev7_score": 10.032,
      "trend": "up",
      "trend_arrow": "🔺",
      "change_pct": 6058.1,
      "place": "Giurgiu, Romania"
    },
    {
      "lon": 19.25,
      "lat": 47.75,
      "type": "hotspot_cell",
      "score": 234.287,
      "count": 418,
      "cell_deg": 0.5,
      "sources": {
        "GDELT": 232,
        "GDELT_DOC": 0,
        "DIRECT_FEED": 186,
        "USGS": 0,
        "GDACS": 0
      },
      "last7_score": 219.234,
      "prev7_score": 15.053,
      "trend": "up",
      "trend_arrow": "🔺",
      "change_pct": 1356.4,
      "place": "Pest, Hungary"
    },
    {
      "lon": 20.25,
      "lat": 52.25,
      "type": "hotspot_cell",
      "score": 214.508,
      "count": 674,
      "cell_deg": 0.5,
      "sources": {
        "GDELT": 674,
        "GDELT_DOC": 0,
        "DIRECT_FEED": 0,
        "USGS": 0,
        "GDACS": 0
      },
      "last7_score": 159.17,
      "prev7_score": 55.338,
      "trend": "up",
      "trend_arrow": "🔺",
      "change_pct": 187.6,
      "place": "Sochaczew County, Poland"
    },
    {
      "lon": 25.25,
      "lat": 46.25,
      "type": "hotspot_cell",
      "score": 198.675,
      "count": 453,
      "cell_deg": 0.5,
      "sources": {
        "GDELT": 453,
        "GDELT_DOC": 0,
        "DIRECT_FEED": 0,
        "USGS": 0,
        "GDACS": 0
      },
      "last7_score": 174.568,
      "prev7_score": 24.108,
      "trend": "up",
      "trend_arrow": "🔺",
      "change_pct": 624.1,
      "place": "Harghita, Romania"
    },
    {
      "lon": 24.25,
      "lat": 56.75,
      "type": "hotspot_cell",
      "score": 127.651,
      "count": 192,
      "cell_deg": 0.5,
      "sources": {
        "GDELT": 42,
        "GDELT_DOC": 0,
        "DIRECT_FEED": 150,
        "USGS": 0,
        "GDACS": 0
      },
      "last7_score": 123.367,
      "prev7_score": 4.283,
      "trend": "up",
      "trend_arrow": "🔺",
      "change_pct": 2780.1,
      "place": "Ķekavas novads, Latvia"
    },
    {
      "lon": 20.25,
      "lat": 47.25,
      "type": "hotspot_cell",
      "score": 104.101,
      "count": 255,
      "cell_deg": 0.5,
      "sources": {
        "GDELT": 255,
        "GDELT_DOC": 0,
        "DIRECT_FEED": 0,
        "USGS": 0,
        "GDACS": 0
      },
      "last7_score": 83.747,
      "prev7_score": 20.353,
      "trend": "up",
      "trend_arrow": "🔺",
      "change_pct": 311.5,
      "place": "Jász-Nagykun-Szolnok, Hungary"
    },
    {
      "lon": 21.25,
      "lat": 52.25,
      "type": "hotspot_cell",
      "score": 89.565,
      "count": 242,
      "cell_deg": 0.5,
      "sources": {
        "GDELT": 242,
        "GDELT_DOC": 0,
        "DIRECT_FEED": 0,
        "USGS": 0,
        "GDACS": 0
      },
      "last7_score": 72.149,
      "prev7_score": 17.416,
      "trend": "up",
      "trend_arrow": "🔺",
      "change_pct": 314.3,
      "place": "Warsaw, Poland"
    },
    {
      "lon": 24.25,
      "lat": 56.25,
      "type": "hotspot_cell",
      "score": 54.271,
      "count": 137,
      "cell_deg": 0.5,
      "sources": {
        "GDELT": 137,
        "GDELT_DOC": 0,
        "DIRECT_FEED": 0,
        "USGS": 0,
        "GDACS": 0
      },
      "last7_score": 41.34,
      "prev7_score": 12.931,
      "trend": "up",
      "trend_arrow": "🔺",
      "change_pct": 219.7,
      "place": "Namišių seniūnija, Lithuania"
    }
  ]
}