{
  "generated_utc": "2026-05-22T15:08:18Z",
  "top": [
    {
      "lon": 26.25,
      "lat": 44.25,
      "type": "hotspot_cell",
      "score": 929.102,
      "count": 1553,
      "cell_deg": 0.5,
      "sources": {
        "GDELT": 189,
        "GDELT_DOC": 1362,
        "DIRECT_FEED": 2,
        "USGS": 0,
        "GDACS": 0
      },
      "last7_score": 907.996,
      "prev7_score": 21.106,
      "trend": "up",
      "trend_arrow": "🔺",
      "change_pct": 4202.0,
      "place": "Giurgiu, Romania"
    },
    {
      "lon": 14.25,
      "lat": 50.25,
      "type": "hotspot_cell",
      "score": 857.108,
      "count": 1371,
      "cell_deg": 0.5,
      "sources": {
        "GDELT": 123,
        "GDELT_DOC": 1236,
        "DIRECT_FEED": 12,
        "USGS": 0,
        "GDACS": 0
      },
      "last7_score": 848.976,
      "prev7_score": 8.131,
      "trend": "up",
      "trend_arrow": "🔺",
      "change_pct": 10340.7,
      "place": "SO ORP Kralupy nad Vltavou, Czechia"
    },
    {
      "lon": 25.25,
      "lat": 54.75,
      "type": "hotspot_cell",
      "score": 667.057,
      "count": 1036,
      "cell_deg": 0.5,
      "sources": {
        "GDELT": 99,
        "GDELT_DOC": 936,
        "DIRECT_FEED": 1,
        "USGS": 0,
        "GDACS": 0
      },
      "last7_score": 661.298,
      "prev7_score": 5.759,
      "trend": "up",
      "trend_arrow": "🔺",
      "change_pct": 11383.3,
      "place": "Vilnius County, Lithuania"
    },
    {
      "lon": 20.25,
      "lat": 52.25,
      "type": "hotspot_cell",
      "score": 402.094,
      "count": 753,
      "cell_deg": 0.5,
      "sources": {
        "GDELT": 753,
        "GDELT_DOC": 0,
        "DIRECT_FEED": 0,
        "USGS": 0,
        "GDACS": 0
      },
      "last7_score": 354.07,
      "prev7_score": 48.024,
      "trend": "up",
      "trend_arrow": "🔺",
      "change_pct": 637.3,
      "place": "Sochaczew County, Poland"
    },
    {
      "lon": 19.25,
      "lat": 47.75,
      "type": "hotspot_cell",
      "score": 261.4,
      "count": 513,
      "cell_deg": 0.5,
      "sources": {
        "GDELT": 282,
        "GDELT_DOC": 0,
        "DIRECT_FEED": 231,
        "USGS": 0,
        "GDACS": 0
      },
      "last7_score": 237.715,
      "prev7_score": 23.685,
      "trend": "up",
      "trend_arrow": "🔺",
      "change_pct": 903.7,
      "place": "Pest, Hungary"
    },
    {
      "lon": 25.25,
      "lat": 46.25,
      "type": "hotspot_cell",
      "score": 136.31,
      "count": 306,
      "cell_deg": 0.5,
      "sources": {
        "GDELT": 306,
        "GDELT_DOC": 0,
        "DIRECT_FEED": 0,
        "USGS": 0,
        "GDACS": 0
      },
      "last7_score": 114.873,
      "prev7_score": 21.437,
      "trend": "up",
      "trend_arrow": "🔺",
      "change_pct": 435.8,
      "place": "Harghita, Romania"
    },
    {
      "lon": 21.25,
      "lat": 52.25,
      "type": "hotspot_cell",
      "score": 120.771,
      "count": 256,
      "cell_deg": 0.5,
      "sources": {
        "GDELT": 256,
        "GDELT_DOC": 0,
        "DIRECT_FEED": 0,
        "USGS": 0,
        "GDACS": 0
      },
      "last7_score": 101.838,
      "prev7_score": 18.933,
      "trend": "up",
      "trend_arrow": "🔺",
      "change_pct": 437.9,
      "place": "Warsaw, Poland"
    },
    {
      "lon": 24.25,
      "lat": 56.75,
      "type": "hotspot_cell",
      "score": 119.213,
      "count": 171,
      "cell_deg": 0.5,
      "sources": {
        "GDELT": 52,
        "GDELT_DOC": 0,
        "DIRECT_FEED": 119,
        "USGS": 0,
        "GDACS": 0
      },
      "last7_score": 116.293,
      "prev7_score": 2.92,
      "trend": "up",
      "trend_arrow": "🔺",
      "change_pct": 3882.2,
      "place": "Ķekavas novads, Latvia"
    },
    {
      "lon": 20.25,
      "lat": 47.25,
      "type": "hotspot_cell",
      "score": 107.016,
      "count": 291,
      "cell_deg": 0.5,
      "sources": {
        "GDELT": 291,
        "GDELT_DOC": 0,
        "DIRECT_FEED": 0,
        "USGS": 0,
        "GDACS": 0
      },
      "last7_score": 85.0,
      "prev7_score": 22.016,
      "trend": "up",
      "trend_arrow": "🔺",
      "change_pct": 286.1,
      "place": "Jász-Nagykun-Szolnok, Hungary"
    },
    {
      "lon": 24.25,
      "lat": 56.25,
      "type": "hotspot_cell",
      "score": 84.541,
      "count": 174,
      "cell_deg": 0.5,
      "sources": {
        "GDELT": 174,
        "GDELT_DOC": 0,
        "DIRECT_FEED": 0,
        "USGS": 0,
        "GDACS": 0
      },
      "last7_score": 73.111,
      "prev7_score": 11.43,
      "trend": "up",
      "trend_arrow": "🔺",
      "change_pct": 539.7,
      "place": "Namišių seniūnija, Lithuania"
    }
  ]
}