{
  "generated_utc": "2026-04-22T13:35:24Z",
  "top": [
    {
      "lon": 14.25,
      "lat": 50.25,
      "type": "hotspot_cell",
      "score": 918.172,
      "count": 1440,
      "cell_deg": 0.5,
      "sources": {
        "GDELT": 149,
        "GDELT_DOC": 1288,
        "DIRECT_FEED": 3,
        "USGS": 0,
        "GDACS": 0
      },
      "last7_score": 912.152,
      "prev7_score": 6.019,
      "trend": "up",
      "trend_arrow": "🔺",
      "change_pct": 15053.3,
      "place": "SO ORP Kralupy nad Vltavou, Czechia"
    },
    {
      "lon": 26.25,
      "lat": 44.25,
      "type": "hotspot_cell",
      "score": 803.865,
      "count": 1309,
      "cell_deg": 0.5,
      "sources": {
        "GDELT": 120,
        "GDELT_DOC": 1185,
        "DIRECT_FEED": 4,
        "USGS": 0,
        "GDACS": 0
      },
      "last7_score": 798.743,
      "prev7_score": 5.122,
      "trend": "up",
      "trend_arrow": "🔺",
      "change_pct": 15494.6,
      "place": "Giurgiu, Romania"
    },
    {
      "lon": 25.25,
      "lat": 54.75,
      "type": "hotspot_cell",
      "score": 628.537,
      "count": 971,
      "cell_deg": 0.5,
      "sources": {
        "GDELT": 72,
        "GDELT_DOC": 899,
        "DIRECT_FEED": 0,
        "USGS": 0,
        "GDACS": 0
      },
      "last7_score": 622.572,
      "prev7_score": 5.965,
      "trend": "up",
      "trend_arrow": "🔺",
      "change_pct": 10337.6,
      "place": "Vilnius County, Lithuania"
    },
    {
      "lon": 19.25,
      "lat": 47.75,
      "type": "hotspot_cell",
      "score": 478.547,
      "count": 1331,
      "cell_deg": 0.5,
      "sources": {
        "GDELT": 1066,
        "GDELT_DOC": 0,
        "DIRECT_FEED": 265,
        "USGS": 0,
        "GDACS": 0
      },
      "last7_score": 368.714,
      "prev7_score": 109.833,
      "trend": "up",
      "trend_arrow": "🔺",
      "change_pct": 235.7,
      "place": "Pest, Hungary"
    },
    {
      "lon": 20.25,
      "lat": 47.25,
      "type": "hotspot_cell",
      "score": 298.824,
      "count": 851,
      "cell_deg": 0.5,
      "sources": {
        "GDELT": 851,
        "GDELT_DOC": 0,
        "DIRECT_FEED": 0,
        "USGS": 0,
        "GDACS": 0
      },
      "last7_score": 224.339,
      "prev7_score": 74.485,
      "trend": "up",
      "trend_arrow": "🔺",
      "change_pct": 201.2,
      "place": "Jász-Nagykun-Szolnok, Hungary"
    },
    {
      "lon": 20.25,
      "lat": 52.25,
      "type": "hotspot_cell",
      "score": 166.119,
      "count": 436,
      "cell_deg": 0.5,
      "sources": {
        "GDELT": 436,
        "GDELT_DOC": 0,
        "DIRECT_FEED": 0,
        "USGS": 0,
        "GDACS": 0
      },
      "last7_score": 137.906,
      "prev7_score": 28.214,
      "trend": "up",
      "trend_arrow": "🔺",
      "change_pct": 388.8,
      "place": "Sochaczew County, Poland"
    },
    {
      "lon": 24.25,
      "lat": 56.75,
      "type": "hotspot_cell",
      "score": 119.179,
      "count": 175,
      "cell_deg": 0.5,
      "sources": {
        "GDELT": 34,
        "GDELT_DOC": 0,
        "DIRECT_FEED": 141,
        "USGS": 0,
        "GDACS": 0
      },
      "last7_score": 116.091,
      "prev7_score": 3.088,
      "trend": "up",
      "trend_arrow": "🔺",
      "change_pct": 3660.0,
      "place": "Ķekavas novads, Latvia"
    },
    {
      "lon": 25.25,
      "lat": 46.25,
      "type": "hotspot_cell",
      "score": 94.286,
      "count": 240,
      "cell_deg": 0.5,
      "sources": {
        "GDELT": 240,
        "GDELT_DOC": 0,
        "DIRECT_FEED": 0,
        "USGS": 0,
        "GDACS": 0
      },
      "last7_score": 75.08,
      "prev7_score": 19.206,
      "trend": "up",
      "trend_arrow": "🔺",
      "change_pct": 290.9,
      "place": "Harghita, Romania"
    },
    {
      "lon": 15.25,
      "lat": 49.75,
      "type": "hotspot_cell",
      "score": 76.964,
      "count": 199,
      "cell_deg": 0.5,
      "sources": {
        "GDELT": 199,
        "GDELT_DOC": 0,
        "DIRECT_FEED": 0,
        "USGS": 0,
        "GDACS": 0
      },
      "last7_score": 63.138,
      "prev7_score": 13.826,
      "trend": "up",
      "trend_arrow": "🔺",
      "change_pct": 356.6,
      "place": "Vysočina Region, Czechia"
    },
    {
      "lon": 21.25,
      "lat": 52.25,
      "type": "hotspot_cell",
      "score": 61.832,
      "count": 179,
      "cell_deg": 0.5,
      "sources": {
        "GDELT": 179,
        "GDELT_DOC": 0,
        "DIRECT_FEED": 0,
        "USGS": 0,
        "GDACS": 0
      },
      "last7_score": 44.003,
      "prev7_score": 17.83,
      "trend": "up",
      "trend_arrow": "🔺",
      "change_pct": 146.8,
      "place": "Warsaw, Poland"
    }
  ]
}