{
  "generated_utc": "2026-05-11T03:40:01Z",
  "top": [
    {
      "lon": 14.25,
      "lat": 50.25,
      "type": "hotspot_cell",
      "score": 747.532,
      "count": 1276,
      "cell_deg": 0.5,
      "sources": {
        "GDELT": 142,
        "GDELT_DOC": 1130,
        "DIRECT_FEED": 4,
        "USGS": 0,
        "GDACS": 0
      },
      "last7_score": 736.416,
      "prev7_score": 11.116,
      "trend": "up",
      "trend_arrow": "🔺",
      "change_pct": 6524.8,
      "place": "SO ORP Kralupy nad Vltavou, Czechia"
    },
    {
      "lon": 26.25,
      "lat": 44.25,
      "type": "hotspot_cell",
      "score": 732.621,
      "count": 1221,
      "cell_deg": 0.5,
      "sources": {
        "GDELT": 142,
        "GDELT_DOC": 1069,
        "DIRECT_FEED": 10,
        "USGS": 0,
        "GDACS": 0
      },
      "last7_score": 725.963,
      "prev7_score": 6.658,
      "trend": "up",
      "trend_arrow": "🔺",
      "change_pct": 10803.9,
      "place": "Giurgiu, Romania"
    },
    {
      "lon": 25.25,
      "lat": 54.75,
      "type": "hotspot_cell",
      "score": 644.485,
      "count": 1019,
      "cell_deg": 0.5,
      "sources": {
        "GDELT": 64,
        "GDELT_DOC": 955,
        "DIRECT_FEED": 0,
        "USGS": 0,
        "GDACS": 0
      },
      "last7_score": 640.694,
      "prev7_score": 3.791,
      "trend": "up",
      "trend_arrow": "🔺",
      "change_pct": 16801.9,
      "place": "Vilnius County, Lithuania"
    },
    {
      "lon": 19.25,
      "lat": 47.75,
      "type": "hotspot_cell",
      "score": 240.382,
      "count": 449,
      "cell_deg": 0.5,
      "sources": {
        "GDELT": 249,
        "GDELT_DOC": 0,
        "DIRECT_FEED": 200,
        "USGS": 0,
        "GDACS": 0
      },
      "last7_score": 229.392,
      "prev7_score": 10.99,
      "trend": "up",
      "trend_arrow": "🔺",
      "change_pct": 1987.3,
      "place": "Pest, Hungary"
    },
    {
      "lon": 20.25,
      "lat": 52.25,
      "type": "hotspot_cell",
      "score": 179.926,
      "count": 511,
      "cell_deg": 0.5,
      "sources": {
        "GDELT": 511,
        "GDELT_DOC": 0,
        "DIRECT_FEED": 0,
        "USGS": 0,
        "GDACS": 0
      },
      "last7_score": 141.138,
      "prev7_score": 38.788,
      "trend": "up",
      "trend_arrow": "🔺",
      "change_pct": 263.9,
      "place": "Sochaczew County, Poland"
    },
    {
      "lon": 20.25,
      "lat": 47.25,
      "type": "hotspot_cell",
      "score": 92.118,
      "count": 270,
      "cell_deg": 0.5,
      "sources": {
        "GDELT": 270,
        "GDELT_DOC": 0,
        "DIRECT_FEED": 0,
        "USGS": 0,
        "GDACS": 0
      },
      "last7_score": 73.114,
      "prev7_score": 19.004,
      "trend": "up",
      "trend_arrow": "🔺",
      "change_pct": 284.7,
      "place": "Jász-Nagykun-Szolnok, Hungary"
    },
    {
      "lon": 24.25,
      "lat": 56.75,
      "type": "hotspot_cell",
      "score": 91.9,
      "count": 156,
      "cell_deg": 0.5,
      "sources": {
        "GDELT": 28,
        "GDELT_DOC": 0,
        "DIRECT_FEED": 128,
        "USGS": 0,
        "GDACS": 0
      },
      "last7_score": 90.103,
      "prev7_score": 1.797,
      "trend": "up",
      "trend_arrow": "🔺",
      "change_pct": 4914.3,
      "place": "Ķekavas novads, Latvia"
    },
    {
      "lon": 25.25,
      "lat": 46.25,
      "type": "hotspot_cell",
      "score": 84.741,
      "count": 317,
      "cell_deg": 0.5,
      "sources": {
        "GDELT": 317,
        "GDELT_DOC": 0,
        "DIRECT_FEED": 0,
        "USGS": 0,
        "GDACS": 0
      },
      "last7_score": 59.381,
      "prev7_score": 25.36,
      "trend": "up",
      "trend_arrow": "🔺",
      "change_pct": 134.2,
      "place": "Harghita, Romania"
    },
    {
      "lon": 21.25,
      "lat": 52.25,
      "type": "hotspot_cell",
      "score": 63.002,
      "count": 170,
      "cell_deg": 0.5,
      "sources": {
        "GDELT": 170,
        "GDELT_DOC": 0,
        "DIRECT_FEED": 0,
        "USGS": 0,
        "GDACS": 0
      },
      "last7_score": 52.719,
      "prev7_score": 10.283,
      "trend": "up",
      "trend_arrow": "🔺",
      "change_pct": 412.7,
      "place": "Warsaw, Poland"
    },
    {
      "lon": 27.75,
      "lat": 47.25,
      "type": "hotspot_cell",
      "score": 54.964,
      "count": 96,
      "cell_deg": 0.5,
      "sources": {
        "GDELT": 0,
        "GDELT_DOC": 96,
        "DIRECT_FEED": 0,
        "USGS": 0,
        "GDACS": 0
      },
      "last7_score": 54.964,
      "prev7_score": 0.0,
      "trend": "new",
      "trend_arrow": "🆕",
      "change_pct": null,
      "place": "Iași, Romania"
    }
  ]
}