{
  "generated_utc": "2026-05-26T09:48:27Z",
  "top": [
    {
      "lon": 14.25,
      "lat": 50.25,
      "type": "hotspot_cell",
      "score": 957.04,
      "count": 1592,
      "cell_deg": 0.5,
      "sources": {
        "GDELT": 136,
        "GDELT_DOC": 1438,
        "DIRECT_FEED": 18,
        "USGS": 0,
        "GDACS": 0
      },
      "last7_score": 949.718,
      "prev7_score": 7.322,
      "trend": "up",
      "trend_arrow": "🔺",
      "change_pct": 12870.3,
      "place": "SO ORP Kralupy nad Vltavou, Czechia"
    },
    {
      "lon": 26.25,
      "lat": 44.25,
      "type": "hotspot_cell",
      "score": 787.805,
      "count": 1398,
      "cell_deg": 0.5,
      "sources": {
        "GDELT": 165,
        "GDELT_DOC": 1230,
        "DIRECT_FEED": 3,
        "USGS": 0,
        "GDACS": 0
      },
      "last7_score": 776.946,
      "prev7_score": 10.859,
      "trend": "up",
      "trend_arrow": "🔺",
      "change_pct": 7055.0,
      "place": "Giurgiu, Romania"
    },
    {
      "lon": 25.25,
      "lat": 54.75,
      "type": "hotspot_cell",
      "score": 646.89,
      "count": 1088,
      "cell_deg": 0.5,
      "sources": {
        "GDELT": 104,
        "GDELT_DOC": 981,
        "DIRECT_FEED": 3,
        "USGS": 0,
        "GDACS": 0
      },
      "last7_score": 642.455,
      "prev7_score": 4.435,
      "trend": "up",
      "trend_arrow": "🔺",
      "change_pct": 14387.1,
      "place": "Vilnius County, Lithuania"
    },
    {
      "lon": 20.25,
      "lat": 52.25,
      "type": "hotspot_cell",
      "score": 292.767,
      "count": 793,
      "cell_deg": 0.5,
      "sources": {
        "GDELT": 793,
        "GDELT_DOC": 0,
        "DIRECT_FEED": 0,
        "USGS": 0,
        "GDACS": 0
      },
      "last7_score": 251.056,
      "prev7_score": 41.712,
      "trend": "up",
      "trend_arrow": "🔺",
      "change_pct": 501.9,
      "place": "Sochaczew County, Poland"
    },
    {
      "lon": 19.25,
      "lat": 47.75,
      "type": "hotspot_cell",
      "score": 192.295,
      "count": 429,
      "cell_deg": 0.5,
      "sources": {
        "GDELT": 205,
        "GDELT_DOC": 0,
        "DIRECT_FEED": 224,
        "USGS": 0,
        "GDACS": 0
      },
      "last7_score": 177.11,
      "prev7_score": 15.185,
      "trend": "up",
      "trend_arrow": "🔺",
      "change_pct": 1066.4,
      "place": "Pest, Hungary"
    },
    {
      "lon": 25.25,
      "lat": 46.25,
      "type": "hotspot_cell",
      "score": 122.81,
      "count": 313,
      "cell_deg": 0.5,
      "sources": {
        "GDELT": 313,
        "GDELT_DOC": 0,
        "DIRECT_FEED": 0,
        "USGS": 0,
        "GDACS": 0
      },
      "last7_score": 101.147,
      "prev7_score": 21.664,
      "trend": "up",
      "trend_arrow": "🔺",
      "change_pct": 366.9,
      "place": "Harghita, Romania"
    },
    {
      "lon": 24.25,
      "lat": 56.75,
      "type": "hotspot_cell",
      "score": 98.244,
      "count": 173,
      "cell_deg": 0.5,
      "sources": {
        "GDELT": 54,
        "GDELT_DOC": 0,
        "DIRECT_FEED": 119,
        "USGS": 0,
        "GDACS": 0
      },
      "last7_score": 93.915,
      "prev7_score": 4.329,
      "trend": "up",
      "trend_arrow": "🔺",
      "change_pct": 2069.5,
      "place": "Ķekavas novads, Latvia"
    },
    {
      "lon": 21.25,
      "lat": 52.25,
      "type": "hotspot_cell",
      "score": 86.044,
      "count": 264,
      "cell_deg": 0.5,
      "sources": {
        "GDELT": 264,
        "GDELT_DOC": 0,
        "DIRECT_FEED": 0,
        "USGS": 0,
        "GDACS": 0
      },
      "last7_score": 69.606,
      "prev7_score": 16.437,
      "trend": "up",
      "trend_arrow": "🔺",
      "change_pct": 323.5,
      "place": "Warsaw, Poland"
    },
    {
      "lon": 20.25,
      "lat": 47.25,
      "type": "hotspot_cell",
      "score": 72.66,
      "count": 239,
      "cell_deg": 0.5,
      "sources": {
        "GDELT": 239,
        "GDELT_DOC": 0,
        "DIRECT_FEED": 0,
        "USGS": 0,
        "GDACS": 0
      },
      "last7_score": 54.394,
      "prev7_score": 18.266,
      "trend": "up",
      "trend_arrow": "🔺",
      "change_pct": 197.8,
      "place": "Jász-Nagykun-Szolnok, Hungary"
    },
    {
      "lon": 26.25,
      "lat": 59.25,
      "type": "hotspot_cell",
      "score": 55.879,
      "count": 151,
      "cell_deg": 0.5,
      "sources": {
        "GDELT": 151,
        "GDELT_DOC": 0,
        "DIRECT_FEED": 0,
        "USGS": 0,
        "GDACS": 0
      },
      "last7_score": 45.584,
      "prev7_score": 10.295,
      "trend": "up",
      "trend_arrow": "🔺",
      "change_pct": 342.8,
      "place": "Lääne-Viru County, Estonia"
    }
  ]
}