{
  "generated_utc": "2026-03-21T12:56:38Z",
  "top": [
    {
      "lon": 14.25,
      "lat": 50.25,
      "type": "hotspot_cell",
      "score": 858.174,
      "count": 1396,
      "cell_deg": 0.5,
      "sources": {
        "GDELT": 113,
        "GDELT_DOC": 1281,
        "DIRECT_FEED": 2,
        "USGS": 0,
        "GDACS": 0
      },
      "last7_score": 851.292,
      "prev7_score": 6.882,
      "trend": "up",
      "trend_arrow": "🔺",
      "change_pct": 12270.3,
      "place": "SO ORP Kralupy nad Vltavou, Czechia"
    },
    {
      "lon": 26.25,
      "lat": 44.25,
      "type": "hotspot_cell",
      "score": 810.195,
      "count": 1373,
      "cell_deg": 0.5,
      "sources": {
        "GDELT": 183,
        "GDELT_DOC": 1190,
        "DIRECT_FEED": 0,
        "USGS": 0,
        "GDACS": 0
      },
      "last7_score": 794.381,
      "prev7_score": 15.813,
      "trend": "up",
      "trend_arrow": "🔺",
      "change_pct": 4923.4,
      "place": "Giurgiu, Romania"
    },
    {
      "lon": 25.25,
      "lat": 54.75,
      "type": "hotspot_cell",
      "score": 554.88,
      "count": 874,
      "cell_deg": 0.5,
      "sources": {
        "GDELT": 86,
        "GDELT_DOC": 788,
        "DIRECT_FEED": 0,
        "USGS": 0,
        "GDACS": 0
      },
      "last7_score": 549.691,
      "prev7_score": 5.189,
      "trend": "up",
      "trend_arrow": "🔺",
      "change_pct": 10493.6,
      "place": "Vilnius County, Lithuania"
    },
    {
      "lon": 19.25,
      "lat": 47.75,
      "type": "hotspot_cell",
      "score": 297.979,
      "count": 603,
      "cell_deg": 0.5,
      "sources": {
        "GDELT": 380,
        "GDELT_DOC": 0,
        "DIRECT_FEED": 223,
        "USGS": 0,
        "GDACS": 0
      },
      "last7_score": 275.562,
      "prev7_score": 22.417,
      "trend": "up",
      "trend_arrow": "🔺",
      "change_pct": 1129.3,
      "place": "Pest, Hungary"
    },
    {
      "lon": 20.25,
      "lat": 52.25,
      "type": "hotspot_cell",
      "score": 172.399,
      "count": 422,
      "cell_deg": 0.5,
      "sources": {
        "GDELT": 422,
        "GDELT_DOC": 0,
        "DIRECT_FEED": 0,
        "USGS": 0,
        "GDACS": 0
      },
      "last7_score": 145.485,
      "prev7_score": 26.914,
      "trend": "up",
      "trend_arrow": "🔺",
      "change_pct": 440.6,
      "place": "Sochaczew County, Poland"
    },
    {
      "lon": 20.25,
      "lat": 47.25,
      "type": "hotspot_cell",
      "score": 170.037,
      "count": 409,
      "cell_deg": 0.5,
      "sources": {
        "GDELT": 409,
        "GDELT_DOC": 0,
        "DIRECT_FEED": 0,
        "USGS": 0,
        "GDACS": 0
      },
      "last7_score": 143.808,
      "prev7_score": 26.229,
      "trend": "up",
      "trend_arrow": "🔺",
      "change_pct": 448.3,
      "place": "Jász-Nagykun-Szolnok, Hungary"
    },
    {
      "lon": 25.25,
      "lat": 46.25,
      "type": "hotspot_cell",
      "score": 121.872,
      "count": 322,
      "cell_deg": 0.5,
      "sources": {
        "GDELT": 322,
        "GDELT_DOC": 0,
        "DIRECT_FEED": 0,
        "USGS": 0,
        "GDACS": 0
      },
      "last7_score": 100.828,
      "prev7_score": 21.044,
      "trend": "up",
      "trend_arrow": "🔺",
      "change_pct": 379.1,
      "place": "Harghita, Romania"
    },
    {
      "lon": 24.25,
      "lat": 56.75,
      "type": "hotspot_cell",
      "score": 113.55,
      "count": 167,
      "cell_deg": 0.5,
      "sources": {
        "GDELT": 35,
        "GDELT_DOC": 0,
        "DIRECT_FEED": 132,
        "USGS": 0,
        "GDACS": 0
      },
      "last7_score": 110.78,
      "prev7_score": 2.77,
      "trend": "up",
      "trend_arrow": "🔺",
      "change_pct": 3899.1,
      "place": "Ķekavas novads, Latvia"
    },
    {
      "lon": 15.25,
      "lat": 49.75,
      "type": "hotspot_cell",
      "score": 71.669,
      "count": 165,
      "cell_deg": 0.5,
      "sources": {
        "GDELT": 165,
        "GDELT_DOC": 0,
        "DIRECT_FEED": 0,
        "USGS": 0,
        "GDACS": 0
      },
      "last7_score": 63.4,
      "prev7_score": 8.269,
      "trend": "up",
      "trend_arrow": "🔺",
      "change_pct": 666.8,
      "place": "Vysočina Region, Czechia"
    },
    {
      "lon": 21.25,
      "lat": 52.25,
      "type": "hotspot_cell",
      "score": 70.428,
      "count": 187,
      "cell_deg": 0.5,
      "sources": {
        "GDELT": 187,
        "GDELT_DOC": 0,
        "DIRECT_FEED": 0,
        "USGS": 0,
        "GDACS": 0
      },
      "last7_score": 56.372,
      "prev7_score": 14.056,
      "trend": "up",
      "trend_arrow": "🔺",
      "change_pct": 301.1,
      "place": "Warsaw, Poland"
    }
  ]
}