{
  "generated_utc": "2026-07-18T07:34:55Z",
  "top": [
    {
      "lon": 14.25,
      "lat": 50.25,
      "type": "hotspot_cell",
      "score": 613.994,
      "count": 1007,
      "cell_deg": 0.5,
      "sources": {
        "GDELT": 106,
        "GDELT_DOC": 896,
        "DIRECT_FEED": 5,
        "USGS": 0,
        "GDACS": 0
      },
      "last7_score": 607.236,
      "prev7_score": 6.758,
      "trend": "up",
      "trend_arrow": "🔺",
      "change_pct": 8884.8,
      "place": "SO ORP Kralupy nad Vltavou, Czechia"
    },
    {
      "lon": 26.25,
      "lat": 44.25,
      "type": "hotspot_cell",
      "score": 601.225,
      "count": 865,
      "cell_deg": 0.5,
      "sources": {
        "GDELT": 99,
        "GDELT_DOC": 763,
        "DIRECT_FEED": 3,
        "USGS": 0,
        "GDACS": 0
      },
      "last7_score": 593.85,
      "prev7_score": 7.375,
      "trend": "up",
      "trend_arrow": "🔺",
      "change_pct": 7952.5,
      "place": "Giurgiu, Romania"
    },
    {
      "lon": 25.25,
      "lat": 54.75,
      "type": "hotspot_cell",
      "score": 413.127,
      "count": 674,
      "cell_deg": 0.5,
      "sources": {
        "GDELT": 79,
        "GDELT_DOC": 595,
        "DIRECT_FEED": 0,
        "USGS": 0,
        "GDACS": 0
      },
      "last7_score": 408.477,
      "prev7_score": 4.65,
      "trend": "up",
      "trend_arrow": "🔺",
      "change_pct": 8685.3,
      "place": "Vilnius County, Lithuania"
    },
    {
      "lon": 19.25,
      "lat": 47.75,
      "type": "hotspot_cell",
      "score": 188.578,
      "count": 349,
      "cell_deg": 0.5,
      "sources": {
        "GDELT": 160,
        "GDELT_DOC": 0,
        "DIRECT_FEED": 189,
        "USGS": 0,
        "GDACS": 0
      },
      "last7_score": 177.442,
      "prev7_score": 11.136,
      "trend": "up",
      "trend_arrow": "🔺",
      "change_pct": 1493.4,
      "place": "Pest, Hungary"
    },
    {
      "lon": 20.25,
      "lat": 52.25,
      "type": "hotspot_cell",
      "score": 175.602,
      "count": 464,
      "cell_deg": 0.5,
      "sources": {
        "GDELT": 464,
        "GDELT_DOC": 0,
        "DIRECT_FEED": 0,
        "USGS": 0,
        "GDACS": 0
      },
      "last7_score": 146.318,
      "prev7_score": 29.284,
      "trend": "up",
      "trend_arrow": "🔺",
      "change_pct": 399.7,
      "place": "Sochaczew County, Poland"
    },
    {
      "lon": 25.25,
      "lat": 46.25,
      "type": "hotspot_cell",
      "score": 148.58,
      "count": 389,
      "cell_deg": 0.5,
      "sources": {
        "GDELT": 389,
        "GDELT_DOC": 0,
        "DIRECT_FEED": 0,
        "USGS": 0,
        "GDACS": 0
      },
      "last7_score": 120.452,
      "prev7_score": 28.129,
      "trend": "up",
      "trend_arrow": "🔺",
      "change_pct": 328.2,
      "place": "Harghita, Romania"
    },
    {
      "lon": 24.25,
      "lat": 56.75,
      "type": "hotspot_cell",
      "score": 101.462,
      "count": 150,
      "cell_deg": 0.5,
      "sources": {
        "GDELT": 18,
        "GDELT_DOC": 0,
        "DIRECT_FEED": 132,
        "USGS": 0,
        "GDACS": 0
      },
      "last7_score": 100.389,
      "prev7_score": 1.072,
      "trend": "up",
      "trend_arrow": "🔺",
      "change_pct": 9260.5,
      "place": "Ķekavas novads, Latvia"
    },
    {
      "lon": 21.25,
      "lat": 52.25,
      "type": "hotspot_cell",
      "score": 93.904,
      "count": 227,
      "cell_deg": 0.5,
      "sources": {
        "GDELT": 227,
        "GDELT_DOC": 0,
        "DIRECT_FEED": 0,
        "USGS": 0,
        "GDACS": 0
      },
      "last7_score": 78.567,
      "prev7_score": 15.337,
      "trend": "up",
      "trend_arrow": "🔺",
      "change_pct": 412.3,
      "place": "Warsaw, Poland"
    },
    {
      "lon": 20.25,
      "lat": 47.25,
      "type": "hotspot_cell",
      "score": 78.493,
      "count": 202,
      "cell_deg": 0.5,
      "sources": {
        "GDELT": 202,
        "GDELT_DOC": 0,
        "DIRECT_FEED": 0,
        "USGS": 0,
        "GDACS": 0
      },
      "last7_score": 64.828,
      "prev7_score": 13.665,
      "trend": "up",
      "trend_arrow": "🔺",
      "change_pct": 374.4,
      "place": "Jász-Nagykun-Szolnok, Hungary"
    },
    {
      "lon": 22.25,
      "lat": 55.25,
      "type": "hotspot_cell",
      "score": 64.411,
      "count": 64,
      "cell_deg": 0.5,
      "sources": {
        "GDELT": 0,
        "GDELT_DOC": 63,
        "DIRECT_FEED": 1,
        "USGS": 0,
        "GDACS": 0
      },
      "last7_score": 64.411,
      "prev7_score": 0.0,
      "trend": "new",
      "trend_arrow": "🆕",
      "change_pct": null,
      "place": "Tauragės seniūnija, Lithuania"
    }
  ]
}