{
  "generated_utc": "2026-05-08T03:03:39Z",
  "top": [
    {
      "lon": 14.25,
      "lat": 50.25,
      "type": "hotspot_cell",
      "score": 798.685,
      "count": 1328,
      "cell_deg": 0.5,
      "sources": {
        "GDELT": 148,
        "GDELT_DOC": 1175,
        "DIRECT_FEED": 5,
        "USGS": 0,
        "GDACS": 0
      },
      "last7_score": 784.886,
      "prev7_score": 13.798,
      "trend": "up",
      "trend_arrow": "🔺",
      "change_pct": 5588.2,
      "place": "SO ORP Kralupy nad Vltavou, Czechia"
    },
    {
      "lon": 26.25,
      "lat": 44.25,
      "type": "hotspot_cell",
      "score": 684.215,
      "count": 1174,
      "cell_deg": 0.5,
      "sources": {
        "GDELT": 145,
        "GDELT_DOC": 1021,
        "DIRECT_FEED": 8,
        "USGS": 0,
        "GDACS": 0
      },
      "last7_score": 674.436,
      "prev7_score": 9.779,
      "trend": "up",
      "trend_arrow": "🔺",
      "change_pct": 6796.5,
      "place": "Giurgiu, Romania"
    },
    {
      "lon": 25.25,
      "lat": 54.75,
      "type": "hotspot_cell",
      "score": 514.534,
      "count": 919,
      "cell_deg": 0.5,
      "sources": {
        "GDELT": 61,
        "GDELT_DOC": 858,
        "DIRECT_FEED": 0,
        "USGS": 0,
        "GDACS": 0
      },
      "last7_score": 509.085,
      "prev7_score": 5.449,
      "trend": "up",
      "trend_arrow": "🔺",
      "change_pct": 9243.3,
      "place": "Vilnius County, Lithuania"
    },
    {
      "lon": 20.25,
      "lat": 52.25,
      "type": "hotspot_cell",
      "score": 225.972,
      "count": 498,
      "cell_deg": 0.5,
      "sources": {
        "GDELT": 498,
        "GDELT_DOC": 0,
        "DIRECT_FEED": 0,
        "USGS": 0,
        "GDACS": 0
      },
      "last7_score": 192.481,
      "prev7_score": 33.491,
      "trend": "up",
      "trend_arrow": "🔺",
      "change_pct": 474.7,
      "place": "Sochaczew County, Poland"
    },
    {
      "lon": 19.25,
      "lat": 47.75,
      "type": "hotspot_cell",
      "score": 216.821,
      "count": 369,
      "cell_deg": 0.5,
      "sources": {
        "GDELT": 207,
        "GDELT_DOC": 0,
        "DIRECT_FEED": 162,
        "USGS": 0,
        "GDACS": 0
      },
      "last7_score": 199.24,
      "prev7_score": 17.581,
      "trend": "up",
      "trend_arrow": "🔺",
      "change_pct": 1033.3,
      "place": "Pest, Hungary"
    },
    {
      "lon": 25.25,
      "lat": 46.25,
      "type": "hotspot_cell",
      "score": 133.317,
      "count": 339,
      "cell_deg": 0.5,
      "sources": {
        "GDELT": 339,
        "GDELT_DOC": 0,
        "DIRECT_FEED": 0,
        "USGS": 0,
        "GDACS": 0
      },
      "last7_score": 104.123,
      "prev7_score": 29.194,
      "trend": "up",
      "trend_arrow": "🔺",
      "change_pct": 256.7,
      "place": "Harghita, Romania"
    },
    {
      "lon": 24.25,
      "lat": 56.75,
      "type": "hotspot_cell",
      "score": 110.042,
      "count": 155,
      "cell_deg": 0.5,
      "sources": {
        "GDELT": 33,
        "GDELT_DOC": 0,
        "DIRECT_FEED": 122,
        "USGS": 0,
        "GDACS": 0
      },
      "last7_score": 108.69,
      "prev7_score": 1.352,
      "trend": "up",
      "trend_arrow": "🔺",
      "change_pct": 7938.6,
      "place": "Ķekavas novads, Latvia"
    },
    {
      "lon": 20.25,
      "lat": 47.25,
      "type": "hotspot_cell",
      "score": 100.374,
      "count": 282,
      "cell_deg": 0.5,
      "sources": {
        "GDELT": 282,
        "GDELT_DOC": 0,
        "DIRECT_FEED": 0,
        "USGS": 0,
        "GDACS": 0
      },
      "last7_score": 74.988,
      "prev7_score": 25.386,
      "trend": "up",
      "trend_arrow": "🔺",
      "change_pct": 195.4,
      "place": "Jász-Nagykun-Szolnok, Hungary"
    },
    {
      "lon": 21.25,
      "lat": 52.25,
      "type": "hotspot_cell",
      "score": 59.494,
      "count": 148,
      "cell_deg": 0.5,
      "sources": {
        "GDELT": 148,
        "GDELT_DOC": 0,
        "DIRECT_FEED": 0,
        "USGS": 0,
        "GDACS": 0
      },
      "last7_score": 46.725,
      "prev7_score": 12.769,
      "trend": "up",
      "trend_arrow": "🔺",
      "change_pct": 265.9,
      "place": "Warsaw, Poland"
    },
    {
      "lon": 27.75,
      "lat": 47.25,
      "type": "hotspot_cell",
      "score": 57.767,
      "count": 78,
      "cell_deg": 0.5,
      "sources": {
        "GDELT": 0,
        "GDELT_DOC": 78,
        "DIRECT_FEED": 0,
        "USGS": 0,
        "GDACS": 0
      },
      "last7_score": 57.767,
      "prev7_score": 0.0,
      "trend": "new",
      "trend_arrow": "🆕",
      "change_pct": null,
      "place": "Iași, Romania"
    }
  ]
}