{
  "generated_utc": "2026-05-29T09:44:46Z",
  "top": [
    {
      "lon": 14.25,
      "lat": 50.25,
      "type": "hotspot_cell",
      "score": 900.211,
      "count": 1523,
      "cell_deg": 0.5,
      "sources": {
        "GDELT": 145,
        "GDELT_DOC": 1360,
        "DIRECT_FEED": 18,
        "USGS": 0,
        "GDACS": 0
      },
      "last7_score": 887.752,
      "prev7_score": 12.458,
      "trend": "up",
      "trend_arrow": "🔺",
      "change_pct": 7025.7,
      "place": "SO ORP Kralupy nad Vltavou, Czechia"
    },
    {
      "lon": 25.25,
      "lat": 54.75,
      "type": "hotspot_cell",
      "score": 814.62,
      "count": 1276,
      "cell_deg": 0.5,
      "sources": {
        "GDELT": 103,
        "GDELT_DOC": 1171,
        "DIRECT_FEED": 2,
        "USGS": 0,
        "GDACS": 0
      },
      "last7_score": 802.374,
      "prev7_score": 12.246,
      "trend": "up",
      "trend_arrow": "🔺",
      "change_pct": 6452.1,
      "place": "Vilnius County, Lithuania"
    },
    {
      "lon": 26.25,
      "lat": 44.25,
      "type": "hotspot_cell",
      "score": 742.771,
      "count": 1182,
      "cell_deg": 0.5,
      "sources": {
        "GDELT": 130,
        "GDELT_DOC": 1046,
        "DIRECT_FEED": 6,
        "USGS": 0,
        "GDACS": 0
      },
      "last7_score": 734.209,
      "prev7_score": 8.562,
      "trend": "up",
      "trend_arrow": "🔺",
      "change_pct": 8475.6,
      "place": "Giurgiu, Romania"
    },
    {
      "lon": 20.25,
      "lat": 52.25,
      "type": "hotspot_cell",
      "score": 273.904,
      "count": 764,
      "cell_deg": 0.5,
      "sources": {
        "GDELT": 764,
        "GDELT_DOC": 0,
        "DIRECT_FEED": 0,
        "USGS": 0,
        "GDACS": 0
      },
      "last7_score": 190.175,
      "prev7_score": 83.728,
      "trend": "up",
      "trend_arrow": "🔺",
      "change_pct": 127.1,
      "place": "Sochaczew County, Poland"
    },
    {
      "lon": 19.25,
      "lat": 47.75,
      "type": "hotspot_cell",
      "score": 214.853,
      "count": 388,
      "cell_deg": 0.5,
      "sources": {
        "GDELT": 189,
        "GDELT_DOC": 0,
        "DIRECT_FEED": 199,
        "USGS": 0,
        "GDACS": 0
      },
      "last7_score": 198.966,
      "prev7_score": 15.887,
      "trend": "up",
      "trend_arrow": "🔺",
      "change_pct": 1152.4,
      "place": "Pest, Hungary"
    },
    {
      "lon": 25.25,
      "lat": 46.25,
      "type": "hotspot_cell",
      "score": 163.863,
      "count": 344,
      "cell_deg": 0.5,
      "sources": {
        "GDELT": 344,
        "GDELT_DOC": 0,
        "DIRECT_FEED": 0,
        "USGS": 0,
        "GDACS": 0
      },
      "last7_score": 138.446,
      "prev7_score": 25.417,
      "trend": "up",
      "trend_arrow": "🔺",
      "change_pct": 444.7,
      "place": "Harghita, Romania"
    },
    {
      "lon": 24.25,
      "lat": 56.75,
      "type": "hotspot_cell",
      "score": 121.923,
      "count": 180,
      "cell_deg": 0.5,
      "sources": {
        "GDELT": 53,
        "GDELT_DOC": 0,
        "DIRECT_FEED": 127,
        "USGS": 0,
        "GDACS": 0
      },
      "last7_score": 116.618,
      "prev7_score": 5.305,
      "trend": "up",
      "trend_arrow": "🔺",
      "change_pct": 2098.4,
      "place": "Ķekavas novads, Latvia"
    },
    {
      "lon": 20.25,
      "lat": 47.25,
      "type": "hotspot_cell",
      "score": 97.352,
      "count": 242,
      "cell_deg": 0.5,
      "sources": {
        "GDELT": 242,
        "GDELT_DOC": 0,
        "DIRECT_FEED": 0,
        "USGS": 0,
        "GDACS": 0
      },
      "last7_score": 77.473,
      "prev7_score": 19.878,
      "trend": "up",
      "trend_arrow": "🔺",
      "change_pct": 289.7,
      "place": "Jász-Nagykun-Szolnok, Hungary"
    },
    {
      "lon": 21.25,
      "lat": 52.25,
      "type": "hotspot_cell",
      "score": 86.716,
      "count": 242,
      "cell_deg": 0.5,
      "sources": {
        "GDELT": 242,
        "GDELT_DOC": 0,
        "DIRECT_FEED": 0,
        "USGS": 0,
        "GDACS": 0
      },
      "last7_score": 60.524,
      "prev7_score": 26.192,
      "trend": "up",
      "trend_arrow": "🔺",
      "change_pct": 131.1,
      "place": "Warsaw, Poland"
    },
    {
      "lon": 15.25,
      "lat": 49.75,
      "type": "hotspot_cell",
      "score": 68.597,
      "count": 161,
      "cell_deg": 0.5,
      "sources": {
        "GDELT": 161,
        "GDELT_DOC": 0,
        "DIRECT_FEED": 0,
        "USGS": 0,
        "GDACS": 0
      },
      "last7_score": 57.027,
      "prev7_score": 11.57,
      "trend": "up",
      "trend_arrow": "🔺",
      "change_pct": 392.9,
      "place": "Vysočina Region, Czechia"
    }
  ]
}