{
  "generated_utc": "2026-05-14T03:37:24Z",
  "top": [
    {
      "lon": 14.25,
      "lat": 50.25,
      "type": "hotspot_cell",
      "score": 897.95,
      "count": 1460,
      "cell_deg": 0.5,
      "sources": {
        "GDELT": 121,
        "GDELT_DOC": 1337,
        "DIRECT_FEED": 2,
        "USGS": 0,
        "GDACS": 0
      },
      "last7_score": 887.785,
      "prev7_score": 10.165,
      "trend": "up",
      "trend_arrow": "🔺",
      "change_pct": 8633.9,
      "place": "SO ORP Kralupy nad Vltavou, Czechia"
    },
    {
      "lon": 26.25,
      "lat": 44.25,
      "type": "hotspot_cell",
      "score": 867.833,
      "count": 1390,
      "cell_deg": 0.5,
      "sources": {
        "GDELT": 183,
        "GDELT_DOC": 1201,
        "DIRECT_FEED": 6,
        "USGS": 0,
        "GDACS": 0
      },
      "last7_score": 853.318,
      "prev7_score": 14.515,
      "trend": "up",
      "trend_arrow": "🔺",
      "change_pct": 5778.7,
      "place": "Giurgiu, Romania"
    },
    {
      "lon": 25.25,
      "lat": 54.75,
      "type": "hotspot_cell",
      "score": 639.664,
      "count": 1052,
      "cell_deg": 0.5,
      "sources": {
        "GDELT": 59,
        "GDELT_DOC": 993,
        "DIRECT_FEED": 0,
        "USGS": 0,
        "GDACS": 0
      },
      "last7_score": 634.699,
      "prev7_score": 4.965,
      "trend": "up",
      "trend_arrow": "🔺",
      "change_pct": 12682.8,
      "place": "Vilnius County, Lithuania"
    },
    {
      "lon": 19.25,
      "lat": 47.75,
      "type": "hotspot_cell",
      "score": 282.66,
      "count": 500,
      "cell_deg": 0.5,
      "sources": {
        "GDELT": 263,
        "GDELT_DOC": 0,
        "DIRECT_FEED": 237,
        "USGS": 0,
        "GDACS": 0
      },
      "last7_score": 264.238,
      "prev7_score": 18.423,
      "trend": "up",
      "trend_arrow": "🔺",
      "change_pct": 1334.3,
      "place": "Pest, Hungary"
    },
    {
      "lon": 20.25,
      "lat": 52.25,
      "type": "hotspot_cell",
      "score": 196.876,
      "count": 516,
      "cell_deg": 0.5,
      "sources": {
        "GDELT": 516,
        "GDELT_DOC": 0,
        "DIRECT_FEED": 0,
        "USGS": 0,
        "GDACS": 0
      },
      "last7_score": 147.654,
      "prev7_score": 49.221,
      "trend": "up",
      "trend_arrow": "🔺",
      "change_pct": 200.0,
      "place": "Sochaczew County, Poland"
    },
    {
      "lon": 20.25,
      "lat": 47.25,
      "type": "hotspot_cell",
      "score": 123.41,
      "count": 268,
      "cell_deg": 0.5,
      "sources": {
        "GDELT": 268,
        "GDELT_DOC": 0,
        "DIRECT_FEED": 0,
        "USGS": 0,
        "GDACS": 0
      },
      "last7_score": 104.1,
      "prev7_score": 19.309,
      "trend": "up",
      "trend_arrow": "🔺",
      "change_pct": 439.1,
      "place": "Jász-Nagykun-Szolnok, Hungary"
    },
    {
      "lon": 24.25,
      "lat": 56.75,
      "type": "hotspot_cell",
      "score": 121.275,
      "count": 177,
      "cell_deg": 0.5,
      "sources": {
        "GDELT": 29,
        "GDELT_DOC": 0,
        "DIRECT_FEED": 148,
        "USGS": 0,
        "GDACS": 0
      },
      "last7_score": 117.636,
      "prev7_score": 3.639,
      "trend": "up",
      "trend_arrow": "🔺",
      "change_pct": 3132.8,
      "place": "Ķekavas novads, Latvia"
    },
    {
      "lon": 25.25,
      "lat": 46.25,
      "type": "hotspot_cell",
      "score": 114.166,
      "count": 295,
      "cell_deg": 0.5,
      "sources": {
        "GDELT": 295,
        "GDELT_DOC": 0,
        "DIRECT_FEED": 0,
        "USGS": 0,
        "GDACS": 0
      },
      "last7_score": 87.176,
      "prev7_score": 26.99,
      "trend": "up",
      "trend_arrow": "🔺",
      "change_pct": 223.0,
      "place": "Harghita, Romania"
    },
    {
      "lon": 21.25,
      "lat": 52.25,
      "type": "hotspot_cell",
      "score": 73.275,
      "count": 171,
      "cell_deg": 0.5,
      "sources": {
        "GDELT": 171,
        "GDELT_DOC": 0,
        "DIRECT_FEED": 0,
        "USGS": 0,
        "GDACS": 0
      },
      "last7_score": 61.028,
      "prev7_score": 12.248,
      "trend": "up",
      "trend_arrow": "🔺",
      "change_pct": 398.3,
      "place": "Warsaw, Poland"
    },
    {
      "lon": 24.25,
      "lat": 56.25,
      "type": "hotspot_cell",
      "score": 58.213,
      "count": 122,
      "cell_deg": 0.5,
      "sources": {
        "GDELT": 122,
        "GDELT_DOC": 0,
        "DIRECT_FEED": 0,
        "USGS": 0,
        "GDACS": 0
      },
      "last7_score": 49.091,
      "prev7_score": 9.122,
      "trend": "up",
      "trend_arrow": "🔺",
      "change_pct": 438.2,
      "place": "Namišių seniūnija, Lithuania"
    }
  ]
}