{
  "generated_utc": "2026-05-11T19:56:00Z",
  "top": [
    {
      "lon": 26.25,
      "lat": 44.25,
      "type": "hotspot_cell",
      "score": 824.357,
      "count": 1275,
      "cell_deg": 0.5,
      "sources": {
        "GDELT": 156,
        "GDELT_DOC": 1108,
        "DIRECT_FEED": 11,
        "USGS": 0,
        "GDACS": 0
      },
      "last7_score": 818.664,
      "prev7_score": 5.693,
      "trend": "up",
      "trend_arrow": "🔺",
      "change_pct": 14280.8,
      "place": "Giurgiu, Romania"
    },
    {
      "lon": 14.25,
      "lat": 50.25,
      "type": "hotspot_cell",
      "score": 741.537,
      "count": 1246,
      "cell_deg": 0.5,
      "sources": {
        "GDELT": 150,
        "GDELT_DOC": 1093,
        "DIRECT_FEED": 3,
        "USGS": 0,
        "GDACS": 0
      },
      "last7_score": 731.82,
      "prev7_score": 9.718,
      "trend": "up",
      "trend_arrow": "🔺",
      "change_pct": 7430.8,
      "place": "SO ORP Kralupy nad Vltavou, Czechia"
    },
    {
      "lon": 25.25,
      "lat": 54.75,
      "type": "hotspot_cell",
      "score": 600.14,
      "count": 964,
      "cell_deg": 0.5,
      "sources": {
        "GDELT": 67,
        "GDELT_DOC": 897,
        "DIRECT_FEED": 0,
        "USGS": 0,
        "GDACS": 0
      },
      "last7_score": 596.899,
      "prev7_score": 3.241,
      "trend": "up",
      "trend_arrow": "🔺",
      "change_pct": 18316.0,
      "place": "Vilnius County, Lithuania"
    },
    {
      "lon": 19.25,
      "lat": 47.75,
      "type": "hotspot_cell",
      "score": 268.102,
      "count": 478,
      "cell_deg": 0.5,
      "sources": {
        "GDELT": 272,
        "GDELT_DOC": 0,
        "DIRECT_FEED": 206,
        "USGS": 0,
        "GDACS": 0
      },
      "last7_score": 258.705,
      "prev7_score": 9.397,
      "trend": "up",
      "trend_arrow": "🔺",
      "change_pct": 2653.1,
      "place": "Pest, Hungary"
    },
    {
      "lon": 20.25,
      "lat": 52.25,
      "type": "hotspot_cell",
      "score": 188.289,
      "count": 542,
      "cell_deg": 0.5,
      "sources": {
        "GDELT": 542,
        "GDELT_DOC": 0,
        "DIRECT_FEED": 0,
        "USGS": 0,
        "GDACS": 0
      },
      "last7_score": 155.123,
      "prev7_score": 33.166,
      "trend": "up",
      "trend_arrow": "🔺",
      "change_pct": 367.7,
      "place": "Sochaczew County, Poland"
    },
    {
      "lon": 20.25,
      "lat": 47.25,
      "type": "hotspot_cell",
      "score": 115.59,
      "count": 301,
      "cell_deg": 0.5,
      "sources": {
        "GDELT": 301,
        "GDELT_DOC": 0,
        "DIRECT_FEED": 0,
        "USGS": 0,
        "GDACS": 0
      },
      "last7_score": 99.341,
      "prev7_score": 16.249,
      "trend": "up",
      "trend_arrow": "🔺",
      "change_pct": 511.4,
      "place": "Jász-Nagykun-Szolnok, Hungary"
    },
    {
      "lon": 24.25,
      "lat": 56.75,
      "type": "hotspot_cell",
      "score": 99.465,
      "count": 157,
      "cell_deg": 0.5,
      "sources": {
        "GDELT": 28,
        "GDELT_DOC": 0,
        "DIRECT_FEED": 129,
        "USGS": 0,
        "GDACS": 0
      },
      "last7_score": 97.928,
      "prev7_score": 1.536,
      "trend": "up",
      "trend_arrow": "🔺",
      "change_pct": 6273.6,
      "place": "Ķekavas novads, Latvia"
    },
    {
      "lon": 25.25,
      "lat": 46.25,
      "type": "hotspot_cell",
      "score": 97.673,
      "count": 340,
      "cell_deg": 0.5,
      "sources": {
        "GDELT": 340,
        "GDELT_DOC": 0,
        "DIRECT_FEED": 0,
        "USGS": 0,
        "GDACS": 0
      },
      "last7_score": 75.989,
      "prev7_score": 21.684,
      "trend": "up",
      "trend_arrow": "🔺",
      "change_pct": 250.4,
      "place": "Harghita, Romania"
    },
    {
      "lon": 21.25,
      "lat": 52.25,
      "type": "hotspot_cell",
      "score": 69.428,
      "count": 184,
      "cell_deg": 0.5,
      "sources": {
        "GDELT": 184,
        "GDELT_DOC": 0,
        "DIRECT_FEED": 0,
        "USGS": 0,
        "GDACS": 0
      },
      "last7_score": 60.636,
      "prev7_score": 8.793,
      "trend": "up",
      "trend_arrow": "🔺",
      "change_pct": 589.6,
      "place": "Warsaw, Poland"
    },
    {
      "lon": 27.75,
      "lat": 47.25,
      "type": "hotspot_cell",
      "score": 59.004,
      "count": 96,
      "cell_deg": 0.5,
      "sources": {
        "GDELT": 0,
        "GDELT_DOC": 96,
        "DIRECT_FEED": 0,
        "USGS": 0,
        "GDACS": 0
      },
      "last7_score": 59.004,
      "prev7_score": 0.0,
      "trend": "new",
      "trend_arrow": "🆕",
      "change_pct": null,
      "place": "Iași, Romania"
    }
  ]
}