{
  "generated_utc": "2026-05-14T08:43:52Z",
  "top": [
    {
      "lon": 14.25,
      "lat": 50.25,
      "type": "hotspot_cell",
      "score": 937.946,
      "count": 1490,
      "cell_deg": 0.5,
      "sources": {
        "GDELT": 123,
        "GDELT_DOC": 1365,
        "DIRECT_FEED": 2,
        "USGS": 0,
        "GDACS": 0
      },
      "last7_score": 928.269,
      "prev7_score": 9.677,
      "trend": "up",
      "trend_arrow": "🔺",
      "change_pct": 9492.4,
      "place": "SO ORP Kralupy nad Vltavou, Czechia"
    },
    {
      "lon": 26.25,
      "lat": 44.25,
      "type": "hotspot_cell",
      "score": 832.126,
      "count": 1394,
      "cell_deg": 0.5,
      "sources": {
        "GDELT": 188,
        "GDELT_DOC": 1201,
        "DIRECT_FEED": 5,
        "USGS": 0,
        "GDACS": 0
      },
      "last7_score": 818.307,
      "prev7_score": 13.819,
      "trend": "up",
      "trend_arrow": "🔺",
      "change_pct": 5821.6,
      "place": "Giurgiu, Romania"
    },
    {
      "lon": 25.25,
      "lat": 54.75,
      "type": "hotspot_cell",
      "score": 613.872,
      "count": 1056,
      "cell_deg": 0.5,
      "sources": {
        "GDELT": 63,
        "GDELT_DOC": 993,
        "DIRECT_FEED": 0,
        "USGS": 0,
        "GDACS": 0
      },
      "last7_score": 609.145,
      "prev7_score": 4.727,
      "trend": "up",
      "trend_arrow": "🔺",
      "change_pct": 12786.5,
      "place": "Vilnius County, Lithuania"
    },
    {
      "lon": 19.25,
      "lat": 47.75,
      "type": "hotspot_cell",
      "score": 286.347,
      "count": 506,
      "cell_deg": 0.5,
      "sources": {
        "GDELT": 272,
        "GDELT_DOC": 0,
        "DIRECT_FEED": 234,
        "USGS": 0,
        "GDACS": 0
      },
      "last7_score": 268.808,
      "prev7_score": 17.539,
      "trend": "up",
      "trend_arrow": "🔺",
      "change_pct": 1432.6,
      "place": "Pest, Hungary"
    },
    {
      "lon": 20.25,
      "lat": 52.25,
      "type": "hotspot_cell",
      "score": 194.72,
      "count": 522,
      "cell_deg": 0.5,
      "sources": {
        "GDELT": 522,
        "GDELT_DOC": 0,
        "DIRECT_FEED": 0,
        "USGS": 0,
        "GDACS": 0
      },
      "last7_score": 147.86,
      "prev7_score": 46.86,
      "trend": "up",
      "trend_arrow": "🔺",
      "change_pct": 215.5,
      "place": "Sochaczew County, Poland"
    },
    {
      "lon": 20.25,
      "lat": 47.25,
      "type": "hotspot_cell",
      "score": 123.378,
      "count": 272,
      "cell_deg": 0.5,
      "sources": {
        "GDELT": 272,
        "GDELT_DOC": 0,
        "DIRECT_FEED": 0,
        "USGS": 0,
        "GDACS": 0
      },
      "last7_score": 104.995,
      "prev7_score": 18.383,
      "trend": "up",
      "trend_arrow": "🔺",
      "change_pct": 471.2,
      "place": "Jász-Nagykun-Szolnok, Hungary"
    },
    {
      "lon": 24.25,
      "lat": 56.75,
      "type": "hotspot_cell",
      "score": 122.163,
      "count": 174,
      "cell_deg": 0.5,
      "sources": {
        "GDELT": 31,
        "GDELT_DOC": 0,
        "DIRECT_FEED": 143,
        "USGS": 0,
        "GDACS": 0
      },
      "last7_score": 118.699,
      "prev7_score": 3.464,
      "trend": "up",
      "trend_arrow": "🔺",
      "change_pct": 3326.4,
      "place": "Ķekavas novads, Latvia"
    },
    {
      "lon": 25.25,
      "lat": 46.25,
      "type": "hotspot_cell",
      "score": 112.394,
      "count": 298,
      "cell_deg": 0.5,
      "sources": {
        "GDELT": 298,
        "GDELT_DOC": 0,
        "DIRECT_FEED": 0,
        "USGS": 0,
        "GDACS": 0
      },
      "last7_score": 86.699,
      "prev7_score": 25.695,
      "trend": "up",
      "trend_arrow": "🔺",
      "change_pct": 237.4,
      "place": "Harghita, Romania"
    },
    {
      "lon": 21.25,
      "lat": 52.25,
      "type": "hotspot_cell",
      "score": 76.094,
      "count": 176,
      "cell_deg": 0.5,
      "sources": {
        "GDELT": 176,
        "GDELT_DOC": 0,
        "DIRECT_FEED": 0,
        "USGS": 0,
        "GDACS": 0
      },
      "last7_score": 64.434,
      "prev7_score": 11.66,
      "trend": "up",
      "trend_arrow": "🔺",
      "change_pct": 452.6,
      "place": "Warsaw, Poland"
    },
    {
      "lon": 24.25,
      "lat": 56.25,
      "type": "hotspot_cell",
      "score": 57.81,
      "count": 124,
      "cell_deg": 0.5,
      "sources": {
        "GDELT": 124,
        "GDELT_DOC": 0,
        "DIRECT_FEED": 0,
        "USGS": 0,
        "GDACS": 0
      },
      "last7_score": 49.126,
      "prev7_score": 8.684,
      "trend": "up",
      "trend_arrow": "🔺",
      "change_pct": 465.7,
      "place": "Namišių seniūnija, Lithuania"
    }
  ]
}