{
  "generated_utc": "2026-03-22T02:27:38Z",
  "top": [
    {
      "lon": 14.25,
      "lat": 50.25,
      "type": "hotspot_cell",
      "score": 745.293,
      "count": 1335,
      "cell_deg": 0.5,
      "sources": {
        "GDELT": 116,
        "GDELT_DOC": 1216,
        "DIRECT_FEED": 3,
        "USGS": 0,
        "GDACS": 0
      },
      "last7_score": 737.899,
      "prev7_score": 7.394,
      "trend": "up",
      "trend_arrow": "🔺",
      "change_pct": 9879.7,
      "place": "SO ORP Kralupy nad Vltavou, Czechia"
    },
    {
      "lon": 26.25,
      "lat": 44.25,
      "type": "hotspot_cell",
      "score": 687.316,
      "count": 1265,
      "cell_deg": 0.5,
      "sources": {
        "GDELT": 182,
        "GDELT_DOC": 1083,
        "DIRECT_FEED": 0,
        "USGS": 0,
        "GDACS": 0
      },
      "last7_score": 672.782,
      "prev7_score": 14.535,
      "trend": "up",
      "trend_arrow": "🔺",
      "change_pct": 4528.8,
      "place": "Giurgiu, Romania"
    },
    {
      "lon": 25.25,
      "lat": 54.75,
      "type": "hotspot_cell",
      "score": 623.16,
      "count": 955,
      "cell_deg": 0.5,
      "sources": {
        "GDELT": 87,
        "GDELT_DOC": 868,
        "DIRECT_FEED": 0,
        "USGS": 0,
        "GDACS": 0
      },
      "last7_score": 618.151,
      "prev7_score": 5.01,
      "trend": "up",
      "trend_arrow": "🔺",
      "change_pct": 12239.3,
      "place": "Vilnius County, Lithuania"
    },
    {
      "lon": 19.25,
      "lat": 47.75,
      "type": "hotspot_cell",
      "score": 274.515,
      "count": 584,
      "cell_deg": 0.5,
      "sources": {
        "GDELT": 361,
        "GDELT_DOC": 0,
        "DIRECT_FEED": 223,
        "USGS": 0,
        "GDACS": 0
      },
      "last7_score": 247.225,
      "prev7_score": 27.289,
      "trend": "up",
      "trend_arrow": "🔺",
      "change_pct": 805.9,
      "place": "Pest, Hungary"
    },
    {
      "lon": 20.25,
      "lat": 52.25,
      "type": "hotspot_cell",
      "score": 158.289,
      "count": 411,
      "cell_deg": 0.5,
      "sources": {
        "GDELT": 411,
        "GDELT_DOC": 0,
        "DIRECT_FEED": 0,
        "USGS": 0,
        "GDACS": 0
      },
      "last7_score": 132.982,
      "prev7_score": 25.307,
      "trend": "up",
      "trend_arrow": "🔺",
      "change_pct": 425.5,
      "place": "Sochaczew County, Poland"
    },
    {
      "lon": 20.25,
      "lat": 47.25,
      "type": "hotspot_cell",
      "score": 155.346,
      "count": 402,
      "cell_deg": 0.5,
      "sources": {
        "GDELT": 402,
        "GDELT_DOC": 0,
        "DIRECT_FEED": 0,
        "USGS": 0,
        "GDACS": 0
      },
      "last7_score": 126.357,
      "prev7_score": 28.989,
      "trend": "up",
      "trend_arrow": "🔺",
      "change_pct": 335.9,
      "place": "Jász-Nagykun-Szolnok, Hungary"
    },
    {
      "lon": 25.25,
      "lat": 46.25,
      "type": "hotspot_cell",
      "score": 111.079,
      "count": 323,
      "cell_deg": 0.5,
      "sources": {
        "GDELT": 323,
        "GDELT_DOC": 0,
        "DIRECT_FEED": 0,
        "USGS": 0,
        "GDACS": 0
      },
      "last7_score": 91.414,
      "prev7_score": 19.665,
      "trend": "up",
      "trend_arrow": "🔺",
      "change_pct": 364.9,
      "place": "Harghita, Romania"
    },
    {
      "lon": 24.25,
      "lat": 56.75,
      "type": "hotspot_cell",
      "score": 109.838,
      "count": 169,
      "cell_deg": 0.5,
      "sources": {
        "GDELT": 35,
        "GDELT_DOC": 0,
        "DIRECT_FEED": 134,
        "USGS": 0,
        "GDACS": 0
      },
      "last7_score": 107.461,
      "prev7_score": 2.377,
      "trend": "up",
      "trend_arrow": "🔺",
      "change_pct": 4420.6,
      "place": "Ķekavas novads, Latvia"
    },
    {
      "lon": 15.25,
      "lat": 49.75,
      "type": "hotspot_cell",
      "score": 73.008,
      "count": 166,
      "cell_deg": 0.5,
      "sources": {
        "GDELT": 166,
        "GDELT_DOC": 0,
        "DIRECT_FEED": 0,
        "USGS": 0,
        "GDACS": 0
      },
      "last7_score": 64.923,
      "prev7_score": 8.085,
      "trend": "up",
      "trend_arrow": "🔺",
      "change_pct": 703.0,
      "place": "Vysočina Region, Czechia"
    },
    {
      "lon": 21.25,
      "lat": 52.25,
      "type": "hotspot_cell",
      "score": 61.575,
      "count": 182,
      "cell_deg": 0.5,
      "sources": {
        "GDELT": 182,
        "GDELT_DOC": 0,
        "DIRECT_FEED": 0,
        "USGS": 0,
        "GDACS": 0
      },
      "last7_score": 46.522,
      "prev7_score": 15.052,
      "trend": "up",
      "trend_arrow": "🔺",
      "change_pct": 209.1,
      "place": "Warsaw, Poland"
    }
  ]
}