{
  "generated_utc": "2026-06-02T16:10:06Z",
  "top": [
    {
      "lon": 14.25,
      "lat": 50.25,
      "type": "hotspot_cell",
      "score": 744.562,
      "count": 1284,
      "cell_deg": 0.5,
      "sources": {
        "GDELT": 151,
        "GDELT_DOC": 1127,
        "DIRECT_FEED": 6,
        "USGS": 0,
        "GDACS": 0
      },
      "last7_score": 733.716,
      "prev7_score": 10.846,
      "trend": "up",
      "trend_arrow": "🔺",
      "change_pct": 6665.1,
      "place": "SO ORP Kralupy nad Vltavou, Czechia"
    },
    {
      "lon": 25.25,
      "lat": 54.75,
      "type": "hotspot_cell",
      "score": 658.828,
      "count": 1224,
      "cell_deg": 0.5,
      "sources": {
        "GDELT": 119,
        "GDELT_DOC": 1104,
        "DIRECT_FEED": 1,
        "USGS": 0,
        "GDACS": 0
      },
      "last7_score": 651.586,
      "prev7_score": 7.243,
      "trend": "up",
      "trend_arrow": "🔺",
      "change_pct": 8896.2,
      "place": "Vilnius County, Lithuania"
    },
    {
      "lon": 26.25,
      "lat": 44.25,
      "type": "hotspot_cell",
      "score": 626.682,
      "count": 1129,
      "cell_deg": 0.5,
      "sources": {
        "GDELT": 223,
        "GDELT_DOC": 895,
        "DIRECT_FEED": 11,
        "USGS": 0,
        "GDACS": 0
      },
      "last7_score": 617.221,
      "prev7_score": 9.46,
      "trend": "up",
      "trend_arrow": "🔺",
      "change_pct": 6424.2,
      "place": "Giurgiu, Romania"
    },
    {
      "lon": 20.25,
      "lat": 52.25,
      "type": "hotspot_cell",
      "score": 236.172,
      "count": 792,
      "cell_deg": 0.5,
      "sources": {
        "GDELT": 792,
        "GDELT_DOC": 0,
        "DIRECT_FEED": 0,
        "USGS": 0,
        "GDACS": 0
      },
      "last7_score": 181.488,
      "prev7_score": 54.683,
      "trend": "up",
      "trend_arrow": "🔺",
      "change_pct": 231.9,
      "place": "Sochaczew County, Poland"
    },
    {
      "lon": 19.25,
      "lat": 47.75,
      "type": "hotspot_cell",
      "score": 217.494,
      "count": 427,
      "cell_deg": 0.5,
      "sources": {
        "GDELT": 234,
        "GDELT_DOC": 0,
        "DIRECT_FEED": 193,
        "USGS": 0,
        "GDACS": 0
      },
      "last7_score": 207.934,
      "prev7_score": 9.56,
      "trend": "up",
      "trend_arrow": "🔺",
      "change_pct": 2075.0,
      "place": "Pest, Hungary"
    },
    {
      "lon": 25.25,
      "lat": 46.25,
      "type": "hotspot_cell",
      "score": 197.994,
      "count": 458,
      "cell_deg": 0.5,
      "sources": {
        "GDELT": 458,
        "GDELT_DOC": 0,
        "DIRECT_FEED": 0,
        "USGS": 0,
        "GDACS": 0
      },
      "last7_score": 175.892,
      "prev7_score": 22.101,
      "trend": "up",
      "trend_arrow": "🔺",
      "change_pct": 695.9,
      "place": "Harghita, Romania"
    },
    {
      "lon": 24.25,
      "lat": 56.75,
      "type": "hotspot_cell",
      "score": 119.528,
      "count": 191,
      "cell_deg": 0.5,
      "sources": {
        "GDELT": 51,
        "GDELT_DOC": 0,
        "DIRECT_FEED": 140,
        "USGS": 0,
        "GDACS": 0
      },
      "last7_score": 116.788,
      "prev7_score": 2.74,
      "trend": "up",
      "trend_arrow": "🔺",
      "change_pct": 4162.8,
      "place": "Ķekavas novads, Latvia"
    },
    {
      "lon": 20.25,
      "lat": 47.25,
      "type": "hotspot_cell",
      "score": 101.769,
      "count": 265,
      "cell_deg": 0.5,
      "sources": {
        "GDELT": 265,
        "GDELT_DOC": 0,
        "DIRECT_FEED": 0,
        "USGS": 0,
        "GDACS": 0
      },
      "last7_score": 88.404,
      "prev7_score": 13.365,
      "trend": "up",
      "trend_arrow": "🔺",
      "change_pct": 561.5,
      "place": "Jász-Nagykun-Szolnok, Hungary"
    },
    {
      "lon": 21.25,
      "lat": 52.25,
      "type": "hotspot_cell",
      "score": 88.886,
      "count": 272,
      "cell_deg": 0.5,
      "sources": {
        "GDELT": 272,
        "GDELT_DOC": 0,
        "DIRECT_FEED": 0,
        "USGS": 0,
        "GDACS": 0
      },
      "last7_score": 73.4,
      "prev7_score": 15.486,
      "trend": "up",
      "trend_arrow": "🔺",
      "change_pct": 374.0,
      "place": "Warsaw, Poland"
    },
    {
      "lon": 15.25,
      "lat": 49.75,
      "type": "hotspot_cell",
      "score": 58.982,
      "count": 165,
      "cell_deg": 0.5,
      "sources": {
        "GDELT": 165,
        "GDELT_DOC": 0,
        "DIRECT_FEED": 0,
        "USGS": 0,
        "GDACS": 0
      },
      "last7_score": 50.47,
      "prev7_score": 8.512,
      "trend": "up",
      "trend_arrow": "🔺",
      "change_pct": 492.9,
      "place": "Vysočina Region, Czechia"
    }
  ]
}