{
  "generated_utc": "2026-04-01T07:27:21Z",
  "top": [
    {
      "lon": 14.25,
      "lat": 50.25,
      "type": "hotspot_cell",
      "score": 1019.377,
      "count": 1656,
      "cell_deg": 0.5,
      "sources": {
        "GDELT": 120,
        "GDELT_DOC": 1533,
        "DIRECT_FEED": 3,
        "USGS": 0,
        "GDACS": 0
      },
      "last7_score": 1011.338,
      "prev7_score": 8.039,
      "trend": "up",
      "trend_arrow": "🔺",
      "change_pct": 12479.9,
      "place": "SO ORP Kralupy nad Vltavou, Czechia"
    },
    {
      "lon": 26.25,
      "lat": 44.25,
      "type": "hotspot_cell",
      "score": 843.29,
      "count": 1302,
      "cell_deg": 0.5,
      "sources": {
        "GDELT": 140,
        "GDELT_DOC": 1158,
        "DIRECT_FEED": 4,
        "USGS": 0,
        "GDACS": 0
      },
      "last7_score": 831.198,
      "prev7_score": 12.091,
      "trend": "up",
      "trend_arrow": "🔺",
      "change_pct": 6774.3,
      "place": "Giurgiu, Romania"
    },
    {
      "lon": 25.25,
      "lat": 54.75,
      "type": "hotspot_cell",
      "score": 717.817,
      "count": 1160,
      "cell_deg": 0.5,
      "sources": {
        "GDELT": 89,
        "GDELT_DOC": 1071,
        "DIRECT_FEED": 0,
        "USGS": 0,
        "GDACS": 0
      },
      "last7_score": 710.643,
      "prev7_score": 7.174,
      "trend": "up",
      "trend_arrow": "🔺",
      "change_pct": 9805.6,
      "place": "Vilnius County, Lithuania"
    },
    {
      "lon": 19.25,
      "lat": 47.75,
      "type": "hotspot_cell",
      "score": 245.279,
      "count": 506,
      "cell_deg": 0.5,
      "sources": {
        "GDELT": 290,
        "GDELT_DOC": 0,
        "DIRECT_FEED": 216,
        "USGS": 0,
        "GDACS": 0
      },
      "last7_score": 221.178,
      "prev7_score": 24.101,
      "trend": "up",
      "trend_arrow": "🔺",
      "change_pct": 817.7,
      "place": "Pest, Hungary"
    },
    {
      "lon": 20.25,
      "lat": 52.25,
      "type": "hotspot_cell",
      "score": 180.611,
      "count": 441,
      "cell_deg": 0.5,
      "sources": {
        "GDELT": 441,
        "GDELT_DOC": 0,
        "DIRECT_FEED": 0,
        "USGS": 0,
        "GDACS": 0
      },
      "last7_score": 151.348,
      "prev7_score": 29.263,
      "trend": "up",
      "trend_arrow": "🔺",
      "change_pct": 417.2,
      "place": "Sochaczew County, Poland"
    },
    {
      "lon": 20.25,
      "lat": 47.25,
      "type": "hotspot_cell",
      "score": 120.288,
      "count": 355,
      "cell_deg": 0.5,
      "sources": {
        "GDELT": 355,
        "GDELT_DOC": 0,
        "DIRECT_FEED": 0,
        "USGS": 0,
        "GDACS": 0
      },
      "last7_score": 90.585,
      "prev7_score": 29.704,
      "trend": "up",
      "trend_arrow": "🔺",
      "change_pct": 205.0,
      "place": "Jász-Nagykun-Szolnok, Hungary"
    },
    {
      "lon": 24.25,
      "lat": 56.75,
      "type": "hotspot_cell",
      "score": 119.541,
      "count": 192,
      "cell_deg": 0.5,
      "sources": {
        "GDELT": 43,
        "GDELT_DOC": 0,
        "DIRECT_FEED": 149,
        "USGS": 0,
        "GDACS": 0
      },
      "last7_score": 115.7,
      "prev7_score": 3.841,
      "trend": "up",
      "trend_arrow": "🔺",
      "change_pct": 2912.5,
      "place": "Ķekavas novads, Latvia"
    },
    {
      "lon": 25.25,
      "lat": 46.25,
      "type": "hotspot_cell",
      "score": 107.796,
      "count": 305,
      "cell_deg": 0.5,
      "sources": {
        "GDELT": 305,
        "GDELT_DOC": 0,
        "DIRECT_FEED": 0,
        "USGS": 0,
        "GDACS": 0
      },
      "last7_score": 79.211,
      "prev7_score": 28.585,
      "trend": "up",
      "trend_arrow": "🔺",
      "change_pct": 177.1,
      "place": "Harghita, Romania"
    },
    {
      "lon": 27.75,
      "lat": 47.25,
      "type": "hotspot_cell",
      "score": 55.852,
      "count": 89,
      "cell_deg": 0.5,
      "sources": {
        "GDELT": 0,
        "GDELT_DOC": 89,
        "DIRECT_FEED": 0,
        "USGS": 0,
        "GDACS": 0
      },
      "last7_score": 55.852,
      "prev7_score": 0.0,
      "trend": "new",
      "trend_arrow": "🆕",
      "change_pct": null,
      "place": "Iași, Romania"
    },
    {
      "lon": 15.25,
      "lat": 49.75,
      "type": "hotspot_cell",
      "score": 52.078,
      "count": 168,
      "cell_deg": 0.5,
      "sources": {
        "GDELT": 168,
        "GDELT_DOC": 0,
        "DIRECT_FEED": 0,
        "USGS": 0,
        "GDACS": 0
      },
      "last7_score": 38.477,
      "prev7_score": 13.6,
      "trend": "up",
      "trend_arrow": "🔺",
      "change_pct": 182.9,
      "place": "Vysočina Region, Czechia"
    }
  ]
}