{
  "generated_utc": "2026-07-20T02:14:31Z",
  "top": [
    {
      "lon": 14.25,
      "lat": 50.25,
      "type": "hotspot_cell",
      "score": 597.996,
      "count": 1071,
      "cell_deg": 0.5,
      "sources": {
        "GDELT": 99,
        "GDELT_DOC": 969,
        "DIRECT_FEED": 3,
        "USGS": 0,
        "GDACS": 0
      },
      "last7_score": 592.435,
      "prev7_score": 5.561,
      "trend": "up",
      "trend_arrow": "🔺",
      "change_pct": 10552.6,
      "place": "SO ORP Kralupy nad Vltavou, Czechia"
    },
    {
      "lon": 26.25,
      "lat": 44.25,
      "type": "hotspot_cell",
      "score": 468.23,
      "count": 840,
      "cell_deg": 0.5,
      "sources": {
        "GDELT": 106,
        "GDELT_DOC": 730,
        "DIRECT_FEED": 4,
        "USGS": 0,
        "GDACS": 0
      },
      "last7_score": 461.896,
      "prev7_score": 6.334,
      "trend": "up",
      "trend_arrow": "🔺",
      "change_pct": 7192.3,
      "place": "Giurgiu, Romania"
    },
    {
      "lon": 25.25,
      "lat": 54.75,
      "type": "hotspot_cell",
      "score": 420.52,
      "count": 690,
      "cell_deg": 0.5,
      "sources": {
        "GDELT": 77,
        "GDELT_DOC": 613,
        "DIRECT_FEED": 0,
        "USGS": 0,
        "GDACS": 0
      },
      "last7_score": 414.238,
      "prev7_score": 6.282,
      "trend": "up",
      "trend_arrow": "🔺",
      "change_pct": 6494.3,
      "place": "Vilnius County, Lithuania"
    },
    {
      "lon": 19.25,
      "lat": 47.75,
      "type": "hotspot_cell",
      "score": 169.606,
      "count": 362,
      "cell_deg": 0.5,
      "sources": {
        "GDELT": 170,
        "GDELT_DOC": 0,
        "DIRECT_FEED": 192,
        "USGS": 0,
        "GDACS": 0
      },
      "last7_score": 155.574,
      "prev7_score": 14.031,
      "trend": "up",
      "trend_arrow": "🔺",
      "change_pct": 1008.8,
      "place": "Pest, Hungary"
    },
    {
      "lon": 25.25,
      "lat": 46.25,
      "type": "hotspot_cell",
      "score": 162.315,
      "count": 402,
      "cell_deg": 0.5,
      "sources": {
        "GDELT": 402,
        "GDELT_DOC": 0,
        "DIRECT_FEED": 0,
        "USGS": 0,
        "GDACS": 0
      },
      "last7_score": 136.473,
      "prev7_score": 25.841,
      "trend": "up",
      "trend_arrow": "🔺",
      "change_pct": 428.1,
      "place": "Harghita, Romania"
    },
    {
      "lon": 20.25,
      "lat": 52.25,
      "type": "hotspot_cell",
      "score": 145.806,
      "count": 441,
      "cell_deg": 0.5,
      "sources": {
        "GDELT": 441,
        "GDELT_DOC": 0,
        "DIRECT_FEED": 0,
        "USGS": 0,
        "GDACS": 0
      },
      "last7_score": 112.55,
      "prev7_score": 33.256,
      "trend": "up",
      "trend_arrow": "🔺",
      "change_pct": 238.4,
      "place": "Sochaczew County, Poland"
    },
    {
      "lon": 24.25,
      "lat": 56.75,
      "type": "hotspot_cell",
      "score": 97.31,
      "count": 157,
      "cell_deg": 0.5,
      "sources": {
        "GDELT": 17,
        "GDELT_DOC": 0,
        "DIRECT_FEED": 140,
        "USGS": 0,
        "GDACS": 0
      },
      "last7_score": 96.216,
      "prev7_score": 1.094,
      "trend": "up",
      "trend_arrow": "🔺",
      "change_pct": 8692.2,
      "place": "Ķekavas novads, Latvia"
    },
    {
      "lon": 21.25,
      "lat": 52.25,
      "type": "hotspot_cell",
      "score": 70.76,
      "count": 215,
      "cell_deg": 0.5,
      "sources": {
        "GDELT": 215,
        "GDELT_DOC": 0,
        "DIRECT_FEED": 0,
        "USGS": 0,
        "GDACS": 0
      },
      "last7_score": 55.824,
      "prev7_score": 14.936,
      "trend": "up",
      "trend_arrow": "🔺",
      "change_pct": 273.7,
      "place": "Warsaw, Poland"
    },
    {
      "lon": 20.25,
      "lat": 47.25,
      "type": "hotspot_cell",
      "score": 68.316,
      "count": 197,
      "cell_deg": 0.5,
      "sources": {
        "GDELT": 197,
        "GDELT_DOC": 0,
        "DIRECT_FEED": 0,
        "USGS": 0,
        "GDACS": 0
      },
      "last7_score": 54.23,
      "prev7_score": 14.086,
      "trend": "up",
      "trend_arrow": "🔺",
      "change_pct": 285.0,
      "place": "Jász-Nagykun-Szolnok, Hungary"
    },
    {
      "lon": 15.25,
      "lat": 49.75,
      "type": "hotspot_cell",
      "score": 43.94,
      "count": 146,
      "cell_deg": 0.5,
      "sources": {
        "GDELT": 146,
        "GDELT_DOC": 0,
        "DIRECT_FEED": 0,
        "USGS": 0,
        "GDACS": 0
      },
      "last7_score": 32.355,
      "prev7_score": 11.585,
      "trend": "up",
      "trend_arrow": "🔺",
      "change_pct": 179.3,
      "place": "Vysočina Region, Czechia"
    }
  ]
}