{
  "generated_utc": "2026-06-21T09:43:23Z",
  "top": [
    {
      "lon": 26.25,
      "lat": 44.25,
      "type": "hotspot_cell",
      "score": 513.577,
      "count": 923,
      "cell_deg": 0.5,
      "sources": {
        "GDELT": 154,
        "GDELT_DOC": 765,
        "DIRECT_FEED": 4,
        "USGS": 0,
        "GDACS": 0
      },
      "last7_score": 503.187,
      "prev7_score": 10.39,
      "trend": "up",
      "trend_arrow": "🔺",
      "change_pct": 4743.0,
      "place": "Giurgiu, Romania"
    },
    {
      "lon": 25.25,
      "lat": 54.75,
      "type": "hotspot_cell",
      "score": 486.5,
      "count": 878,
      "cell_deg": 0.5,
      "sources": {
        "GDELT": 54,
        "GDELT_DOC": 823,
        "DIRECT_FEED": 1,
        "USGS": 0,
        "GDACS": 0
      },
      "last7_score": 483.675,
      "prev7_score": 2.825,
      "trend": "up",
      "trend_arrow": "🔺",
      "change_pct": 17020.9,
      "place": "Vilnius County, Lithuania"
    },
    {
      "lon": 14.25,
      "lat": 50.25,
      "type": "hotspot_cell",
      "score": 356.726,
      "count": 603,
      "cell_deg": 0.5,
      "sources": {
        "GDELT": 100,
        "GDELT_DOC": 494,
        "DIRECT_FEED": 9,
        "USGS": 0,
        "GDACS": 0
      },
      "last7_score": 350.036,
      "prev7_score": 6.69,
      "trend": "up",
      "trend_arrow": "🔺",
      "change_pct": 5132.3,
      "place": "SO ORP Kralupy nad Vltavou, Czechia"
    },
    {
      "lon": 20.25,
      "lat": 52.25,
      "type": "hotspot_cell",
      "score": 174.697,
      "count": 463,
      "cell_deg": 0.5,
      "sources": {
        "GDELT": 463,
        "GDELT_DOC": 0,
        "DIRECT_FEED": 0,
        "USGS": 0,
        "GDACS": 0
      },
      "last7_score": 148.932,
      "prev7_score": 25.765,
      "trend": "up",
      "trend_arrow": "🔺",
      "change_pct": 478.0,
      "place": "Sochaczew County, Poland"
    },
    {
      "lon": 19.25,
      "lat": 47.75,
      "type": "hotspot_cell",
      "score": 160.809,
      "count": 325,
      "cell_deg": 0.5,
      "sources": {
        "GDELT": 159,
        "GDELT_DOC": 0,
        "DIRECT_FEED": 166,
        "USGS": 0,
        "GDACS": 0
      },
      "last7_score": 151.087,
      "prev7_score": 9.722,
      "trend": "up",
      "trend_arrow": "🔺",
      "change_pct": 1454.1,
      "place": "Pest, Hungary"
    },
    {
      "lon": 25.25,
      "lat": 46.25,
      "type": "hotspot_cell",
      "score": 135.648,
      "count": 411,
      "cell_deg": 0.5,
      "sources": {
        "GDELT": 411,
        "GDELT_DOC": 0,
        "DIRECT_FEED": 0,
        "USGS": 0,
        "GDACS": 0
      },
      "last7_score": 113.032,
      "prev7_score": 22.615,
      "trend": "up",
      "trend_arrow": "🔺",
      "change_pct": 399.8,
      "place": "Harghita, Romania"
    },
    {
      "lon": 21.25,
      "lat": 52.25,
      "type": "hotspot_cell",
      "score": 133.663,
      "count": 255,
      "cell_deg": 0.5,
      "sources": {
        "GDELT": 255,
        "GDELT_DOC": 0,
        "DIRECT_FEED": 0,
        "USGS": 0,
        "GDACS": 0
      },
      "last7_score": 124.247,
      "prev7_score": 9.415,
      "trend": "up",
      "trend_arrow": "🔺",
      "change_pct": 1219.6,
      "place": "Warsaw, Poland"
    },
    {
      "lon": 24.25,
      "lat": 56.75,
      "type": "hotspot_cell",
      "score": 102.032,
      "count": 170,
      "cell_deg": 0.5,
      "sources": {
        "GDELT": 34,
        "GDELT_DOC": 0,
        "DIRECT_FEED": 136,
        "USGS": 0,
        "GDACS": 0
      },
      "last7_score": 100.004,
      "prev7_score": 2.028,
      "trend": "up",
      "trend_arrow": "🔺",
      "change_pct": 4830.9,
      "place": "Ķekavas novads, Latvia"
    },
    {
      "lon": 20.25,
      "lat": 47.25,
      "type": "hotspot_cell",
      "score": 80.08,
      "count": 241,
      "cell_deg": 0.5,
      "sources": {
        "GDELT": 241,
        "GDELT_DOC": 0,
        "DIRECT_FEED": 0,
        "USGS": 0,
        "GDACS": 0
      },
      "last7_score": 65.096,
      "prev7_score": 14.983,
      "trend": "up",
      "trend_arrow": "🔺",
      "change_pct": 334.5,
      "place": "Jász-Nagykun-Szolnok, Hungary"
    },
    {
      "lon": 15.25,
      "lat": 49.75,
      "type": "hotspot_cell",
      "score": 56.243,
      "count": 147,
      "cell_deg": 0.5,
      "sources": {
        "GDELT": 147,
        "GDELT_DOC": 0,
        "DIRECT_FEED": 0,
        "USGS": 0,
        "GDACS": 0
      },
      "last7_score": 47.192,
      "prev7_score": 9.052,
      "trend": "up",
      "trend_arrow": "🔺",
      "change_pct": 421.3,
      "place": "Vysočina Region, Czechia"
    }
  ]
}