{
  "generated_utc": "2026-04-28T08:35:25Z",
  "top": [
    {
      "lon": 14.25,
      "lat": 50.25,
      "type": "hotspot_cell",
      "score": 978.894,
      "count": 1799,
      "cell_deg": 0.5,
      "sources": {
        "GDELT": 190,
        "GDELT_DOC": 1608,
        "DIRECT_FEED": 1,
        "USGS": 0,
        "GDACS": 0
      },
      "last7_score": 964.863,
      "prev7_score": 14.032,
      "trend": "up",
      "trend_arrow": "🔺",
      "change_pct": 6776.3,
      "place": "SO ORP Kralupy nad Vltavou, Czechia"
    },
    {
      "lon": 26.25,
      "lat": 44.25,
      "type": "hotspot_cell",
      "score": 952.267,
      "count": 1605,
      "cell_deg": 0.5,
      "sources": {
        "GDELT": 145,
        "GDELT_DOC": 1453,
        "DIRECT_FEED": 7,
        "USGS": 0,
        "GDACS": 0
      },
      "last7_score": 939.992,
      "prev7_score": 12.275,
      "trend": "up",
      "trend_arrow": "🔺",
      "change_pct": 7557.7,
      "place": "Giurgiu, Romania"
    },
    {
      "lon": 25.25,
      "lat": 54.75,
      "type": "hotspot_cell",
      "score": 677.506,
      "count": 1174,
      "cell_deg": 0.5,
      "sources": {
        "GDELT": 66,
        "GDELT_DOC": 1108,
        "DIRECT_FEED": 0,
        "USGS": 0,
        "GDACS": 0
      },
      "last7_score": 672.963,
      "prev7_score": 4.543,
      "trend": "up",
      "trend_arrow": "🔺",
      "change_pct": 14714.0,
      "place": "Vilnius County, Lithuania"
    },
    {
      "lon": 19.25,
      "lat": 47.75,
      "type": "hotspot_cell",
      "score": 265.729,
      "count": 686,
      "cell_deg": 0.5,
      "sources": {
        "GDELT": 459,
        "GDELT_DOC": 0,
        "DIRECT_FEED": 227,
        "USGS": 0,
        "GDACS": 0
      },
      "last7_score": 223.404,
      "prev7_score": 42.325,
      "trend": "up",
      "trend_arrow": "🔺",
      "change_pct": 427.8,
      "place": "Pest, Hungary"
    },
    {
      "lon": 20.25,
      "lat": 47.25,
      "type": "hotspot_cell",
      "score": 187.04,
      "count": 614,
      "cell_deg": 0.5,
      "sources": {
        "GDELT": 614,
        "GDELT_DOC": 0,
        "DIRECT_FEED": 0,
        "USGS": 0,
        "GDACS": 0
      },
      "last7_score": 137.734,
      "prev7_score": 49.306,
      "trend": "up",
      "trend_arrow": "🔺",
      "change_pct": 179.3,
      "place": "Jász-Nagykun-Szolnok, Hungary"
    },
    {
      "lon": 20.25,
      "lat": 52.25,
      "type": "hotspot_cell",
      "score": 155.527,
      "count": 440,
      "cell_deg": 0.5,
      "sources": {
        "GDELT": 440,
        "GDELT_DOC": 0,
        "DIRECT_FEED": 0,
        "USGS": 0,
        "GDACS": 0
      },
      "last7_score": 124.411,
      "prev7_score": 31.116,
      "trend": "up",
      "trend_arrow": "🔺",
      "change_pct": 299.8,
      "place": "Sochaczew County, Poland"
    },
    {
      "lon": 26.75,
      "lat": 47.75,
      "type": "hotspot_cell",
      "score": 113.937,
      "count": 168,
      "cell_deg": 0.5,
      "sources": {
        "GDELT": 2,
        "GDELT_DOC": 163,
        "DIRECT_FEED": 3,
        "USGS": 0,
        "GDACS": 0
      },
      "last7_score": 113.645,
      "prev7_score": 0.292,
      "trend": "up",
      "trend_arrow": "🔺",
      "change_pct": 38798.8,
      "place": "Botoșani, Romania"
    },
    {
      "lon": 24.25,
      "lat": 56.75,
      "type": "hotspot_cell",
      "score": 106.154,
      "count": 168,
      "cell_deg": 0.5,
      "sources": {
        "GDELT": 31,
        "GDELT_DOC": 0,
        "DIRECT_FEED": 137,
        "USGS": 0,
        "GDACS": 0
      },
      "last7_score": 104.274,
      "prev7_score": 1.88,
      "trend": "up",
      "trend_arrow": "🔺",
      "change_pct": 5446.8,
      "place": "Ķekavas novads, Latvia"
    },
    {
      "lon": 25.25,
      "lat": 46.25,
      "type": "hotspot_cell",
      "score": 99.595,
      "count": 270,
      "cell_deg": 0.5,
      "sources": {
        "GDELT": 270,
        "GDELT_DOC": 0,
        "DIRECT_FEED": 0,
        "USGS": 0,
        "GDACS": 0
      },
      "last7_score": 81.769,
      "prev7_score": 17.826,
      "trend": "up",
      "trend_arrow": "🔺",
      "change_pct": 358.7,
      "place": "Harghita, Romania"
    },
    {
      "lon": 22.25,
      "lat": 55.25,
      "type": "hotspot_cell",
      "score": 68.435,
      "count": 110,
      "cell_deg": 0.5,
      "sources": {
        "GDELT": 0,
        "GDELT_DOC": 108,
        "DIRECT_FEED": 2,
        "USGS": 0,
        "GDACS": 0
      },
      "last7_score": 68.435,
      "prev7_score": 0.0,
      "trend": "new",
      "trend_arrow": "🆕",
      "change_pct": null,
      "place": "Tauragės seniūnija, Lithuania"
    }
  ]
}