{
  "generated_utc": "2026-07-03T08:58:46Z",
  "top": [
    {
      "lon": 26.25,
      "lat": 44.25,
      "type": "hotspot_cell",
      "score": 279.854,
      "count": 638,
      "cell_deg": 0.5,
      "sources": {
        "GDELT": 144,
        "GDELT_DOC": 491,
        "DIRECT_FEED": 3,
        "USGS": 0,
        "GDACS": 0
      },
      "last7_score": 268.629,
      "prev7_score": 11.225,
      "trend": "up",
      "trend_arrow": "🔺",
      "change_pct": 2293.2,
      "place": "Giurgiu, Romania"
    },
    {
      "lon": 14.25,
      "lat": 50.25,
      "type": "hotspot_cell",
      "score": 239.455,
      "count": 572,
      "cell_deg": 0.5,
      "sources": {
        "GDELT": 126,
        "GDELT_DOC": 445,
        "DIRECT_FEED": 1,
        "USGS": 0,
        "GDACS": 0
      },
      "last7_score": 230.193,
      "prev7_score": 9.263,
      "trend": "up",
      "trend_arrow": "🔺",
      "change_pct": 2385.2,
      "place": "SO ORP Kralupy nad Vltavou, Czechia"
    },
    {
      "lon": 25.25,
      "lat": 54.75,
      "type": "hotspot_cell",
      "score": 225.717,
      "count": 484,
      "cell_deg": 0.5,
      "sources": {
        "GDELT": 64,
        "GDELT_DOC": 420,
        "DIRECT_FEED": 0,
        "USGS": 0,
        "GDACS": 0
      },
      "last7_score": 221.64,
      "prev7_score": 4.077,
      "trend": "up",
      "trend_arrow": "🔺",
      "change_pct": 5335.9,
      "place": "Vilnius County, Lithuania"
    },
    {
      "lon": 20.25,
      "lat": 52.25,
      "type": "hotspot_cell",
      "score": 225.644,
      "count": 544,
      "cell_deg": 0.5,
      "sources": {
        "GDELT": 544,
        "GDELT_DOC": 0,
        "DIRECT_FEED": 0,
        "USGS": 0,
        "GDACS": 0
      },
      "last7_score": 183.61,
      "prev7_score": 42.034,
      "trend": "up",
      "trend_arrow": "🔺",
      "change_pct": 336.8,
      "place": "Sochaczew County, Poland"
    },
    {
      "lon": 19.25,
      "lat": 47.75,
      "type": "hotspot_cell",
      "score": 198.566,
      "count": 360,
      "cell_deg": 0.5,
      "sources": {
        "GDELT": 181,
        "GDELT_DOC": 0,
        "DIRECT_FEED": 179,
        "USGS": 0,
        "GDACS": 0
      },
      "last7_score": 183.494,
      "prev7_score": 15.071,
      "trend": "up",
      "trend_arrow": "🔺",
      "change_pct": 1117.5,
      "place": "Pest, Hungary"
    },
    {
      "lon": 25.25,
      "lat": 46.25,
      "type": "hotspot_cell",
      "score": 130.227,
      "count": 331,
      "cell_deg": 0.5,
      "sources": {
        "GDELT": 331,
        "GDELT_DOC": 0,
        "DIRECT_FEED": 0,
        "USGS": 0,
        "GDACS": 0
      },
      "last7_score": 102.368,
      "prev7_score": 27.859,
      "trend": "up",
      "trend_arrow": "🔺",
      "change_pct": 267.4,
      "place": "Harghita, Romania"
    },
    {
      "lon": 24.25,
      "lat": 56.75,
      "type": "hotspot_cell",
      "score": 118.714,
      "count": 171,
      "cell_deg": 0.5,
      "sources": {
        "GDELT": 26,
        "GDELT_DOC": 0,
        "DIRECT_FEED": 145,
        "USGS": 0,
        "GDACS": 0
      },
      "last7_score": 116.542,
      "prev7_score": 2.172,
      "trend": "up",
      "trend_arrow": "🔺",
      "change_pct": 5266.0,
      "place": "Ķekavas novads, Latvia"
    },
    {
      "lon": 21.25,
      "lat": 52.25,
      "type": "hotspot_cell",
      "score": 97.08,
      "count": 322,
      "cell_deg": 0.5,
      "sources": {
        "GDELT": 322,
        "GDELT_DOC": 0,
        "DIRECT_FEED": 0,
        "USGS": 0,
        "GDACS": 0
      },
      "last7_score": 69.357,
      "prev7_score": 27.722,
      "trend": "up",
      "trend_arrow": "🔺",
      "change_pct": 150.2,
      "place": "Warsaw, Poland"
    },
    {
      "lon": 15.25,
      "lat": 49.75,
      "type": "hotspot_cell",
      "score": 61.098,
      "count": 158,
      "cell_deg": 0.5,
      "sources": {
        "GDELT": 158,
        "GDELT_DOC": 0,
        "DIRECT_FEED": 0,
        "USGS": 0,
        "GDACS": 0
      },
      "last7_score": 48.668,
      "prev7_score": 12.429,
      "trend": "up",
      "trend_arrow": "🔺",
      "change_pct": 291.6,
      "place": "Vysočina Region, Czechia"
    },
    {
      "lon": 20.25,
      "lat": 47.25,
      "type": "hotspot_cell",
      "score": 61.062,
      "count": 177,
      "cell_deg": 0.5,
      "sources": {
        "GDELT": 177,
        "GDELT_DOC": 0,
        "DIRECT_FEED": 0,
        "USGS": 0,
        "GDACS": 0
      },
      "last7_score": 44.429,
      "prev7_score": 16.632,
      "trend": "up",
      "trend_arrow": "🔺",
      "change_pct": 167.1,
      "place": "Jász-Nagykun-Szolnok, Hungary"
    }
  ]
}