{
  "generated_utc": "2026-07-23T19:08:10Z",
  "top": [
    {
      "lon": 26.25,
      "lat": 44.25,
      "type": "hotspot_cell",
      "score": 776.408,
      "count": 1180,
      "cell_deg": 0.5,
      "sources": {
        "GDELT": 140,
        "GDELT_DOC": 1035,
        "DIRECT_FEED": 5,
        "USGS": 0,
        "GDACS": 0
      },
      "last7_score": 770.276,
      "prev7_score": 6.132,
      "trend": "up",
      "trend_arrow": "🔺",
      "change_pct": 12461.4,
      "place": "Giurgiu, Romania"
    },
    {
      "lon": 14.25,
      "lat": 50.25,
      "type": "hotspot_cell",
      "score": 632.142,
      "count": 1006,
      "cell_deg": 0.5,
      "sources": {
        "GDELT": 106,
        "GDELT_DOC": 898,
        "DIRECT_FEED": 2,
        "USGS": 0,
        "GDACS": 0
      },
      "last7_score": 623.427,
      "prev7_score": 8.715,
      "trend": "up",
      "trend_arrow": "🔺",
      "change_pct": 7053.1,
      "place": "SO ORP Kralupy nad Vltavou, Czechia"
    },
    {
      "lon": 25.25,
      "lat": 54.75,
      "type": "hotspot_cell",
      "score": 453.051,
      "count": 730,
      "cell_deg": 0.5,
      "sources": {
        "GDELT": 74,
        "GDELT_DOC": 656,
        "DIRECT_FEED": 0,
        "USGS": 0,
        "GDACS": 0
      },
      "last7_score": 447.048,
      "prev7_score": 6.003,
      "trend": "up",
      "trend_arrow": "🔺",
      "change_pct": 7347.4,
      "place": "Vilnius County, Lithuania"
    },
    {
      "lon": 19.25,
      "lat": 47.75,
      "type": "hotspot_cell",
      "score": 206.576,
      "count": 361,
      "cell_deg": 0.5,
      "sources": {
        "GDELT": 186,
        "GDELT_DOC": 0,
        "DIRECT_FEED": 175,
        "USGS": 0,
        "GDACS": 0
      },
      "last7_score": 194.36,
      "prev7_score": 12.216,
      "trend": "up",
      "trend_arrow": "🔺",
      "change_pct": 1491.1,
      "place": "Pest, Hungary"
    },
    {
      "lon": 25.25,
      "lat": 46.25,
      "type": "hotspot_cell",
      "score": 170.364,
      "count": 449,
      "cell_deg": 0.5,
      "sources": {
        "GDELT": 449,
        "GDELT_DOC": 0,
        "DIRECT_FEED": 0,
        "USGS": 0,
        "GDACS": 0
      },
      "last7_score": 142.876,
      "prev7_score": 27.489,
      "trend": "up",
      "trend_arrow": "🔺",
      "change_pct": 419.8,
      "place": "Harghita, Romania"
    },
    {
      "lon": 20.25,
      "lat": 52.25,
      "type": "hotspot_cell",
      "score": 147.471,
      "count": 415,
      "cell_deg": 0.5,
      "sources": {
        "GDELT": 415,
        "GDELT_DOC": 0,
        "DIRECT_FEED": 0,
        "USGS": 0,
        "GDACS": 0
      },
      "last7_score": 117.638,
      "prev7_score": 29.833,
      "trend": "up",
      "trend_arrow": "🔺",
      "change_pct": 294.3,
      "place": "Sochaczew County, Poland"
    },
    {
      "lon": 24.25,
      "lat": 56.75,
      "type": "hotspot_cell",
      "score": 108.815,
      "count": 154,
      "cell_deg": 0.5,
      "sources": {
        "GDELT": 23,
        "GDELT_DOC": 0,
        "DIRECT_FEED": 131,
        "USGS": 0,
        "GDACS": 0
      },
      "last7_score": 107.64,
      "prev7_score": 1.175,
      "trend": "up",
      "trend_arrow": "🔺",
      "change_pct": 9059.1,
      "place": "Ķekavas novads, Latvia"
    },
    {
      "lon": 21.25,
      "lat": 52.25,
      "type": "hotspot_cell",
      "score": 66.273,
      "count": 201,
      "cell_deg": 0.5,
      "sources": {
        "GDELT": 201,
        "GDELT_DOC": 0,
        "DIRECT_FEED": 0,
        "USGS": 0,
        "GDACS": 0
      },
      "last7_score": 49.467,
      "prev7_score": 16.806,
      "trend": "up",
      "trend_arrow": "🔺",
      "change_pct": 194.3,
      "place": "Warsaw, Poland"
    },
    {
      "lon": 20.25,
      "lat": 47.25,
      "type": "hotspot_cell",
      "score": 62.77,
      "count": 187,
      "cell_deg": 0.5,
      "sources": {
        "GDELT": 187,
        "GDELT_DOC": 0,
        "DIRECT_FEED": 0,
        "USGS": 0,
        "GDACS": 0
      },
      "last7_score": 48.733,
      "prev7_score": 14.036,
      "trend": "up",
      "trend_arrow": "🔺",
      "change_pct": 247.2,
      "place": "Jász-Nagykun-Szolnok, Hungary"
    },
    {
      "lon": 27.75,
      "lat": 47.25,
      "type": "hotspot_cell",
      "score": 48.631,
      "count": 75,
      "cell_deg": 0.5,
      "sources": {
        "GDELT": 0,
        "GDELT_DOC": 75,
        "DIRECT_FEED": 0,
        "USGS": 0,
        "GDACS": 0
      },
      "last7_score": 48.631,
      "prev7_score": 0.0,
      "trend": "new",
      "trend_arrow": "🆕",
      "change_pct": null,
      "place": "Iași, Romania"
    }
  ]
}