{
  "generated_utc": "2026-05-14T19:51:42Z",
  "top": [
    {
      "lon": 14.25,
      "lat": 50.25,
      "type": "hotspot_cell",
      "score": 980.34,
      "count": 1497,
      "cell_deg": 0.5,
      "sources": {
        "GDELT": 130,
        "GDELT_DOC": 1365,
        "DIRECT_FEED": 2,
        "USGS": 0,
        "GDACS": 0
      },
      "last7_score": 971.647,
      "prev7_score": 8.694,
      "trend": "up",
      "trend_arrow": "🔺",
      "change_pct": 11076.3,
      "place": "SO ORP Kralupy nad Vltavou, Czechia"
    },
    {
      "lon": 26.25,
      "lat": 44.25,
      "type": "hotspot_cell",
      "score": 886.722,
      "count": 1429,
      "cell_deg": 0.5,
      "sources": {
        "GDELT": 217,
        "GDELT_DOC": 1207,
        "DIRECT_FEED": 5,
        "USGS": 0,
        "GDACS": 0
      },
      "last7_score": 874.307,
      "prev7_score": 12.415,
      "trend": "up",
      "trend_arrow": "🔺",
      "change_pct": 6942.5,
      "place": "Giurgiu, Romania"
    },
    {
      "lon": 25.25,
      "lat": 54.75,
      "type": "hotspot_cell",
      "score": 658.372,
      "count": 1066,
      "cell_deg": 0.5,
      "sources": {
        "GDELT": 70,
        "GDELT_DOC": 996,
        "DIRECT_FEED": 0,
        "USGS": 0,
        "GDACS": 0
      },
      "last7_score": 654.126,
      "prev7_score": 4.247,
      "trend": "up",
      "trend_arrow": "🔺",
      "change_pct": 15303.2,
      "place": "Vilnius County, Lithuania"
    },
    {
      "lon": 19.25,
      "lat": 47.75,
      "type": "hotspot_cell",
      "score": 304.597,
      "count": 525,
      "cell_deg": 0.5,
      "sources": {
        "GDELT": 290,
        "GDELT_DOC": 0,
        "DIRECT_FEED": 235,
        "USGS": 0,
        "GDACS": 0
      },
      "last7_score": 288.84,
      "prev7_score": 15.757,
      "trend": "up",
      "trend_arrow": "🔺",
      "change_pct": 1733.1,
      "place": "Pest, Hungary"
    },
    {
      "lon": 20.25,
      "lat": 52.25,
      "type": "hotspot_cell",
      "score": 202.851,
      "count": 547,
      "cell_deg": 0.5,
      "sources": {
        "GDELT": 547,
        "GDELT_DOC": 0,
        "DIRECT_FEED": 0,
        "USGS": 0,
        "GDACS": 0
      },
      "last7_score": 160.753,
      "prev7_score": 42.098,
      "trend": "up",
      "trend_arrow": "🔺",
      "change_pct": 281.9,
      "place": "Sochaczew County, Poland"
    },
    {
      "lon": 24.25,
      "lat": 56.75,
      "type": "hotspot_cell",
      "score": 128.95,
      "count": 179,
      "cell_deg": 0.5,
      "sources": {
        "GDELT": 35,
        "GDELT_DOC": 0,
        "DIRECT_FEED": 144,
        "USGS": 0,
        "GDACS": 0
      },
      "last7_score": 125.838,
      "prev7_score": 3.112,
      "trend": "up",
      "trend_arrow": "🔺",
      "change_pct": 3943.4,
      "place": "Ķekavas novads, Latvia"
    },
    {
      "lon": 20.25,
      "lat": 47.25,
      "type": "hotspot_cell",
      "score": 122.008,
      "count": 282,
      "cell_deg": 0.5,
      "sources": {
        "GDELT": 282,
        "GDELT_DOC": 0,
        "DIRECT_FEED": 0,
        "USGS": 0,
        "GDACS": 0
      },
      "last7_score": 105.493,
      "prev7_score": 16.515,
      "trend": "up",
      "trend_arrow": "🔺",
      "change_pct": 538.8,
      "place": "Jász-Nagykun-Szolnok, Hungary"
    },
    {
      "lon": 25.25,
      "lat": 46.25,
      "type": "hotspot_cell",
      "score": 116.899,
      "count": 312,
      "cell_deg": 0.5,
      "sources": {
        "GDELT": 312,
        "GDELT_DOC": 0,
        "DIRECT_FEED": 0,
        "USGS": 0,
        "GDACS": 0
      },
      "last7_score": 93.815,
      "prev7_score": 23.084,
      "trend": "up",
      "trend_arrow": "🔺",
      "change_pct": 306.4,
      "place": "Harghita, Romania"
    },
    {
      "lon": 25.25,
      "lat": 57.25,
      "type": "hotspot_cell",
      "score": 99.553,
      "count": 147,
      "cell_deg": 0.5,
      "sources": {
        "GDELT": 147,
        "GDELT_DOC": 0,
        "DIRECT_FEED": 0,
        "USGS": 0,
        "GDACS": 0
      },
      "last7_score": 93.988,
      "prev7_score": 5.565,
      "trend": "up",
      "trend_arrow": "🔺",
      "change_pct": 1588.9,
      "place": "Cēsu novads, Latvia"
    },
    {
      "lon": 21.25,
      "lat": 52.25,
      "type": "hotspot_cell",
      "score": 79.314,
      "count": 186,
      "cell_deg": 0.5,
      "sources": {
        "GDELT": 186,
        "GDELT_DOC": 0,
        "DIRECT_FEED": 0,
        "USGS": 0,
        "GDACS": 0
      },
      "last7_score": 68.839,
      "prev7_score": 10.475,
      "trend": "up",
      "trend_arrow": "🔺",
      "change_pct": 557.2,
      "place": "Warsaw, Poland"
    }
  ]
}