{
  "generated_utc": "2026-04-14T13:35:10Z",
  "top": [
    {
      "lon": 19.25,
      "lat": 47.75,
      "type": "hotspot_cell",
      "score": 845.602,
      "count": 1360,
      "cell_deg": 0.5,
      "sources": {
        "GDELT": 1037,
        "GDELT_DOC": 0,
        "DIRECT_FEED": 323,
        "USGS": 0,
        "GDACS": 0
      },
      "last7_score": 799.17,
      "prev7_score": 46.432,
      "trend": "up",
      "trend_arrow": "🔺",
      "change_pct": 1621.2,
      "place": "Pest, Hungary"
    },
    {
      "lon": 26.25,
      "lat": 44.25,
      "type": "hotspot_cell",
      "score": 807.817,
      "count": 1427,
      "cell_deg": 0.5,
      "sources": {
        "GDELT": 131,
        "GDELT_DOC": 1292,
        "DIRECT_FEED": 4,
        "USGS": 0,
        "GDACS": 0
      },
      "last7_score": 794.713,
      "prev7_score": 13.104,
      "trend": "up",
      "trend_arrow": "🔺",
      "change_pct": 5964.8,
      "place": "Giurgiu, Romania"
    },
    {
      "lon": 14.25,
      "lat": 50.25,
      "type": "hotspot_cell",
      "score": 796.317,
      "count": 1293,
      "cell_deg": 0.5,
      "sources": {
        "GDELT": 76,
        "GDELT_DOC": 1217,
        "DIRECT_FEED": 0,
        "USGS": 0,
        "GDACS": 0
      },
      "last7_score": 791.359,
      "prev7_score": 4.959,
      "trend": "up",
      "trend_arrow": "🔺",
      "change_pct": 15859.3,
      "place": "SO ORP Kralupy nad Vltavou, Czechia"
    },
    {
      "lon": 25.25,
      "lat": 54.75,
      "type": "hotspot_cell",
      "score": 536.632,
      "count": 948,
      "cell_deg": 0.5,
      "sources": {
        "GDELT": 76,
        "GDELT_DOC": 870,
        "DIRECT_FEED": 2,
        "USGS": 0,
        "GDACS": 0
      },
      "last7_score": 531.81,
      "prev7_score": 4.822,
      "trend": "up",
      "trend_arrow": "🔺",
      "change_pct": 10928.0,
      "place": "Vilnius County, Lithuania"
    },
    {
      "lon": 20.25,
      "lat": 47.25,
      "type": "hotspot_cell",
      "score": 342.336,
      "count": 634,
      "cell_deg": 0.5,
      "sources": {
        "GDELT": 634,
        "GDELT_DOC": 0,
        "DIRECT_FEED": 0,
        "USGS": 0,
        "GDACS": 0
      },
      "last7_score": 313.327,
      "prev7_score": 29.009,
      "trend": "up",
      "trend_arrow": "🔺",
      "change_pct": 980.1,
      "place": "Jász-Nagykun-Szolnok, Hungary"
    },
    {
      "lon": 20.25,
      "lat": 52.25,
      "type": "hotspot_cell",
      "score": 141.065,
      "count": 387,
      "cell_deg": 0.5,
      "sources": {
        "GDELT": 387,
        "GDELT_DOC": 0,
        "DIRECT_FEED": 0,
        "USGS": 0,
        "GDACS": 0
      },
      "last7_score": 118.258,
      "prev7_score": 22.806,
      "trend": "up",
      "trend_arrow": "🔺",
      "change_pct": 418.5,
      "place": "Sochaczew County, Poland"
    },
    {
      "lon": 24.25,
      "lat": 56.75,
      "type": "hotspot_cell",
      "score": 101.904,
      "count": 159,
      "cell_deg": 0.5,
      "sources": {
        "GDELT": 24,
        "GDELT_DOC": 0,
        "DIRECT_FEED": 135,
        "USGS": 0,
        "GDACS": 0
      },
      "last7_score": 101.367,
      "prev7_score": 0.537,
      "trend": "up",
      "trend_arrow": "🔺",
      "change_pct": 18771.7,
      "place": "Ķekavas novads, Latvia"
    },
    {
      "lon": 25.25,
      "lat": 46.25,
      "type": "hotspot_cell",
      "score": 78.658,
      "count": 236,
      "cell_deg": 0.5,
      "sources": {
        "GDELT": 236,
        "GDELT_DOC": 0,
        "DIRECT_FEED": 0,
        "USGS": 0,
        "GDACS": 0
      },
      "last7_score": 59.694,
      "prev7_score": 18.964,
      "trend": "up",
      "trend_arrow": "🔺",
      "change_pct": 214.8,
      "place": "Harghita, Romania"
    },
    {
      "lon": 15.25,
      "lat": 49.75,
      "type": "hotspot_cell",
      "score": 63.012,
      "count": 137,
      "cell_deg": 0.5,
      "sources": {
        "GDELT": 137,
        "GDELT_DOC": 0,
        "DIRECT_FEED": 0,
        "USGS": 0,
        "GDACS": 0
      },
      "last7_score": 54.788,
      "prev7_score": 8.224,
      "trend": "up",
      "trend_arrow": "🔺",
      "change_pct": 566.2,
      "place": "Vysočina Region, Czechia"
    },
    {
      "lon": 21.25,
      "lat": 52.25,
      "type": "hotspot_cell",
      "score": 57.651,
      "count": 135,
      "cell_deg": 0.5,
      "sources": {
        "GDELT": 135,
        "GDELT_DOC": 0,
        "DIRECT_FEED": 0,
        "USGS": 0,
        "GDACS": 0
      },
      "last7_score": 49.87,
      "prev7_score": 7.781,
      "trend": "up",
      "trend_arrow": "🔺",
      "change_pct": 540.9,
      "place": "Warsaw, Poland"
    }
  ]
}