{
  "generated_utc": "2026-04-29T14:05:47Z",
  "top": [
    {
      "lon": 26.25,
      "lat": 44.25,
      "type": "hotspot_cell",
      "score": 987.734,
      "count": 1646,
      "cell_deg": 0.5,
      "sources": {
        "GDELT": 163,
        "GDELT_DOC": 1475,
        "DIRECT_FEED": 8,
        "USGS": 0,
        "GDACS": 0
      },
      "last7_score": 974.69,
      "prev7_score": 13.044,
      "trend": "up",
      "trend_arrow": "🔺",
      "change_pct": 7372.3,
      "place": "Giurgiu, Romania"
    },
    {
      "lon": 14.25,
      "lat": 50.25,
      "type": "hotspot_cell",
      "score": 946.828,
      "count": 1698,
      "cell_deg": 0.5,
      "sources": {
        "GDELT": 212,
        "GDELT_DOC": 1484,
        "DIRECT_FEED": 2,
        "USGS": 0,
        "GDACS": 0
      },
      "last7_score": 933.258,
      "prev7_score": 13.57,
      "trend": "up",
      "trend_arrow": "🔺",
      "change_pct": 6777.3,
      "place": "SO ORP Kralupy nad Vltavou, Czechia"
    },
    {
      "lon": 25.25,
      "lat": 54.75,
      "type": "hotspot_cell",
      "score": 670.445,
      "count": 1147,
      "cell_deg": 0.5,
      "sources": {
        "GDELT": 72,
        "GDELT_DOC": 1075,
        "DIRECT_FEED": 0,
        "USGS": 0,
        "GDACS": 0
      },
      "last7_score": 666.609,
      "prev7_score": 3.836,
      "trend": "up",
      "trend_arrow": "🔺",
      "change_pct": 17275.6,
      "place": "Vilnius County, Lithuania"
    },
    {
      "lon": 19.25,
      "lat": 47.75,
      "type": "hotspot_cell",
      "score": 275.401,
      "count": 640,
      "cell_deg": 0.5,
      "sources": {
        "GDELT": 413,
        "GDELT_DOC": 0,
        "DIRECT_FEED": 227,
        "USGS": 0,
        "GDACS": 0
      },
      "last7_score": 231.749,
      "prev7_score": 43.652,
      "trend": "up",
      "trend_arrow": "🔺",
      "change_pct": 430.9,
      "place": "Pest, Hungary"
    },
    {
      "lon": 20.25,
      "lat": 47.25,
      "type": "hotspot_cell",
      "score": 180.003,
      "count": 582,
      "cell_deg": 0.5,
      "sources": {
        "GDELT": 582,
        "GDELT_DOC": 0,
        "DIRECT_FEED": 0,
        "USGS": 0,
        "GDACS": 0
      },
      "last7_score": 130.024,
      "prev7_score": 49.979,
      "trend": "up",
      "trend_arrow": "🔺",
      "change_pct": 160.2,
      "place": "Jász-Nagykun-Szolnok, Hungary"
    },
    {
      "lon": 20.25,
      "lat": 52.25,
      "type": "hotspot_cell",
      "score": 179.727,
      "count": 475,
      "cell_deg": 0.5,
      "sources": {
        "GDELT": 475,
        "GDELT_DOC": 0,
        "DIRECT_FEED": 0,
        "USGS": 0,
        "GDACS": 0
      },
      "last7_score": 148.217,
      "prev7_score": 31.51,
      "trend": "up",
      "trend_arrow": "🔺",
      "change_pct": 370.4,
      "place": "Sochaczew County, Poland"
    },
    {
      "lon": 25.25,
      "lat": 46.25,
      "type": "hotspot_cell",
      "score": 125.287,
      "count": 285,
      "cell_deg": 0.5,
      "sources": {
        "GDELT": 285,
        "GDELT_DOC": 0,
        "DIRECT_FEED": 0,
        "USGS": 0,
        "GDACS": 0
      },
      "last7_score": 108.345,
      "prev7_score": 16.942,
      "trend": "up",
      "trend_arrow": "🔺",
      "change_pct": 539.5,
      "place": "Harghita, Romania"
    },
    {
      "lon": 24.25,
      "lat": 56.75,
      "type": "hotspot_cell",
      "score": 120.188,
      "count": 168,
      "cell_deg": 0.5,
      "sources": {
        "GDELT": 30,
        "GDELT_DOC": 0,
        "DIRECT_FEED": 138,
        "USGS": 0,
        "GDACS": 0
      },
      "last7_score": 118.695,
      "prev7_score": 1.493,
      "trend": "up",
      "trend_arrow": "🔺",
      "change_pct": 7851.2,
      "place": "Ķekavas novads, Latvia"
    },
    {
      "lon": 26.75,
      "lat": 47.75,
      "type": "hotspot_cell",
      "score": 86.144,
      "count": 156,
      "cell_deg": 0.5,
      "sources": {
        "GDELT": 2,
        "GDELT_DOC": 151,
        "DIRECT_FEED": 3,
        "USGS": 0,
        "GDACS": 0
      },
      "last7_score": 85.924,
      "prev7_score": 0.22,
      "trend": "up",
      "trend_arrow": "🔺",
      "change_pct": 38972.0,
      "place": "Botoșani, Romania"
    },
    {
      "lon": 15.25,
      "lat": 49.75,
      "type": "hotspot_cell",
      "score": 79.194,
      "count": 202,
      "cell_deg": 0.5,
      "sources": {
        "GDELT": 202,
        "GDELT_DOC": 0,
        "DIRECT_FEED": 0,
        "USGS": 0,
        "GDACS": 0
      },
      "last7_score": 65.001,
      "prev7_score": 14.193,
      "trend": "up",
      "trend_arrow": "🔺",
      "change_pct": 358.0,
      "place": "Vysočina Region, Czechia"
    }
  ]
}