{
  "generated_utc": "2026-05-16T19:12:22Z",
  "top": [
    {
      "lon": 14.25,
      "lat": 50.25,
      "type": "hotspot_cell",
      "score": 981.659,
      "count": 1598,
      "cell_deg": 0.5,
      "sources": {
        "GDELT": 124,
        "GDELT_DOC": 1470,
        "DIRECT_FEED": 4,
        "USGS": 0,
        "GDACS": 0
      },
      "last7_score": 974.173,
      "prev7_score": 7.486,
      "trend": "up",
      "trend_arrow": "🔺",
      "change_pct": 12913.1,
      "place": "SO ORP Kralupy nad Vltavou, Czechia"
    },
    {
      "lon": 26.25,
      "lat": 44.25,
      "type": "hotspot_cell",
      "score": 814.873,
      "count": 1411,
      "cell_deg": 0.5,
      "sources": {
        "GDELT": 229,
        "GDELT_DOC": 1176,
        "DIRECT_FEED": 6,
        "USGS": 0,
        "GDACS": 0
      },
      "last7_score": 804.262,
      "prev7_score": 10.612,
      "trend": "up",
      "trend_arrow": "🔺",
      "change_pct": 7479.0,
      "place": "Giurgiu, Romania"
    },
    {
      "lon": 25.25,
      "lat": 54.75,
      "type": "hotspot_cell",
      "score": 665.639,
      "count": 1035,
      "cell_deg": 0.5,
      "sources": {
        "GDELT": 74,
        "GDELT_DOC": 961,
        "DIRECT_FEED": 0,
        "USGS": 0,
        "GDACS": 0
      },
      "last7_score": 660.348,
      "prev7_score": 5.291,
      "trend": "up",
      "trend_arrow": "🔺",
      "change_pct": 12380.0,
      "place": "Vilnius County, Lithuania"
    },
    {
      "lon": 19.25,
      "lat": 47.75,
      "type": "hotspot_cell",
      "score": 263.971,
      "count": 528,
      "cell_deg": 0.5,
      "sources": {
        "GDELT": 297,
        "GDELT_DOC": 0,
        "DIRECT_FEED": 231,
        "USGS": 0,
        "GDACS": 0
      },
      "last7_score": 242.154,
      "prev7_score": 21.817,
      "trend": "up",
      "trend_arrow": "🔺",
      "change_pct": 1009.9,
      "place": "Pest, Hungary"
    },
    {
      "lon": 20.25,
      "lat": 52.25,
      "type": "hotspot_cell",
      "score": 250.584,
      "count": 622,
      "cell_deg": 0.5,
      "sources": {
        "GDELT": 622,
        "GDELT_DOC": 0,
        "DIRECT_FEED": 0,
        "USGS": 0,
        "GDACS": 0
      },
      "last7_score": 214.939,
      "prev7_score": 35.644,
      "trend": "up",
      "trend_arrow": "🔺",
      "change_pct": 503.0,
      "place": "Sochaczew County, Poland"
    },
    {
      "lon": 24.25,
      "lat": 56.75,
      "type": "hotspot_cell",
      "score": 124.905,
      "count": 197,
      "cell_deg": 0.5,
      "sources": {
        "GDELT": 42,
        "GDELT_DOC": 0,
        "DIRECT_FEED": 155,
        "USGS": 0,
        "GDACS": 0
      },
      "last7_score": 122.529,
      "prev7_score": 2.376,
      "trend": "up",
      "trend_arrow": "🔺",
      "change_pct": 5057.1,
      "place": "Ķekavas novads, Latvia"
    },
    {
      "lon": 20.25,
      "lat": 47.25,
      "type": "hotspot_cell",
      "score": 111.659,
      "count": 297,
      "cell_deg": 0.5,
      "sources": {
        "GDELT": 297,
        "GDELT_DOC": 0,
        "DIRECT_FEED": 0,
        "USGS": 0,
        "GDACS": 0
      },
      "last7_score": 93.512,
      "prev7_score": 18.146,
      "trend": "up",
      "trend_arrow": "🔺",
      "change_pct": 415.3,
      "place": "Jász-Nagykun-Szolnok, Hungary"
    },
    {
      "lon": 25.25,
      "lat": 46.25,
      "type": "hotspot_cell",
      "score": 107.742,
      "count": 308,
      "cell_deg": 0.5,
      "sources": {
        "GDELT": 308,
        "GDELT_DOC": 0,
        "DIRECT_FEED": 0,
        "USGS": 0,
        "GDACS": 0
      },
      "last7_score": 90.31,
      "prev7_score": 17.432,
      "trend": "up",
      "trend_arrow": "🔺",
      "change_pct": 418.1,
      "place": "Harghita, Romania"
    },
    {
      "lon": 21.25,
      "lat": 52.25,
      "type": "hotspot_cell",
      "score": 95.968,
      "count": 218,
      "cell_deg": 0.5,
      "sources": {
        "GDELT": 218,
        "GDELT_DOC": 0,
        "DIRECT_FEED": 0,
        "USGS": 0,
        "GDACS": 0
      },
      "last7_score": 82.204,
      "prev7_score": 13.764,
      "trend": "up",
      "trend_arrow": "🔺",
      "change_pct": 497.3,
      "place": "Warsaw, Poland"
    },
    {
      "lon": 25.25,
      "lat": 57.25,
      "type": "hotspot_cell",
      "score": 91.024,
      "count": 167,
      "cell_deg": 0.5,
      "sources": {
        "GDELT": 167,
        "GDELT_DOC": 0,
        "DIRECT_FEED": 0,
        "USGS": 0,
        "GDACS": 0
      },
      "last7_score": 85.131,
      "prev7_score": 5.893,
      "trend": "up",
      "trend_arrow": "🔺",
      "change_pct": 1344.7,
      "place": "Cēsu novads, Latvia"
    }
  ]
}