{
  "generated_utc": "2026-05-24T02:35:17Z",
  "top": [
    {
      "lon": 14.25,
      "lat": 50.25,
      "type": "hotspot_cell",
      "score": 943.105,
      "count": 1471,
      "cell_deg": 0.5,
      "sources": {
        "GDELT": 138,
        "GDELT_DOC": 1316,
        "DIRECT_FEED": 17,
        "USGS": 0,
        "GDACS": 0
      },
      "last7_score": 934.882,
      "prev7_score": 8.223,
      "trend": "up",
      "trend_arrow": "🔺",
      "change_pct": 11268.6,
      "place": "SO ORP Kralupy nad Vltavou, Czechia"
    },
    {
      "lon": 26.25,
      "lat": 44.25,
      "type": "hotspot_cell",
      "score": 897.74,
      "count": 1606,
      "cell_deg": 0.5,
      "sources": {
        "GDELT": 191,
        "GDELT_DOC": 1413,
        "DIRECT_FEED": 2,
        "USGS": 0,
        "GDACS": 0
      },
      "last7_score": 881.984,
      "prev7_score": 15.755,
      "trend": "up",
      "trend_arrow": "🔺",
      "change_pct": 5498.0,
      "place": "Giurgiu, Romania"
    },
    {
      "lon": 25.25,
      "lat": 54.75,
      "type": "hotspot_cell",
      "score": 713.23,
      "count": 1113,
      "cell_deg": 0.5,
      "sources": {
        "GDELT": 101,
        "GDELT_DOC": 1011,
        "DIRECT_FEED": 1,
        "USGS": 0,
        "GDACS": 0
      },
      "last7_score": 709.051,
      "prev7_score": 4.179,
      "trend": "up",
      "trend_arrow": "🔺",
      "change_pct": 16866.3,
      "place": "Vilnius County, Lithuania"
    },
    {
      "lon": 20.25,
      "lat": 52.25,
      "type": "hotspot_cell",
      "score": 373.401,
      "count": 787,
      "cell_deg": 0.5,
      "sources": {
        "GDELT": 787,
        "GDELT_DOC": 0,
        "DIRECT_FEED": 0,
        "USGS": 0,
        "GDACS": 0
      },
      "last7_score": 326.469,
      "prev7_score": 46.933,
      "trend": "up",
      "trend_arrow": "🔺",
      "change_pct": 595.6,
      "place": "Sochaczew County, Poland"
    },
    {
      "lon": 19.25,
      "lat": 47.75,
      "type": "hotspot_cell",
      "score": 229.251,
      "count": 479,
      "cell_deg": 0.5,
      "sources": {
        "GDELT": 242,
        "GDELT_DOC": 0,
        "DIRECT_FEED": 237,
        "USGS": 0,
        "GDACS": 0
      },
      "last7_score": 212.337,
      "prev7_score": 16.914,
      "trend": "up",
      "trend_arrow": "🔺",
      "change_pct": 1155.4,
      "place": "Pest, Hungary"
    },
    {
      "lon": 25.25,
      "lat": 46.25,
      "type": "hotspot_cell",
      "score": 121.486,
      "count": 319,
      "cell_deg": 0.5,
      "sources": {
        "GDELT": 319,
        "GDELT_DOC": 0,
        "DIRECT_FEED": 0,
        "USGS": 0,
        "GDACS": 0
      },
      "last7_score": 102.751,
      "prev7_score": 18.735,
      "trend": "up",
      "trend_arrow": "🔺",
      "change_pct": 448.4,
      "place": "Harghita, Romania"
    },
    {
      "lon": 21.25,
      "lat": 52.25,
      "type": "hotspot_cell",
      "score": 118.15,
      "count": 272,
      "cell_deg": 0.5,
      "sources": {
        "GDELT": 272,
        "GDELT_DOC": 0,
        "DIRECT_FEED": 0,
        "USGS": 0,
        "GDACS": 0
      },
      "last7_score": 101.22,
      "prev7_score": 16.929,
      "trend": "up",
      "trend_arrow": "🔺",
      "change_pct": 497.9,
      "place": "Warsaw, Poland"
    },
    {
      "lon": 24.25,
      "lat": 56.75,
      "type": "hotspot_cell",
      "score": 105.98,
      "count": 174,
      "cell_deg": 0.5,
      "sources": {
        "GDELT": 51,
        "GDELT_DOC": 0,
        "DIRECT_FEED": 123,
        "USGS": 0,
        "GDACS": 0
      },
      "last7_score": 102.411,
      "prev7_score": 3.569,
      "trend": "up",
      "trend_arrow": "🔺",
      "change_pct": 2769.3,
      "place": "Ķekavas novads, Latvia"
    },
    {
      "lon": 20.25,
      "lat": 47.25,
      "type": "hotspot_cell",
      "score": 97.378,
      "count": 284,
      "cell_deg": 0.5,
      "sources": {
        "GDELT": 284,
        "GDELT_DOC": 0,
        "DIRECT_FEED": 0,
        "USGS": 0,
        "GDACS": 0
      },
      "last7_score": 78.888,
      "prev7_score": 18.49,
      "trend": "up",
      "trend_arrow": "🔺",
      "change_pct": 326.7,
      "place": "Jász-Nagykun-Szolnok, Hungary"
    },
    {
      "lon": 26.25,
      "lat": 59.25,
      "type": "hotspot_cell",
      "score": 71.115,
      "count": 159,
      "cell_deg": 0.5,
      "sources": {
        "GDELT": 159,
        "GDELT_DOC": 0,
        "DIRECT_FEED": 0,
        "USGS": 0,
        "GDACS": 0
      },
      "last7_score": 63.361,
      "prev7_score": 7.754,
      "trend": "up",
      "trend_arrow": "🔺",
      "change_pct": 717.1,
      "place": "Lääne-Viru County, Estonia"
    }
  ]
}