{
  "generated_utc": "2026-05-27T15:04:33Z",
  "top": [
    {
      "lon": 14.25,
      "lat": 50.25,
      "type": "hotspot_cell",
      "score": 912.288,
      "count": 1518,
      "cell_deg": 0.5,
      "sources": {
        "GDELT": 143,
        "GDELT_DOC": 1354,
        "DIRECT_FEED": 21,
        "USGS": 0,
        "GDACS": 0
      },
      "last7_score": 904.196,
      "prev7_score": 8.092,
      "trend": "up",
      "trend_arrow": "🔺",
      "change_pct": 11074.0,
      "place": "SO ORP Kralupy nad Vltavou, Czechia"
    },
    {
      "lon": 26.25,
      "lat": 44.25,
      "type": "hotspot_cell",
      "score": 741.597,
      "count": 1296,
      "cell_deg": 0.5,
      "sources": {
        "GDELT": 145,
        "GDELT_DOC": 1150,
        "DIRECT_FEED": 1,
        "USGS": 0,
        "GDACS": 0
      },
      "last7_score": 731.92,
      "prev7_score": 9.677,
      "trend": "up",
      "trend_arrow": "🔺",
      "change_pct": 7463.8,
      "place": "Giurgiu, Romania"
    },
    {
      "lon": 25.25,
      "lat": 54.75,
      "type": "hotspot_cell",
      "score": 679.004,
      "count": 1100,
      "cell_deg": 0.5,
      "sources": {
        "GDELT": 106,
        "GDELT_DOC": 992,
        "DIRECT_FEED": 2,
        "USGS": 0,
        "GDACS": 0
      },
      "last7_score": 668.728,
      "prev7_score": 10.276,
      "trend": "up",
      "trend_arrow": "🔺",
      "change_pct": 6407.7,
      "place": "Vilnius County, Lithuania"
    },
    {
      "lon": 20.25,
      "lat": 52.25,
      "type": "hotspot_cell",
      "score": 287.602,
      "count": 804,
      "cell_deg": 0.5,
      "sources": {
        "GDELT": 804,
        "GDELT_DOC": 0,
        "DIRECT_FEED": 0,
        "USGS": 0,
        "GDACS": 0
      },
      "last7_score": 239.738,
      "prev7_score": 47.864,
      "trend": "up",
      "trend_arrow": "🔺",
      "change_pct": 400.9,
      "place": "Sochaczew County, Poland"
    },
    {
      "lon": 19.25,
      "lat": 47.75,
      "type": "hotspot_cell",
      "score": 218.163,
      "count": 425,
      "cell_deg": 0.5,
      "sources": {
        "GDELT": 208,
        "GDELT_DOC": 0,
        "DIRECT_FEED": 217,
        "USGS": 0,
        "GDACS": 0
      },
      "last7_score": 202.841,
      "prev7_score": 15.323,
      "trend": "up",
      "trend_arrow": "🔺",
      "change_pct": 1223.8,
      "place": "Pest, Hungary"
    },
    {
      "lon": 25.25,
      "lat": 46.25,
      "type": "hotspot_cell",
      "score": 125.546,
      "count": 323,
      "cell_deg": 0.5,
      "sources": {
        "GDELT": 323,
        "GDELT_DOC": 0,
        "DIRECT_FEED": 0,
        "USGS": 0,
        "GDACS": 0
      },
      "last7_score": 101.9,
      "prev7_score": 23.646,
      "trend": "up",
      "trend_arrow": "🔺",
      "change_pct": 330.9,
      "place": "Harghita, Romania"
    },
    {
      "lon": 24.25,
      "lat": 56.75,
      "type": "hotspot_cell",
      "score": 107.183,
      "count": 173,
      "cell_deg": 0.5,
      "sources": {
        "GDELT": 54,
        "GDELT_DOC": 0,
        "DIRECT_FEED": 119,
        "USGS": 0,
        "GDACS": 0
      },
      "last7_score": 102.864,
      "prev7_score": 4.319,
      "trend": "up",
      "trend_arrow": "🔺",
      "change_pct": 2281.9,
      "place": "Ķekavas novads, Latvia"
    },
    {
      "lon": 21.25,
      "lat": 52.25,
      "type": "hotspot_cell",
      "score": 84.41,
      "count": 264,
      "cell_deg": 0.5,
      "sources": {
        "GDELT": 264,
        "GDELT_DOC": 0,
        "DIRECT_FEED": 0,
        "USGS": 0,
        "GDACS": 0
      },
      "last7_score": 66.176,
      "prev7_score": 18.234,
      "trend": "up",
      "trend_arrow": "🔺",
      "change_pct": 262.9,
      "place": "Warsaw, Poland"
    },
    {
      "lon": 20.25,
      "lat": 47.25,
      "type": "hotspot_cell",
      "score": 76.448,
      "count": 239,
      "cell_deg": 0.5,
      "sources": {
        "GDELT": 239,
        "GDELT_DOC": 0,
        "DIRECT_FEED": 0,
        "USGS": 0,
        "GDACS": 0
      },
      "last7_score": 57.728,
      "prev7_score": 18.72,
      "trend": "up",
      "trend_arrow": "🔺",
      "change_pct": 208.4,
      "place": "Jász-Nagykun-Szolnok, Hungary"
    },
    {
      "lon": 24.25,
      "lat": 56.25,
      "type": "hotspot_cell",
      "score": 59.463,
      "count": 158,
      "cell_deg": 0.5,
      "sources": {
        "GDELT": 158,
        "GDELT_DOC": 0,
        "DIRECT_FEED": 0,
        "USGS": 0,
        "GDACS": 0
      },
      "last7_score": 46.895,
      "prev7_score": 12.568,
      "trend": "up",
      "trend_arrow": "🔺",
      "change_pct": 273.1,
      "place": "Namišių seniūnija, Lithuania"
    }
  ]
}