{
  "generated_utc": "2026-06-11T15:46:33Z",
  "top": [
    {
      "lon": 26.25,
      "lat": 44.25,
      "type": "hotspot_cell",
      "score": 559.27,
      "count": 1110,
      "cell_deg": 0.5,
      "sources": {
        "GDELT": 259,
        "GDELT_DOC": 840,
        "DIRECT_FEED": 11,
        "USGS": 0,
        "GDACS": 0
      },
      "last7_score": 539.461,
      "prev7_score": 19.809,
      "trend": "up",
      "trend_arrow": "🔺",
      "change_pct": 2623.3,
      "place": "Giurgiu, Romania"
    },
    {
      "lon": 14.25,
      "lat": 50.25,
      "type": "hotspot_cell",
      "score": 521.269,
      "count": 807,
      "cell_deg": 0.5,
      "sources": {
        "GDELT": 101,
        "GDELT_DOC": 706,
        "DIRECT_FEED": 0,
        "USGS": 0,
        "GDACS": 0
      },
      "last7_score": 512.143,
      "prev7_score": 9.127,
      "trend": "up",
      "trend_arrow": "🔺",
      "change_pct": 5511.6,
      "place": "SO ORP Kralupy nad Vltavou, Czechia"
    },
    {
      "lon": 25.25,
      "lat": 54.75,
      "type": "hotspot_cell",
      "score": 467.739,
      "count": 873,
      "cell_deg": 0.5,
      "sources": {
        "GDELT": 75,
        "GDELT_DOC": 797,
        "DIRECT_FEED": 1,
        "USGS": 0,
        "GDACS": 0
      },
      "last7_score": 461.556,
      "prev7_score": 6.183,
      "trend": "up",
      "trend_arrow": "🔺",
      "change_pct": 7365.1,
      "place": "Vilnius County, Lithuania"
    },
    {
      "lon": 19.25,
      "lat": 47.75,
      "type": "hotspot_cell",
      "score": 183.436,
      "count": 402,
      "cell_deg": 0.5,
      "sources": {
        "GDELT": 235,
        "GDELT_DOC": 0,
        "DIRECT_FEED": 167,
        "USGS": 0,
        "GDACS": 0
      },
      "last7_score": 161.499,
      "prev7_score": 21.937,
      "trend": "up",
      "trend_arrow": "🔺",
      "change_pct": 636.2,
      "place": "Pest, Hungary"
    },
    {
      "lon": 25.25,
      "lat": 46.25,
      "type": "hotspot_cell",
      "score": 180.143,
      "count": 540,
      "cell_deg": 0.5,
      "sources": {
        "GDELT": 540,
        "GDELT_DOC": 0,
        "DIRECT_FEED": 0,
        "USGS": 0,
        "GDACS": 0
      },
      "last7_score": 143.142,
      "prev7_score": 37.001,
      "trend": "up",
      "trend_arrow": "🔺",
      "change_pct": 286.9,
      "place": "Harghita, Romania"
    },
    {
      "lon": 20.25,
      "lat": 52.25,
      "type": "hotspot_cell",
      "score": 176.356,
      "count": 494,
      "cell_deg": 0.5,
      "sources": {
        "GDELT": 494,
        "GDELT_DOC": 0,
        "DIRECT_FEED": 0,
        "USGS": 0,
        "GDACS": 0
      },
      "last7_score": 140.127,
      "prev7_score": 36.229,
      "trend": "up",
      "trend_arrow": "🔺",
      "change_pct": 286.8,
      "place": "Sochaczew County, Poland"
    },
    {
      "lon": 24.25,
      "lat": 56.75,
      "type": "hotspot_cell",
      "score": 113.494,
      "count": 171,
      "cell_deg": 0.5,
      "sources": {
        "GDELT": 46,
        "GDELT_DOC": 0,
        "DIRECT_FEED": 125,
        "USGS": 0,
        "GDACS": 0
      },
      "last7_score": 110.09,
      "prev7_score": 3.404,
      "trend": "up",
      "trend_arrow": "🔺",
      "change_pct": 3134.5,
      "place": "Ķekavas novads, Latvia"
    },
    {
      "lon": 20.25,
      "lat": 47.25,
      "type": "hotspot_cell",
      "score": 91.561,
      "count": 258,
      "cell_deg": 0.5,
      "sources": {
        "GDELT": 258,
        "GDELT_DOC": 0,
        "DIRECT_FEED": 0,
        "USGS": 0,
        "GDACS": 0
      },
      "last7_score": 72.51,
      "prev7_score": 19.051,
      "trend": "up",
      "trend_arrow": "🔺",
      "change_pct": 280.6,
      "place": "Jász-Nagykun-Szolnok, Hungary"
    },
    {
      "lon": 21.25,
      "lat": 52.25,
      "type": "hotspot_cell",
      "score": 62.431,
      "count": 206,
      "cell_deg": 0.5,
      "sources": {
        "GDELT": 206,
        "GDELT_DOC": 0,
        "DIRECT_FEED": 0,
        "USGS": 0,
        "GDACS": 0
      },
      "last7_score": 45.923,
      "prev7_score": 16.508,
      "trend": "up",
      "trend_arrow": "🔺",
      "change_pct": 178.2,
      "place": "Warsaw, Poland"
    },
    {
      "lon": 15.25,
      "lat": 49.75,
      "type": "hotspot_cell",
      "score": 52.158,
      "count": 139,
      "cell_deg": 0.5,
      "sources": {
        "GDELT": 139,
        "GDELT_DOC": 0,
        "DIRECT_FEED": 0,
        "USGS": 0,
        "GDACS": 0
      },
      "last7_score": 42.881,
      "prev7_score": 9.277,
      "trend": "up",
      "trend_arrow": "🔺",
      "change_pct": 362.2,
      "place": "Vysočina Region, Czechia"
    }
  ]
}