{
  "generated_utc": "2026-07-01T02:46:24Z",
  "top": [
    {
      "lon": 26.25,
      "lat": 44.25,
      "type": "hotspot_cell",
      "score": 520.54,
      "count": 930,
      "cell_deg": 0.5,
      "sources": {
        "GDELT": 132,
        "GDELT_DOC": 791,
        "DIRECT_FEED": 7,
        "USGS": 0,
        "GDACS": 0
      },
      "last7_score": 511.513,
      "prev7_score": 9.026,
      "trend": "up",
      "trend_arrow": "🔺",
      "change_pct": 5567.0,
      "place": "Giurgiu, Romania"
    },
    {
      "lon": 14.25,
      "lat": 50.25,
      "type": "hotspot_cell",
      "score": 519.443,
      "count": 1006,
      "cell_deg": 0.5,
      "sources": {
        "GDELT": 131,
        "GDELT_DOC": 867,
        "DIRECT_FEED": 8,
        "USGS": 0,
        "GDACS": 0
      },
      "last7_score": 508.491,
      "prev7_score": 10.952,
      "trend": "up",
      "trend_arrow": "🔺",
      "change_pct": 4542.9,
      "place": "SO ORP Kralupy nad Vltavou, Czechia"
    },
    {
      "lon": 25.25,
      "lat": 54.75,
      "type": "hotspot_cell",
      "score": 415.519,
      "count": 661,
      "cell_deg": 0.5,
      "sources": {
        "GDELT": 58,
        "GDELT_DOC": 603,
        "DIRECT_FEED": 0,
        "USGS": 0,
        "GDACS": 0
      },
      "last7_score": 410.623,
      "prev7_score": 4.895,
      "trend": "up",
      "trend_arrow": "🔺",
      "change_pct": 8288.0,
      "place": "Vilnius County, Lithuania"
    },
    {
      "lon": 20.25,
      "lat": 52.25,
      "type": "hotspot_cell",
      "score": 196.21,
      "count": 506,
      "cell_deg": 0.5,
      "sources": {
        "GDELT": 506,
        "GDELT_DOC": 0,
        "DIRECT_FEED": 0,
        "USGS": 0,
        "GDACS": 0
      },
      "last7_score": 158.379,
      "prev7_score": 37.831,
      "trend": "up",
      "trend_arrow": "🔺",
      "change_pct": 318.7,
      "place": "Sochaczew County, Poland"
    },
    {
      "lon": 19.25,
      "lat": 47.75,
      "type": "hotspot_cell",
      "score": 183.301,
      "count": 345,
      "cell_deg": 0.5,
      "sources": {
        "GDELT": 184,
        "GDELT_DOC": 0,
        "DIRECT_FEED": 161,
        "USGS": 0,
        "GDACS": 0
      },
      "last7_score": 167.393,
      "prev7_score": 15.908,
      "trend": "up",
      "trend_arrow": "🔺",
      "change_pct": 952.3,
      "place": "Pest, Hungary"
    },
    {
      "lon": 25.25,
      "lat": 46.25,
      "type": "hotspot_cell",
      "score": 122.044,
      "count": 343,
      "cell_deg": 0.5,
      "sources": {
        "GDELT": 343,
        "GDELT_DOC": 0,
        "DIRECT_FEED": 0,
        "USGS": 0,
        "GDACS": 0
      },
      "last7_score": 93.918,
      "prev7_score": 28.126,
      "trend": "up",
      "trend_arrow": "🔺",
      "change_pct": 233.9,
      "place": "Harghita, Romania"
    },
    {
      "lon": 24.25,
      "lat": 56.75,
      "type": "hotspot_cell",
      "score": 118.392,
      "count": 182,
      "cell_deg": 0.5,
      "sources": {
        "GDELT": 28,
        "GDELT_DOC": 0,
        "DIRECT_FEED": 154,
        "USGS": 0,
        "GDACS": 0
      },
      "last7_score": 115.835,
      "prev7_score": 2.557,
      "trend": "up",
      "trend_arrow": "🔺",
      "change_pct": 4430.8,
      "place": "Ķekavas novads, Latvia"
    },
    {
      "lon": 21.25,
      "lat": 52.25,
      "type": "hotspot_cell",
      "score": 106.472,
      "count": 334,
      "cell_deg": 0.5,
      "sources": {
        "GDELT": 334,
        "GDELT_DOC": 0,
        "DIRECT_FEED": 0,
        "USGS": 0,
        "GDACS": 0
      },
      "last7_score": 77.221,
      "prev7_score": 29.251,
      "trend": "up",
      "trend_arrow": "🔺",
      "change_pct": 164.0,
      "place": "Warsaw, Poland"
    },
    {
      "lon": 15.25,
      "lat": 49.75,
      "type": "hotspot_cell",
      "score": 65.821,
      "count": 157,
      "cell_deg": 0.5,
      "sources": {
        "GDELT": 157,
        "GDELT_DOC": 0,
        "DIRECT_FEED": 0,
        "USGS": 0,
        "GDACS": 0
      },
      "last7_score": 54.493,
      "prev7_score": 11.328,
      "trend": "up",
      "trend_arrow": "🔺",
      "change_pct": 381.0,
      "place": "Vysočina Region, Czechia"
    },
    {
      "lon": 20.25,
      "lat": 47.25,
      "type": "hotspot_cell",
      "score": 60.27,
      "count": 188,
      "cell_deg": 0.5,
      "sources": {
        "GDELT": 188,
        "GDELT_DOC": 0,
        "DIRECT_FEED": 0,
        "USGS": 0,
        "GDACS": 0
      },
      "last7_score": 41.872,
      "prev7_score": 18.398,
      "trend": "up",
      "trend_arrow": "🔺",
      "change_pct": 127.6,
      "place": "Jász-Nagykun-Szolnok, Hungary"
    }
  ]
}