{
  "generated_utc": "2026-05-25T19:24:14Z",
  "top": [
    {
      "lon": 14.25,
      "lat": 50.25,
      "type": "hotspot_cell",
      "score": 920.128,
      "count": 1563,
      "cell_deg": 0.5,
      "sources": {
        "GDELT": 141,
        "GDELT_DOC": 1405,
        "DIRECT_FEED": 17,
        "USGS": 0,
        "GDACS": 0
      },
      "last7_score": 913.687,
      "prev7_score": 6.441,
      "trend": "up",
      "trend_arrow": "🔺",
      "change_pct": 14086.0,
      "place": "SO ORP Kralupy nad Vltavou, Czechia"
    },
    {
      "lon": 26.25,
      "lat": 44.25,
      "type": "hotspot_cell",
      "score": 764.945,
      "count": 1417,
      "cell_deg": 0.5,
      "sources": {
        "GDELT": 183,
        "GDELT_DOC": 1231,
        "DIRECT_FEED": 3,
        "USGS": 0,
        "GDACS": 0
      },
      "last7_score": 753.152,
      "prev7_score": 11.794,
      "trend": "up",
      "trend_arrow": "🔺",
      "change_pct": 6286.1,
      "place": "Giurgiu, Romania"
    },
    {
      "lon": 25.25,
      "lat": 54.75,
      "type": "hotspot_cell",
      "score": 696.45,
      "count": 1126,
      "cell_deg": 0.5,
      "sources": {
        "GDELT": 108,
        "GDELT_DOC": 1015,
        "DIRECT_FEED": 3,
        "USGS": 0,
        "GDACS": 0
      },
      "last7_score": 692.215,
      "prev7_score": 4.235,
      "trend": "up",
      "trend_arrow": "🔺",
      "change_pct": 16246.4,
      "place": "Vilnius County, Lithuania"
    },
    {
      "lon": 20.25,
      "lat": 52.25,
      "type": "hotspot_cell",
      "score": 313.984,
      "count": 807,
      "cell_deg": 0.5,
      "sources": {
        "GDELT": 807,
        "GDELT_DOC": 0,
        "DIRECT_FEED": 0,
        "USGS": 0,
        "GDACS": 0
      },
      "last7_score": 276.962,
      "prev7_score": 37.022,
      "trend": "up",
      "trend_arrow": "🔺",
      "change_pct": 648.1,
      "place": "Sochaczew County, Poland"
    },
    {
      "lon": 19.25,
      "lat": 47.75,
      "type": "hotspot_cell",
      "score": 190.561,
      "count": 443,
      "cell_deg": 0.5,
      "sources": {
        "GDELT": 223,
        "GDELT_DOC": 0,
        "DIRECT_FEED": 220,
        "USGS": 0,
        "GDACS": 0
      },
      "last7_score": 175.93,
      "prev7_score": 14.631,
      "trend": "up",
      "trend_arrow": "🔺",
      "change_pct": 1102.5,
      "place": "Pest, Hungary"
    },
    {
      "lon": 25.25,
      "lat": 46.25,
      "type": "hotspot_cell",
      "score": 123.032,
      "count": 334,
      "cell_deg": 0.5,
      "sources": {
        "GDELT": 334,
        "GDELT_DOC": 0,
        "DIRECT_FEED": 0,
        "USGS": 0,
        "GDACS": 0
      },
      "last7_score": 107.521,
      "prev7_score": 15.511,
      "trend": "up",
      "trend_arrow": "🔺",
      "change_pct": 593.2,
      "place": "Harghita, Romania"
    },
    {
      "lon": 24.25,
      "lat": 56.75,
      "type": "hotspot_cell",
      "score": 99.528,
      "count": 172,
      "cell_deg": 0.5,
      "sources": {
        "GDELT": 54,
        "GDELT_DOC": 0,
        "DIRECT_FEED": 118,
        "USGS": 0,
        "GDACS": 0
      },
      "last7_score": 96.262,
      "prev7_score": 3.265,
      "trend": "up",
      "trend_arrow": "🔺",
      "change_pct": 2847.9,
      "place": "Ķekavas novads, Latvia"
    },
    {
      "lon": 21.25,
      "lat": 52.25,
      "type": "hotspot_cell",
      "score": 92.112,
      "count": 269,
      "cell_deg": 0.5,
      "sources": {
        "GDELT": 269,
        "GDELT_DOC": 0,
        "DIRECT_FEED": 0,
        "USGS": 0,
        "GDACS": 0
      },
      "last7_score": 79.608,
      "prev7_score": 12.504,
      "trend": "up",
      "trend_arrow": "🔺",
      "change_pct": 536.7,
      "place": "Warsaw, Poland"
    },
    {
      "lon": 20.25,
      "lat": 47.25,
      "type": "hotspot_cell",
      "score": 81.355,
      "count": 262,
      "cell_deg": 0.5,
      "sources": {
        "GDELT": 262,
        "GDELT_DOC": 0,
        "DIRECT_FEED": 0,
        "USGS": 0,
        "GDACS": 0
      },
      "last7_score": 65.442,
      "prev7_score": 15.913,
      "trend": "up",
      "trend_arrow": "🔺",
      "change_pct": 311.3,
      "place": "Jász-Nagykun-Szolnok, Hungary"
    },
    {
      "lon": 26.25,
      "lat": 59.25,
      "type": "hotspot_cell",
      "score": 59.314,
      "count": 160,
      "cell_deg": 0.5,
      "sources": {
        "GDELT": 160,
        "GDELT_DOC": 0,
        "DIRECT_FEED": 0,
        "USGS": 0,
        "GDACS": 0
      },
      "last7_score": 53.593,
      "prev7_score": 5.722,
      "trend": "up",
      "trend_arrow": "🔺",
      "change_pct": 836.7,
      "place": "Lääne-Viru County, Estonia"
    }
  ]
}