{
  "generated_utc": "2026-07-17T01:59:28Z",
  "top": [
    {
      "lon": 14.25,
      "lat": 50.25,
      "type": "hotspot_cell",
      "score": 659.536,
      "count": 1111,
      "cell_deg": 0.5,
      "sources": {
        "GDELT": 98,
        "GDELT_DOC": 1007,
        "DIRECT_FEED": 6,
        "USGS": 0,
        "GDACS": 0
      },
      "last7_score": 652.618,
      "prev7_score": 6.918,
      "trend": "up",
      "trend_arrow": "🔺",
      "change_pct": 9333.7,
      "place": "SO ORP Kralupy nad Vltavou, Czechia"
    },
    {
      "lon": 26.25,
      "lat": 44.25,
      "type": "hotspot_cell",
      "score": 518.336,
      "count": 787,
      "cell_deg": 0.5,
      "sources": {
        "GDELT": 92,
        "GDELT_DOC": 692,
        "DIRECT_FEED": 3,
        "USGS": 0,
        "GDACS": 0
      },
      "last7_score": 509.011,
      "prev7_score": 9.326,
      "trend": "up",
      "trend_arrow": "🔺",
      "change_pct": 5358.2,
      "place": "Giurgiu, Romania"
    },
    {
      "lon": 25.25,
      "lat": 54.75,
      "type": "hotspot_cell",
      "score": 468.028,
      "count": 746,
      "cell_deg": 0.5,
      "sources": {
        "GDELT": 73,
        "GDELT_DOC": 673,
        "DIRECT_FEED": 0,
        "USGS": 0,
        "GDACS": 0
      },
      "last7_score": 462.095,
      "prev7_score": 5.933,
      "trend": "up",
      "trend_arrow": "🔺",
      "change_pct": 7688.8,
      "place": "Vilnius County, Lithuania"
    },
    {
      "lon": 19.25,
      "lat": 47.75,
      "type": "hotspot_cell",
      "score": 206.154,
      "count": 344,
      "cell_deg": 0.5,
      "sources": {
        "GDELT": 155,
        "GDELT_DOC": 0,
        "DIRECT_FEED": 189,
        "USGS": 0,
        "GDACS": 0
      },
      "last7_score": 192.843,
      "prev7_score": 13.311,
      "trend": "up",
      "trend_arrow": "🔺",
      "change_pct": 1348.8,
      "place": "Pest, Hungary"
    },
    {
      "lon": 20.25,
      "lat": 52.25,
      "type": "hotspot_cell",
      "score": 171.338,
      "count": 433,
      "cell_deg": 0.5,
      "sources": {
        "GDELT": 433,
        "GDELT_DOC": 0,
        "DIRECT_FEED": 0,
        "USGS": 0,
        "GDACS": 0
      },
      "last7_score": 136.534,
      "prev7_score": 34.804,
      "trend": "up",
      "trend_arrow": "🔺",
      "change_pct": 292.3,
      "place": "Sochaczew County, Poland"
    },
    {
      "lon": 25.25,
      "lat": 46.25,
      "type": "hotspot_cell",
      "score": 153.257,
      "count": 367,
      "cell_deg": 0.5,
      "sources": {
        "GDELT": 367,
        "GDELT_DOC": 0,
        "DIRECT_FEED": 0,
        "USGS": 0,
        "GDACS": 0
      },
      "last7_score": 120.128,
      "prev7_score": 33.129,
      "trend": "up",
      "trend_arrow": "🔺",
      "change_pct": 262.6,
      "place": "Harghita, Romania"
    },
    {
      "lon": 24.25,
      "lat": 56.75,
      "type": "hotspot_cell",
      "score": 113.792,
      "count": 158,
      "cell_deg": 0.5,
      "sources": {
        "GDELT": 18,
        "GDELT_DOC": 0,
        "DIRECT_FEED": 140,
        "USGS": 0,
        "GDACS": 0
      },
      "last7_score": 112.544,
      "prev7_score": 1.248,
      "trend": "up",
      "trend_arrow": "🔺",
      "change_pct": 8915.5,
      "place": "Ķekavas novads, Latvia"
    },
    {
      "lon": 21.25,
      "lat": 52.25,
      "type": "hotspot_cell",
      "score": 95.981,
      "count": 236,
      "cell_deg": 0.5,
      "sources": {
        "GDELT": 236,
        "GDELT_DOC": 0,
        "DIRECT_FEED": 0,
        "USGS": 0,
        "GDACS": 0
      },
      "last7_score": 78.551,
      "prev7_score": 17.43,
      "trend": "up",
      "trend_arrow": "🔺",
      "change_pct": 350.7,
      "place": "Warsaw, Poland"
    },
    {
      "lon": 20.25,
      "lat": 47.25,
      "type": "hotspot_cell",
      "score": 77.593,
      "count": 186,
      "cell_deg": 0.5,
      "sources": {
        "GDELT": 186,
        "GDELT_DOC": 0,
        "DIRECT_FEED": 0,
        "USGS": 0,
        "GDACS": 0
      },
      "last7_score": 61.134,
      "prev7_score": 16.458,
      "trend": "up",
      "trend_arrow": "🔺",
      "change_pct": 271.4,
      "place": "Jász-Nagykun-Szolnok, Hungary"
    },
    {
      "lon": 15.25,
      "lat": 49.75,
      "type": "hotspot_cell",
      "score": 61.05,
      "count": 157,
      "cell_deg": 0.5,
      "sources": {
        "GDELT": 157,
        "GDELT_DOC": 0,
        "DIRECT_FEED": 0,
        "USGS": 0,
        "GDACS": 0
      },
      "last7_score": 46.66,
      "prev7_score": 14.39,
      "trend": "up",
      "trend_arrow": "🔺",
      "change_pct": 224.2,
      "place": "Vysočina Region, Czechia"
    }
  ]
}