{
  "generated_utc": "2026-06-08T10:28:44Z",
  "top": [
    {
      "lon": 26.25,
      "lat": 44.25,
      "type": "hotspot_cell",
      "score": 604.841,
      "count": 1150,
      "cell_deg": 0.5,
      "sources": {
        "GDELT": 251,
        "GDELT_DOC": 892,
        "DIRECT_FEED": 7,
        "USGS": 0,
        "GDACS": 0
      },
      "last7_score": 582.962,
      "prev7_score": 21.88,
      "trend": "up",
      "trend_arrow": "🔺",
      "change_pct": 2564.4,
      "place": "Giurgiu, Romania"
    },
    {
      "lon": 25.25,
      "lat": 54.75,
      "type": "hotspot_cell",
      "score": 585.694,
      "count": 990,
      "cell_deg": 0.5,
      "sources": {
        "GDELT": 79,
        "GDELT_DOC": 908,
        "DIRECT_FEED": 3,
        "USGS": 0,
        "GDACS": 0
      },
      "last7_score": 579.31,
      "prev7_score": 6.385,
      "trend": "up",
      "trend_arrow": "🔺",
      "change_pct": 8973.2,
      "place": "Vilnius County, Lithuania"
    },
    {
      "lon": 14.25,
      "lat": 50.25,
      "type": "hotspot_cell",
      "score": 466.489,
      "count": 957,
      "cell_deg": 0.5,
      "sources": {
        "GDELT": 118,
        "GDELT_DOC": 835,
        "DIRECT_FEED": 4,
        "USGS": 0,
        "GDACS": 0
      },
      "last7_score": 457.127,
      "prev7_score": 9.363,
      "trend": "up",
      "trend_arrow": "🔺",
      "change_pct": 4782.4,
      "place": "SO ORP Kralupy nad Vltavou, Czechia"
    },
    {
      "lon": 19.25,
      "lat": 47.75,
      "type": "hotspot_cell",
      "score": 184.15,
      "count": 429,
      "cell_deg": 0.5,
      "sources": {
        "GDELT": 251,
        "GDELT_DOC": 0,
        "DIRECT_FEED": 178,
        "USGS": 0,
        "GDACS": 0
      },
      "last7_score": 165.325,
      "prev7_score": 18.825,
      "trend": "up",
      "trend_arrow": "🔺",
      "change_pct": 778.2,
      "place": "Pest, Hungary"
    },
    {
      "lon": 25.25,
      "lat": 46.25,
      "type": "hotspot_cell",
      "score": 172.087,
      "count": 495,
      "cell_deg": 0.5,
      "sources": {
        "GDELT": 495,
        "GDELT_DOC": 0,
        "DIRECT_FEED": 0,
        "USGS": 0,
        "GDACS": 0
      },
      "last7_score": 135.154,
      "prev7_score": 36.932,
      "trend": "up",
      "trend_arrow": "🔺",
      "change_pct": 266.0,
      "place": "Harghita, Romania"
    },
    {
      "lon": 20.25,
      "lat": 52.25,
      "type": "hotspot_cell",
      "score": 162.809,
      "count": 526,
      "cell_deg": 0.5,
      "sources": {
        "GDELT": 526,
        "GDELT_DOC": 0,
        "DIRECT_FEED": 0,
        "USGS": 0,
        "GDACS": 0
      },
      "last7_score": 123.802,
      "prev7_score": 39.008,
      "trend": "up",
      "trend_arrow": "🔺",
      "change_pct": 217.4,
      "place": "Sochaczew County, Poland"
    },
    {
      "lon": 24.25,
      "lat": 56.75,
      "type": "hotspot_cell",
      "score": 110.68,
      "count": 193,
      "cell_deg": 0.5,
      "sources": {
        "GDELT": 50,
        "GDELT_DOC": 0,
        "DIRECT_FEED": 143,
        "USGS": 0,
        "GDACS": 0
      },
      "last7_score": 107.412,
      "prev7_score": 3.268,
      "trend": "up",
      "trend_arrow": "🔺",
      "change_pct": 3187.2,
      "place": "Ķekavas novads, Latvia"
    },
    {
      "lon": 20.25,
      "lat": 47.25,
      "type": "hotspot_cell",
      "score": 83.133,
      "count": 260,
      "cell_deg": 0.5,
      "sources": {
        "GDELT": 260,
        "GDELT_DOC": 0,
        "DIRECT_FEED": 0,
        "USGS": 0,
        "GDACS": 0
      },
      "last7_score": 63.434,
      "prev7_score": 19.698,
      "trend": "up",
      "trend_arrow": "🔺",
      "change_pct": 222.0,
      "place": "Jász-Nagykun-Szolnok, Hungary"
    },
    {
      "lon": 21.25,
      "lat": 52.25,
      "type": "hotspot_cell",
      "score": 61.838,
      "count": 215,
      "cell_deg": 0.5,
      "sources": {
        "GDELT": 215,
        "GDELT_DOC": 0,
        "DIRECT_FEED": 0,
        "USGS": 0,
        "GDACS": 0
      },
      "last7_score": 45.144,
      "prev7_score": 16.694,
      "trend": "up",
      "trend_arrow": "🔺",
      "change_pct": 170.4,
      "place": "Warsaw, Poland"
    },
    {
      "lon": 15.25,
      "lat": 49.75,
      "type": "hotspot_cell",
      "score": 45.195,
      "count": 154,
      "cell_deg": 0.5,
      "sources": {
        "GDELT": 154,
        "GDELT_DOC": 0,
        "DIRECT_FEED": 0,
        "USGS": 0,
        "GDACS": 0
      },
      "last7_score": 33.656,
      "prev7_score": 11.539,
      "trend": "up",
      "trend_arrow": "🔺",
      "change_pct": 191.7,
      "place": "Vysočina Region, Czechia"
    }
  ]
}