{
  "generated_utc": "2026-05-04T08:35:28Z",
  "top": [
    {
      "lon": 14.25,
      "lat": 50.25,
      "type": "hotspot_cell",
      "score": 833.696,
      "count": 1460,
      "cell_deg": 0.5,
      "sources": {
        "GDELT": 175,
        "GDELT_DOC": 1282,
        "DIRECT_FEED": 3,
        "USGS": 0,
        "GDACS": 0
      },
      "last7_score": 822.095,
      "prev7_score": 11.601,
      "trend": "up",
      "trend_arrow": "🔺",
      "change_pct": 6986.7,
      "place": "SO ORP Kralupy nad Vltavou, Czechia"
    },
    {
      "lon": 26.25,
      "lat": 44.25,
      "type": "hotspot_cell",
      "score": 717.055,
      "count": 1297,
      "cell_deg": 0.5,
      "sources": {
        "GDELT": 127,
        "GDELT_DOC": 1168,
        "DIRECT_FEED": 2,
        "USGS": 0,
        "GDACS": 0
      },
      "last7_score": 707.591,
      "prev7_score": 9.463,
      "trend": "up",
      "trend_arrow": "🔺",
      "change_pct": 7377.2,
      "place": "Giurgiu, Romania"
    },
    {
      "lon": 25.25,
      "lat": 54.75,
      "type": "hotspot_cell",
      "score": 640.663,
      "count": 1071,
      "cell_deg": 0.5,
      "sources": {
        "GDELT": 60,
        "GDELT_DOC": 1011,
        "DIRECT_FEED": 0,
        "USGS": 0,
        "GDACS": 0
      },
      "last7_score": 635.921,
      "prev7_score": 4.742,
      "trend": "up",
      "trend_arrow": "🔺",
      "change_pct": 13310.8,
      "place": "Vilnius County, Lithuania"
    },
    {
      "lon": 20.25,
      "lat": 52.25,
      "type": "hotspot_cell",
      "score": 170.39,
      "count": 478,
      "cell_deg": 0.5,
      "sources": {
        "GDELT": 478,
        "GDELT_DOC": 0,
        "DIRECT_FEED": 0,
        "USGS": 0,
        "GDACS": 0
      },
      "last7_score": 139.203,
      "prev7_score": 31.187,
      "trend": "up",
      "trend_arrow": "🔺",
      "change_pct": 346.3,
      "place": "Sochaczew County, Poland"
    },
    {
      "lon": 19.25,
      "lat": 47.75,
      "type": "hotspot_cell",
      "score": 162.084,
      "count": 472,
      "cell_deg": 0.5,
      "sources": {
        "GDELT": 294,
        "GDELT_DOC": 0,
        "DIRECT_FEED": 178,
        "USGS": 0,
        "GDACS": 0
      },
      "last7_score": 139.792,
      "prev7_score": 22.292,
      "trend": "up",
      "trend_arrow": "🔺",
      "change_pct": 527.1,
      "place": "Pest, Hungary"
    },
    {
      "lon": 25.25,
      "lat": 46.25,
      "type": "hotspot_cell",
      "score": 114.117,
      "count": 317,
      "cell_deg": 0.5,
      "sources": {
        "GDELT": 317,
        "GDELT_DOC": 0,
        "DIRECT_FEED": 0,
        "USGS": 0,
        "GDACS": 0
      },
      "last7_score": 94.443,
      "prev7_score": 19.674,
      "trend": "up",
      "trend_arrow": "🔺",
      "change_pct": 380.0,
      "place": "Harghita, Romania"
    },
    {
      "lon": 20.25,
      "lat": 47.25,
      "type": "hotspot_cell",
      "score": 106.059,
      "count": 445,
      "cell_deg": 0.5,
      "sources": {
        "GDELT": 445,
        "GDELT_DOC": 0,
        "DIRECT_FEED": 0,
        "USGS": 0,
        "GDACS": 0
      },
      "last7_score": 70.476,
      "prev7_score": 35.584,
      "trend": "up",
      "trend_arrow": "🔺",
      "change_pct": 98.1,
      "place": "Jász-Nagykun-Szolnok, Hungary"
    },
    {
      "lon": 24.25,
      "lat": 56.75,
      "type": "hotspot_cell",
      "score": 88.442,
      "count": 156,
      "cell_deg": 0.5,
      "sources": {
        "GDELT": 23,
        "GDELT_DOC": 0,
        "DIRECT_FEED": 133,
        "USGS": 0,
        "GDACS": 0
      },
      "last7_score": 85.697,
      "prev7_score": 2.745,
      "trend": "up",
      "trend_arrow": "🔺",
      "change_pct": 3022.4,
      "place": "Ķekavas novads, Latvia"
    },
    {
      "lon": 15.25,
      "lat": 49.75,
      "type": "hotspot_cell",
      "score": 74.811,
      "count": 202,
      "cell_deg": 0.5,
      "sources": {
        "GDELT": 202,
        "GDELT_DOC": 0,
        "DIRECT_FEED": 0,
        "USGS": 0,
        "GDACS": 0
      },
      "last7_score": 63.182,
      "prev7_score": 11.629,
      "trend": "up",
      "trend_arrow": "🔺",
      "change_pct": 443.3,
      "place": "Vysočina Region, Czechia"
    },
    {
      "lon": 21.25,
      "lat": 52.25,
      "type": "hotspot_cell",
      "score": 44.12,
      "count": 149,
      "cell_deg": 0.5,
      "sources": {
        "GDELT": 149,
        "GDELT_DOC": 0,
        "DIRECT_FEED": 0,
        "USGS": 0,
        "GDACS": 0
      },
      "last7_score": 33.539,
      "prev7_score": 10.581,
      "trend": "up",
      "trend_arrow": "🔺",
      "change_pct": 217.0,
      "place": "Warsaw, Poland"
    }
  ]
}