{
  "generated_utc": "2026-06-28T19:11:49Z",
  "top": [
    {
      "lon": 26.25,
      "lat": 44.25,
      "type": "hotspot_cell",
      "score": 586.985,
      "count": 1038,
      "cell_deg": 0.5,
      "sources": {
        "GDELT": 137,
        "GDELT_DOC": 893,
        "DIRECT_FEED": 8,
        "USGS": 0,
        "GDACS": 0
      },
      "last7_score": 579.835,
      "prev7_score": 7.15,
      "trend": "up",
      "trend_arrow": "🔺",
      "change_pct": 8009.9,
      "place": "Giurgiu, Romania"
    },
    {
      "lon": 14.25,
      "lat": 50.25,
      "type": "hotspot_cell",
      "score": 585.322,
      "count": 1106,
      "cell_deg": 0.5,
      "sources": {
        "GDELT": 130,
        "GDELT_DOC": 965,
        "DIRECT_FEED": 11,
        "USGS": 0,
        "GDACS": 0
      },
      "last7_score": 578.31,
      "prev7_score": 7.012,
      "trend": "up",
      "trend_arrow": "🔺",
      "change_pct": 8147.6,
      "place": "SO ORP Kralupy nad Vltavou, Czechia"
    },
    {
      "lon": 25.25,
      "lat": 54.75,
      "type": "hotspot_cell",
      "score": 350.464,
      "count": 580,
      "cell_deg": 0.5,
      "sources": {
        "GDELT": 59,
        "GDELT_DOC": 521,
        "DIRECT_FEED": 0,
        "USGS": 0,
        "GDACS": 0
      },
      "last7_score": 347.362,
      "prev7_score": 3.101,
      "trend": "up",
      "trend_arrow": "🔺",
      "change_pct": 11099.9,
      "place": "Vilnius County, Lithuania"
    },
    {
      "lon": 20.25,
      "lat": 52.25,
      "type": "hotspot_cell",
      "score": 183.898,
      "count": 535,
      "cell_deg": 0.5,
      "sources": {
        "GDELT": 535,
        "GDELT_DOC": 0,
        "DIRECT_FEED": 0,
        "USGS": 0,
        "GDACS": 0
      },
      "last7_score": 154.231,
      "prev7_score": 29.667,
      "trend": "up",
      "trend_arrow": "🔺",
      "change_pct": 419.9,
      "place": "Sochaczew County, Poland"
    },
    {
      "lon": 19.25,
      "lat": 47.75,
      "type": "hotspot_cell",
      "score": 171.323,
      "count": 362,
      "cell_deg": 0.5,
      "sources": {
        "GDELT": 201,
        "GDELT_DOC": 0,
        "DIRECT_FEED": 161,
        "USGS": 0,
        "GDACS": 0
      },
      "last7_score": 161.879,
      "prev7_score": 9.443,
      "trend": "up",
      "trend_arrow": "🔺",
      "change_pct": 1614.2,
      "place": "Pest, Hungary"
    },
    {
      "lon": 25.25,
      "lat": 46.25,
      "type": "hotspot_cell",
      "score": 116.295,
      "count": 403,
      "cell_deg": 0.5,
      "sources": {
        "GDELT": 403,
        "GDELT_DOC": 0,
        "DIRECT_FEED": 0,
        "USGS": 0,
        "GDACS": 0
      },
      "last7_score": 93.827,
      "prev7_score": 22.468,
      "trend": "up",
      "trend_arrow": "🔺",
      "change_pct": 317.6,
      "place": "Harghita, Romania"
    },
    {
      "lon": 24.25,
      "lat": 56.75,
      "type": "hotspot_cell",
      "score": 115.911,
      "count": 185,
      "cell_deg": 0.5,
      "sources": {
        "GDELT": 31,
        "GDELT_DOC": 0,
        "DIRECT_FEED": 154,
        "USGS": 0,
        "GDACS": 0
      },
      "last7_score": 113.621,
      "prev7_score": 2.289,
      "trend": "up",
      "trend_arrow": "🔺",
      "change_pct": 4862.9,
      "place": "Ķekavas novads, Latvia"
    },
    {
      "lon": 21.25,
      "lat": 52.25,
      "type": "hotspot_cell",
      "score": 110.416,
      "count": 353,
      "cell_deg": 0.5,
      "sources": {
        "GDELT": 353,
        "GDELT_DOC": 0,
        "DIRECT_FEED": 0,
        "USGS": 0,
        "GDACS": 0
      },
      "last7_score": 85.394,
      "prev7_score": 25.022,
      "trend": "up",
      "trend_arrow": "🔺",
      "change_pct": 241.3,
      "place": "Warsaw, Poland"
    },
    {
      "lon": 20.25,
      "lat": 47.25,
      "type": "hotspot_cell",
      "score": 68.37,
      "count": 235,
      "cell_deg": 0.5,
      "sources": {
        "GDELT": 234,
        "GDELT_DOC": 0,
        "DIRECT_FEED": 0,
        "USGS": 0,
        "GDACS": 1
      },
      "last7_score": 55.036,
      "prev7_score": 13.335,
      "trend": "up",
      "trend_arrow": "🔺",
      "change_pct": 312.7,
      "place": "Jász-Nagykun-Szolnok, Hungary"
    },
    {
      "lon": 15.25,
      "lat": 49.75,
      "type": "hotspot_cell",
      "score": 57.002,
      "count": 158,
      "cell_deg": 0.5,
      "sources": {
        "GDELT": 158,
        "GDELT_DOC": 0,
        "DIRECT_FEED": 0,
        "USGS": 0,
        "GDACS": 0
      },
      "last7_score": 47.575,
      "prev7_score": 9.427,
      "trend": "up",
      "trend_arrow": "🔺",
      "change_pct": 404.7,
      "place": "Vysočina Region, Czechia"
    }
  ]
}