{
  "generated_utc": "2026-04-21T02:43:32Z",
  "top": [
    {
      "lon": 26.25,
      "lat": 44.25,
      "type": "hotspot_cell",
      "score": 781.347,
      "count": 1304,
      "cell_deg": 0.5,
      "sources": {
        "GDELT": 97,
        "GDELT_DOC": 1203,
        "DIRECT_FEED": 4,
        "USGS": 0,
        "GDACS": 0
      },
      "last7_score": 776.551,
      "prev7_score": 4.797,
      "trend": "up",
      "trend_arrow": "🔺",
      "change_pct": 16089.7,
      "place": "Giurgiu, Romania"
    },
    {
      "lon": 14.25,
      "lat": 50.25,
      "type": "hotspot_cell",
      "score": 755.404,
      "count": 1381,
      "cell_deg": 0.5,
      "sources": {
        "GDELT": 134,
        "GDELT_DOC": 1245,
        "DIRECT_FEED": 2,
        "USGS": 0,
        "GDACS": 0
      },
      "last7_score": 749.482,
      "prev7_score": 5.922,
      "trend": "up",
      "trend_arrow": "🔺",
      "change_pct": 12555.7,
      "place": "SO ORP Kralupy nad Vltavou, Czechia"
    },
    {
      "lon": 25.25,
      "lat": 54.75,
      "type": "hotspot_cell",
      "score": 568.183,
      "count": 918,
      "cell_deg": 0.5,
      "sources": {
        "GDELT": 73,
        "GDELT_DOC": 845,
        "DIRECT_FEED": 0,
        "USGS": 0,
        "GDACS": 0
      },
      "last7_score": 561.786,
      "prev7_score": 6.397,
      "trend": "up",
      "trend_arrow": "🔺",
      "change_pct": 8682.5,
      "place": "Vilnius County, Lithuania"
    },
    {
      "lon": 19.25,
      "lat": 47.75,
      "type": "hotspot_cell",
      "score": 464.429,
      "count": 1363,
      "cell_deg": 0.5,
      "sources": {
        "GDELT": 1079,
        "GDELT_DOC": 0,
        "DIRECT_FEED": 284,
        "USGS": 0,
        "GDACS": 0
      },
      "last7_score": 328.225,
      "prev7_score": 136.204,
      "trend": "up",
      "trend_arrow": "🔺",
      "change_pct": 141.0,
      "place": "Pest, Hungary"
    },
    {
      "lon": 20.25,
      "lat": 47.25,
      "type": "hotspot_cell",
      "score": 260.662,
      "count": 799,
      "cell_deg": 0.5,
      "sources": {
        "GDELT": 799,
        "GDELT_DOC": 0,
        "DIRECT_FEED": 0,
        "USGS": 0,
        "GDACS": 0
      },
      "last7_score": 176.733,
      "prev7_score": 83.929,
      "trend": "up",
      "trend_arrow": "🔺",
      "change_pct": 110.6,
      "place": "Jász-Nagykun-Szolnok, Hungary"
    },
    {
      "lon": 20.25,
      "lat": 52.25,
      "type": "hotspot_cell",
      "score": 148.331,
      "count": 403,
      "cell_deg": 0.5,
      "sources": {
        "GDELT": 403,
        "GDELT_DOC": 0,
        "DIRECT_FEED": 0,
        "USGS": 0,
        "GDACS": 0
      },
      "last7_score": 115.253,
      "prev7_score": 33.078,
      "trend": "up",
      "trend_arrow": "🔺",
      "change_pct": 248.4,
      "place": "Sochaczew County, Poland"
    },
    {
      "lon": 24.25,
      "lat": 56.75,
      "type": "hotspot_cell",
      "score": 99.799,
      "count": 166,
      "cell_deg": 0.5,
      "sources": {
        "GDELT": 34,
        "GDELT_DOC": 0,
        "DIRECT_FEED": 132,
        "USGS": 0,
        "GDACS": 0
      },
      "last7_score": 96.399,
      "prev7_score": 3.4,
      "trend": "up",
      "trend_arrow": "🔺",
      "change_pct": 2735.3,
      "place": "Ķekavas novads, Latvia"
    },
    {
      "lon": 25.25,
      "lat": 46.25,
      "type": "hotspot_cell",
      "score": 87.431,
      "count": 231,
      "cell_deg": 0.5,
      "sources": {
        "GDELT": 231,
        "GDELT_DOC": 0,
        "DIRECT_FEED": 0,
        "USGS": 0,
        "GDACS": 0
      },
      "last7_score": 70.36,
      "prev7_score": 17.07,
      "trend": "up",
      "trend_arrow": "🔺",
      "change_pct": 312.2,
      "place": "Harghita, Romania"
    },
    {
      "lon": 15.25,
      "lat": 49.75,
      "type": "hotspot_cell",
      "score": 75.3,
      "count": 183,
      "cell_deg": 0.5,
      "sources": {
        "GDELT": 183,
        "GDELT_DOC": 0,
        "DIRECT_FEED": 0,
        "USGS": 0,
        "GDACS": 0
      },
      "last7_score": 61.421,
      "prev7_score": 13.879,
      "trend": "up",
      "trend_arrow": "🔺",
      "change_pct": 342.6,
      "place": "Vysočina Region, Czechia"
    },
    {
      "lon": 21.25,
      "lat": 52.25,
      "type": "hotspot_cell",
      "score": 62.685,
      "count": 174,
      "cell_deg": 0.5,
      "sources": {
        "GDELT": 174,
        "GDELT_DOC": 0,
        "DIRECT_FEED": 0,
        "USGS": 0,
        "GDACS": 0
      },
      "last7_score": 48.03,
      "prev7_score": 14.655,
      "trend": "up",
      "trend_arrow": "🔺",
      "change_pct": 227.7,
      "place": "Warsaw, Poland"
    }
  ]
}