{
  "generated_utc": "2026-05-03T08:08:28Z",
  "top": [
    {
      "lon": 26.25,
      "lat": 44.25,
      "type": "hotspot_cell",
      "score": 855.199,
      "count": 1450,
      "cell_deg": 0.5,
      "sources": {
        "GDELT": 149,
        "GDELT_DOC": 1298,
        "DIRECT_FEED": 3,
        "USGS": 0,
        "GDACS": 0
      },
      "last7_score": 846.215,
      "prev7_score": 8.984,
      "trend": "up",
      "trend_arrow": "🔺",
      "change_pct": 9318.9,
      "place": "Giurgiu, Romania"
    },
    {
      "lon": 14.25,
      "lat": 50.25,
      "type": "hotspot_cell",
      "score": 830.216,
      "count": 1429,
      "cell_deg": 0.5,
      "sources": {
        "GDELT": 180,
        "GDELT_DOC": 1246,
        "DIRECT_FEED": 3,
        "USGS": 0,
        "GDACS": 0
      },
      "last7_score": 819.208,
      "prev7_score": 11.008,
      "trend": "up",
      "trend_arrow": "🔺",
      "change_pct": 7341.6,
      "place": "SO ORP Kralupy nad Vltavou, Czechia"
    },
    {
      "lon": 25.25,
      "lat": 54.75,
      "type": "hotspot_cell",
      "score": 624.053,
      "count": 1042,
      "cell_deg": 0.5,
      "sources": {
        "GDELT": 66,
        "GDELT_DOC": 976,
        "DIRECT_FEED": 0,
        "USGS": 0,
        "GDACS": 0
      },
      "last7_score": 620.365,
      "prev7_score": 3.688,
      "trend": "up",
      "trend_arrow": "🔺",
      "change_pct": 16719.4,
      "place": "Vilnius County, Lithuania"
    },
    {
      "lon": 19.25,
      "lat": 47.75,
      "type": "hotspot_cell",
      "score": 190.196,
      "count": 525,
      "cell_deg": 0.5,
      "sources": {
        "GDELT": 340,
        "GDELT_DOC": 0,
        "DIRECT_FEED": 185,
        "USGS": 0,
        "GDACS": 0
      },
      "last7_score": 165.721,
      "prev7_score": 24.475,
      "trend": "up",
      "trend_arrow": "🔺",
      "change_pct": 577.1,
      "place": "Pest, Hungary"
    },
    {
      "lon": 20.25,
      "lat": 52.25,
      "type": "hotspot_cell",
      "score": 168.241,
      "count": 471,
      "cell_deg": 0.5,
      "sources": {
        "GDELT": 471,
        "GDELT_DOC": 0,
        "DIRECT_FEED": 0,
        "USGS": 0,
        "GDACS": 0
      },
      "last7_score": 136.917,
      "prev7_score": 31.324,
      "trend": "up",
      "trend_arrow": "🔺",
      "change_pct": 337.1,
      "place": "Sochaczew County, Poland"
    },
    {
      "lon": 25.25,
      "lat": 46.25,
      "type": "hotspot_cell",
      "score": 125.868,
      "count": 325,
      "cell_deg": 0.5,
      "sources": {
        "GDELT": 325,
        "GDELT_DOC": 0,
        "DIRECT_FEED": 0,
        "USGS": 0,
        "GDACS": 0
      },
      "last7_score": 109.501,
      "prev7_score": 16.367,
      "trend": "up",
      "trend_arrow": "🔺",
      "change_pct": 569.0,
      "place": "Harghita, Romania"
    },
    {
      "lon": 20.25,
      "lat": 47.25,
      "type": "hotspot_cell",
      "score": 119.178,
      "count": 488,
      "cell_deg": 0.5,
      "sources": {
        "GDELT": 488,
        "GDELT_DOC": 0,
        "DIRECT_FEED": 0,
        "USGS": 0,
        "GDACS": 0
      },
      "last7_score": 78.654,
      "prev7_score": 40.524,
      "trend": "up",
      "trend_arrow": "🔺",
      "change_pct": 94.1,
      "place": "Jász-Nagykun-Szolnok, Hungary"
    },
    {
      "lon": 24.25,
      "lat": 56.75,
      "type": "hotspot_cell",
      "score": 95.598,
      "count": 156,
      "cell_deg": 0.5,
      "sources": {
        "GDELT": 24,
        "GDELT_DOC": 0,
        "DIRECT_FEED": 132,
        "USGS": 0,
        "GDACS": 0
      },
      "last7_score": 93.929,
      "prev7_score": 1.67,
      "trend": "up",
      "trend_arrow": "🔺",
      "change_pct": 5526.1,
      "place": "Ķekavas novads, Latvia"
    },
    {
      "lon": 15.25,
      "lat": 49.75,
      "type": "hotspot_cell",
      "score": 77.187,
      "count": 206,
      "cell_deg": 0.5,
      "sources": {
        "GDELT": 206,
        "GDELT_DOC": 0,
        "DIRECT_FEED": 0,
        "USGS": 0,
        "GDACS": 0
      },
      "last7_score": 66.963,
      "prev7_score": 10.224,
      "trend": "up",
      "trend_arrow": "🔺",
      "change_pct": 555.0,
      "place": "Vysočina Region, Czechia"
    },
    {
      "lon": 21.25,
      "lat": 52.25,
      "type": "hotspot_cell",
      "score": 49.945,
      "count": 157,
      "cell_deg": 0.5,
      "sources": {
        "GDELT": 157,
        "GDELT_DOC": 0,
        "DIRECT_FEED": 0,
        "USGS": 0,
        "GDACS": 0
      },
      "last7_score": 40.217,
      "prev7_score": 9.728,
      "trend": "up",
      "trend_arrow": "🔺",
      "change_pct": 313.4,
      "place": "Warsaw, Poland"
    }
  ]
}