{
  "generated_utc": "2026-04-18T02:33:26Z",
  "top": [
    {
      "lon": 14.25,
      "lat": 50.25,
      "type": "hotspot_cell",
      "score": 855.247,
      "count": 1354,
      "cell_deg": 0.5,
      "sources": {
        "GDELT": 118,
        "GDELT_DOC": 1236,
        "DIRECT_FEED": 0,
        "USGS": 0,
        "GDACS": 0
      },
      "last7_score": 849.234,
      "prev7_score": 6.013,
      "trend": "up",
      "trend_arrow": "🔺",
      "change_pct": 14023.5,
      "place": "SO ORP Kralupy nad Vltavou, Czechia"
    },
    {
      "lon": 26.25,
      "lat": 44.25,
      "type": "hotspot_cell",
      "score": 843.238,
      "count": 1337,
      "cell_deg": 0.5,
      "sources": {
        "GDELT": 108,
        "GDELT_DOC": 1228,
        "DIRECT_FEED": 1,
        "USGS": 0,
        "GDACS": 0
      },
      "last7_score": 836.718,
      "prev7_score": 6.52,
      "trend": "up",
      "trend_arrow": "🔺",
      "change_pct": 12733.1,
      "place": "Giurgiu, Romania"
    },
    {
      "lon": 19.25,
      "lat": 47.75,
      "type": "hotspot_cell",
      "score": 637.434,
      "count": 1509,
      "cell_deg": 0.5,
      "sources": {
        "GDELT": 1178,
        "GDELT_DOC": 0,
        "DIRECT_FEED": 331,
        "USGS": 0,
        "GDACS": 0
      },
      "last7_score": 569.156,
      "prev7_score": 68.278,
      "trend": "up",
      "trend_arrow": "🔺",
      "change_pct": 733.6,
      "place": "Pest, Hungary"
    },
    {
      "lon": 25.25,
      "lat": 54.75,
      "type": "hotspot_cell",
      "score": 518.832,
      "count": 828,
      "cell_deg": 0.5,
      "sources": {
        "GDELT": 75,
        "GDELT_DOC": 753,
        "DIRECT_FEED": 0,
        "USGS": 0,
        "GDACS": 0
      },
      "last7_score": 514.4,
      "prev7_score": 4.432,
      "trend": "up",
      "trend_arrow": "🔺",
      "change_pct": 11505.8,
      "place": "Vilnius County, Lithuania"
    },
    {
      "lon": 20.25,
      "lat": 47.25,
      "type": "hotspot_cell",
      "score": 334.811,
      "count": 807,
      "cell_deg": 0.5,
      "sources": {
        "GDELT": 807,
        "GDELT_DOC": 0,
        "DIRECT_FEED": 0,
        "USGS": 0,
        "GDACS": 0
      },
      "last7_score": 290.611,
      "prev7_score": 44.2,
      "trend": "up",
      "trend_arrow": "🔺",
      "change_pct": 557.5,
      "place": "Jász-Nagykun-Szolnok, Hungary"
    },
    {
      "lon": 20.25,
      "lat": 52.25,
      "type": "hotspot_cell",
      "score": 166.046,
      "count": 387,
      "cell_deg": 0.5,
      "sources": {
        "GDELT": 387,
        "GDELT_DOC": 0,
        "DIRECT_FEED": 0,
        "USGS": 0,
        "GDACS": 0
      },
      "last7_score": 138.144,
      "prev7_score": 27.902,
      "trend": "up",
      "trend_arrow": "🔺",
      "change_pct": 395.1,
      "place": "Sochaczew County, Poland"
    },
    {
      "lon": 24.25,
      "lat": 56.75,
      "type": "hotspot_cell",
      "score": 114.653,
      "count": 160,
      "cell_deg": 0.5,
      "sources": {
        "GDELT": 31,
        "GDELT_DOC": 0,
        "DIRECT_FEED": 129,
        "USGS": 0,
        "GDACS": 0
      },
      "last7_score": 112.889,
      "prev7_score": 1.764,
      "trend": "up",
      "trend_arrow": "🔺",
      "change_pct": 6299.9,
      "place": "Ķekavas novads, Latvia"
    },
    {
      "lon": 25.25,
      "lat": 46.25,
      "type": "hotspot_cell",
      "score": 110.284,
      "count": 259,
      "cell_deg": 0.5,
      "sources": {
        "GDELT": 259,
        "GDELT_DOC": 0,
        "DIRECT_FEED": 0,
        "USGS": 0,
        "GDACS": 0
      },
      "last7_score": 94.911,
      "prev7_score": 15.373,
      "trend": "up",
      "trend_arrow": "🔺",
      "change_pct": 517.4,
      "place": "Harghita, Romania"
    },
    {
      "lon": 15.25,
      "lat": 49.75,
      "type": "hotspot_cell",
      "score": 79.367,
      "count": 169,
      "cell_deg": 0.5,
      "sources": {
        "GDELT": 169,
        "GDELT_DOC": 0,
        "DIRECT_FEED": 0,
        "USGS": 0,
        "GDACS": 0
      },
      "last7_score": 69.205,
      "prev7_score": 10.162,
      "trend": "up",
      "trend_arrow": "🔺",
      "change_pct": 581.0,
      "place": "Vysočina Region, Czechia"
    },
    {
      "lon": 21.25,
      "lat": 52.25,
      "type": "hotspot_cell",
      "score": 78.975,
      "count": 168,
      "cell_deg": 0.5,
      "sources": {
        "GDELT": 168,
        "GDELT_DOC": 0,
        "DIRECT_FEED": 0,
        "USGS": 0,
        "GDACS": 0
      },
      "last7_score": 71.246,
      "prev7_score": 7.729,
      "trend": "up",
      "trend_arrow": "🔺",
      "change_pct": 821.8,
      "place": "Warsaw, Poland"
    }
  ]
}