{
  "generated_utc": "2026-05-18T03:50:14Z",
  "top": [
    {
      "lon": 14.25,
      "lat": 50.25,
      "type": "hotspot_cell",
      "score": 876.144,
      "count": 1572,
      "cell_deg": 0.5,
      "sources": {
        "GDELT": 112,
        "GDELT_DOC": 1455,
        "DIRECT_FEED": 5,
        "USGS": 0,
        "GDACS": 0
      },
      "last7_score": 868.347,
      "prev7_score": 7.796,
      "trend": "up",
      "trend_arrow": "🔺",
      "change_pct": 11037.7,
      "place": "SO ORP Kralupy nad Vltavou, Czechia"
    },
    {
      "lon": 26.25,
      "lat": 44.25,
      "type": "hotspot_cell",
      "score": 851.561,
      "count": 1455,
      "cell_deg": 0.5,
      "sources": {
        "GDELT": 222,
        "GDELT_DOC": 1228,
        "DIRECT_FEED": 5,
        "USGS": 0,
        "GDACS": 0
      },
      "last7_score": 839.284,
      "prev7_score": 12.278,
      "trend": "up",
      "trend_arrow": "🔺",
      "change_pct": 6735.8,
      "place": "Giurgiu, Romania"
    },
    {
      "lon": 25.25,
      "lat": 54.75,
      "type": "hotspot_cell",
      "score": 600.427,
      "count": 993,
      "cell_deg": 0.5,
      "sources": {
        "GDELT": 68,
        "GDELT_DOC": 925,
        "DIRECT_FEED": 0,
        "USGS": 0,
        "GDACS": 0
      },
      "last7_score": 595.9,
      "prev7_score": 4.527,
      "trend": "up",
      "trend_arrow": "🔺",
      "change_pct": 13063.0,
      "place": "Vilnius County, Lithuania"
    },
    {
      "lon": 20.25,
      "lat": 52.25,
      "type": "hotspot_cell",
      "score": 214.622,
      "count": 571,
      "cell_deg": 0.5,
      "sources": {
        "GDELT": 571,
        "GDELT_DOC": 0,
        "DIRECT_FEED": 0,
        "USGS": 0,
        "GDACS": 0
      },
      "last7_score": 176.893,
      "prev7_score": 37.729,
      "trend": "up",
      "trend_arrow": "🔺",
      "change_pct": 368.8,
      "place": "Sochaczew County, Poland"
    },
    {
      "lon": 19.25,
      "lat": 47.75,
      "type": "hotspot_cell",
      "score": 214.379,
      "count": 514,
      "cell_deg": 0.5,
      "sources": {
        "GDELT": 292,
        "GDELT_DOC": 0,
        "DIRECT_FEED": 222,
        "USGS": 0,
        "GDACS": 0
      },
      "last7_score": 187.737,
      "prev7_score": 26.642,
      "trend": "up",
      "trend_arrow": "🔺",
      "change_pct": 604.7,
      "place": "Pest, Hungary"
    },
    {
      "lon": 24.25,
      "lat": 56.75,
      "type": "hotspot_cell",
      "score": 114.903,
      "count": 197,
      "cell_deg": 0.5,
      "sources": {
        "GDELT": 40,
        "GDELT_DOC": 0,
        "DIRECT_FEED": 157,
        "USGS": 0,
        "GDACS": 0
      },
      "last7_score": 113.237,
      "prev7_score": 1.666,
      "trend": "up",
      "trend_arrow": "🔺",
      "change_pct": 6695.4,
      "place": "Ķekavas novads, Latvia"
    },
    {
      "lon": 20.25,
      "lat": 47.25,
      "type": "hotspot_cell",
      "score": 90.92,
      "count": 274,
      "cell_deg": 0.5,
      "sources": {
        "GDELT": 274,
        "GDELT_DOC": 0,
        "DIRECT_FEED": 0,
        "USGS": 0,
        "GDACS": 0
      },
      "last7_score": 66.313,
      "prev7_score": 24.607,
      "trend": "up",
      "trend_arrow": "🔺",
      "change_pct": 169.5,
      "place": "Jász-Nagykun-Szolnok, Hungary"
    },
    {
      "lon": 25.25,
      "lat": 46.25,
      "type": "hotspot_cell",
      "score": 87.061,
      "count": 277,
      "cell_deg": 0.5,
      "sources": {
        "GDELT": 277,
        "GDELT_DOC": 0,
        "DIRECT_FEED": 0,
        "USGS": 0,
        "GDACS": 0
      },
      "last7_score": 68.68,
      "prev7_score": 18.381,
      "trend": "up",
      "trend_arrow": "🔺",
      "change_pct": 273.6,
      "place": "Harghita, Romania"
    },
    {
      "lon": 21.25,
      "lat": 52.25,
      "type": "hotspot_cell",
      "score": 77.351,
      "count": 208,
      "cell_deg": 0.5,
      "sources": {
        "GDELT": 208,
        "GDELT_DOC": 0,
        "DIRECT_FEED": 0,
        "USGS": 0,
        "GDACS": 0
      },
      "last7_score": 62.806,
      "prev7_score": 14.545,
      "trend": "up",
      "trend_arrow": "🔺",
      "change_pct": 331.8,
      "place": "Warsaw, Poland"
    },
    {
      "lon": 25.25,
      "lat": 57.25,
      "type": "hotspot_cell",
      "score": 75.952,
      "count": 172,
      "cell_deg": 0.5,
      "sources": {
        "GDELT": 172,
        "GDELT_DOC": 0,
        "DIRECT_FEED": 0,
        "USGS": 0,
        "GDACS": 0
      },
      "last7_score": 64.211,
      "prev7_score": 11.741,
      "trend": "up",
      "trend_arrow": "🔺",
      "change_pct": 446.9,
      "place": "Cēsu novads, Latvia"
    }
  ]
}