{
  "generated_utc": "2026-05-26T02:33:17Z",
  "top": [
    {
      "lon": 14.25,
      "lat": 50.25,
      "type": "hotspot_cell",
      "score": 939.148,
      "count": 1579,
      "cell_deg": 0.5,
      "sources": {
        "GDELT": 134,
        "GDELT_DOC": 1428,
        "DIRECT_FEED": 17,
        "USGS": 0,
        "GDACS": 0
      },
      "last7_score": 931.296,
      "prev7_score": 7.852,
      "trend": "up",
      "trend_arrow": "🔺",
      "change_pct": 11761.0,
      "place": "SO ORP Kralupy nad Vltavou, Czechia"
    },
    {
      "lon": 26.25,
      "lat": 44.25,
      "type": "hotspot_cell",
      "score": 771.481,
      "count": 1396,
      "cell_deg": 0.5,
      "sources": {
        "GDELT": 161,
        "GDELT_DOC": 1232,
        "DIRECT_FEED": 3,
        "USGS": 0,
        "GDACS": 0
      },
      "last7_score": 759.837,
      "prev7_score": 11.644,
      "trend": "up",
      "trend_arrow": "🔺",
      "change_pct": 6425.6,
      "place": "Giurgiu, Romania"
    },
    {
      "lon": 25.25,
      "lat": 54.75,
      "type": "hotspot_cell",
      "score": 639.531,
      "count": 1082,
      "cell_deg": 0.5,
      "sources": {
        "GDELT": 103,
        "GDELT_DOC": 976,
        "DIRECT_FEED": 3,
        "USGS": 0,
        "GDACS": 0
      },
      "last7_score": 634.776,
      "prev7_score": 4.755,
      "trend": "up",
      "trend_arrow": "🔺",
      "change_pct": 13248.6,
      "place": "Vilnius County, Lithuania"
    },
    {
      "lon": 20.25,
      "lat": 52.25,
      "type": "hotspot_cell",
      "score": 302.018,
      "count": 783,
      "cell_deg": 0.5,
      "sources": {
        "GDELT": 783,
        "GDELT_DOC": 0,
        "DIRECT_FEED": 0,
        "USGS": 0,
        "GDACS": 0
      },
      "last7_score": 257.542,
      "prev7_score": 44.476,
      "trend": "up",
      "trend_arrow": "🔺",
      "change_pct": 479.1,
      "place": "Sochaczew County, Poland"
    },
    {
      "lon": 19.25,
      "lat": 47.75,
      "type": "hotspot_cell",
      "score": 181.402,
      "count": 420,
      "cell_deg": 0.5,
      "sources": {
        "GDELT": 202,
        "GDELT_DOC": 0,
        "DIRECT_FEED": 218,
        "USGS": 0,
        "GDACS": 0
      },
      "last7_score": 165.12,
      "prev7_score": 16.283,
      "trend": "up",
      "trend_arrow": "🔺",
      "change_pct": 914.1,
      "place": "Pest, Hungary"
    },
    {
      "lon": 25.25,
      "lat": 46.25,
      "type": "hotspot_cell",
      "score": 122.686,
      "count": 306,
      "cell_deg": 0.5,
      "sources": {
        "GDELT": 306,
        "GDELT_DOC": 0,
        "DIRECT_FEED": 0,
        "USGS": 0,
        "GDACS": 0
      },
      "last7_score": 99.456,
      "prev7_score": 23.23,
      "trend": "up",
      "trend_arrow": "🔺",
      "change_pct": 328.1,
      "place": "Harghita, Romania"
    },
    {
      "lon": 24.25,
      "lat": 56.75,
      "type": "hotspot_cell",
      "score": 99.726,
      "count": 175,
      "cell_deg": 0.5,
      "sources": {
        "GDELT": 54,
        "GDELT_DOC": 0,
        "DIRECT_FEED": 121,
        "USGS": 0,
        "GDACS": 0
      },
      "last7_score": 95.084,
      "prev7_score": 4.642,
      "trend": "up",
      "trend_arrow": "🔺",
      "change_pct": 1948.4,
      "place": "Ķekavas novads, Latvia"
    },
    {
      "lon": 21.25,
      "lat": 52.25,
      "type": "hotspot_cell",
      "score": 89.602,
      "count": 262,
      "cell_deg": 0.5,
      "sources": {
        "GDELT": 262,
        "GDELT_DOC": 0,
        "DIRECT_FEED": 0,
        "USGS": 0,
        "GDACS": 0
      },
      "last7_score": 71.976,
      "prev7_score": 17.626,
      "trend": "up",
      "trend_arrow": "🔺",
      "change_pct": 308.3,
      "place": "Warsaw, Poland"
    },
    {
      "lon": 20.25,
      "lat": 47.25,
      "type": "hotspot_cell",
      "score": 77.914,
      "count": 239,
      "cell_deg": 0.5,
      "sources": {
        "GDELT": 239,
        "GDELT_DOC": 0,
        "DIRECT_FEED": 0,
        "USGS": 0,
        "GDACS": 0
      },
      "last7_score": 58.327,
      "prev7_score": 19.587,
      "trend": "up",
      "trend_arrow": "🔺",
      "change_pct": 197.8,
      "place": "Jász-Nagykun-Szolnok, Hungary"
    },
    {
      "lon": 26.25,
      "lat": 59.25,
      "type": "hotspot_cell",
      "score": 57.231,
      "count": 149,
      "cell_deg": 0.5,
      "sources": {
        "GDELT": 149,
        "GDELT_DOC": 0,
        "DIRECT_FEED": 0,
        "USGS": 0,
        "GDACS": 0
      },
      "last7_score": 46.191,
      "prev7_score": 11.039,
      "trend": "up",
      "trend_arrow": "🔺",
      "change_pct": 318.4,
      "place": "Lääne-Viru County, Estonia"
    }
  ]
}