{
  "generated_utc": "2026-06-03T10:50:39Z",
  "top": [
    {
      "lon": 14.25,
      "lat": 50.25,
      "type": "hotspot_cell",
      "score": 692.461,
      "count": 1274,
      "cell_deg": 0.5,
      "sources": {
        "GDELT": 148,
        "GDELT_DOC": 1120,
        "DIRECT_FEED": 6,
        "USGS": 0,
        "GDACS": 0
      },
      "last7_score": 681.14,
      "prev7_score": 11.321,
      "trend": "up",
      "trend_arrow": "🔺",
      "change_pct": 5916.5,
      "place": "SO ORP Kralupy nad Vltavou, Czechia"
    },
    {
      "lon": 26.25,
      "lat": 44.25,
      "type": "hotspot_cell",
      "score": 646.13,
      "count": 1090,
      "cell_deg": 0.5,
      "sources": {
        "GDELT": 217,
        "GDELT_DOC": 862,
        "DIRECT_FEED": 11,
        "USGS": 0,
        "GDACS": 0
      },
      "last7_score": 637.032,
      "prev7_score": 9.098,
      "trend": "up",
      "trend_arrow": "🔺",
      "change_pct": 6901.7,
      "place": "Giurgiu, Romania"
    },
    {
      "lon": 25.25,
      "lat": 54.75,
      "type": "hotspot_cell",
      "score": 600.824,
      "count": 1132,
      "cell_deg": 0.5,
      "sources": {
        "GDELT": 93,
        "GDELT_DOC": 1038,
        "DIRECT_FEED": 1,
        "USGS": 0,
        "GDACS": 0
      },
      "last7_score": 593.419,
      "prev7_score": 7.405,
      "trend": "up",
      "trend_arrow": "🔺",
      "change_pct": 7913.9,
      "place": "Vilnius County, Lithuania"
    },
    {
      "lon": 20.25,
      "lat": 52.25,
      "type": "hotspot_cell",
      "score": 219.653,
      "count": 736,
      "cell_deg": 0.5,
      "sources": {
        "GDELT": 736,
        "GDELT_DOC": 0,
        "DIRECT_FEED": 0,
        "USGS": 0,
        "GDACS": 0
      },
      "last7_score": 163.305,
      "prev7_score": 56.348,
      "trend": "up",
      "trend_arrow": "🔺",
      "change_pct": 189.8,
      "place": "Sochaczew County, Poland"
    },
    {
      "lon": 19.25,
      "lat": 47.75,
      "type": "hotspot_cell",
      "score": 216.736,
      "count": 416,
      "cell_deg": 0.5,
      "sources": {
        "GDELT": 226,
        "GDELT_DOC": 0,
        "DIRECT_FEED": 190,
        "USGS": 0,
        "GDACS": 0
      },
      "last7_score": 203.931,
      "prev7_score": 12.805,
      "trend": "up",
      "trend_arrow": "🔺",
      "change_pct": 1492.6,
      "place": "Pest, Hungary"
    },
    {
      "lon": 25.25,
      "lat": 46.25,
      "type": "hotspot_cell",
      "score": 191.034,
      "count": 447,
      "cell_deg": 0.5,
      "sources": {
        "GDELT": 447,
        "GDELT_DOC": 0,
        "DIRECT_FEED": 0,
        "USGS": 0,
        "GDACS": 0
      },
      "last7_score": 167.882,
      "prev7_score": 23.152,
      "trend": "up",
      "trend_arrow": "🔺",
      "change_pct": 625.1,
      "place": "Harghita, Romania"
    },
    {
      "lon": 24.25,
      "lat": 56.75,
      "type": "hotspot_cell",
      "score": 122.582,
      "count": 188,
      "cell_deg": 0.5,
      "sources": {
        "GDELT": 47,
        "GDELT_DOC": 0,
        "DIRECT_FEED": 141,
        "USGS": 0,
        "GDACS": 0
      },
      "last7_score": 120.037,
      "prev7_score": 2.545,
      "trend": "up",
      "trend_arrow": "🔺",
      "change_pct": 4616.6,
      "place": "Ķekavas novads, Latvia"
    },
    {
      "lon": 20.25,
      "lat": 47.25,
      "type": "hotspot_cell",
      "score": 102.295,
      "count": 256,
      "cell_deg": 0.5,
      "sources": {
        "GDELT": 256,
        "GDELT_DOC": 0,
        "DIRECT_FEED": 0,
        "USGS": 0,
        "GDACS": 0
      },
      "last7_score": 87.169,
      "prev7_score": 15.127,
      "trend": "up",
      "trend_arrow": "🔺",
      "change_pct": 476.3,
      "place": "Jász-Nagykun-Szolnok, Hungary"
    },
    {
      "lon": 21.25,
      "lat": 52.25,
      "type": "hotspot_cell",
      "score": 86.153,
      "count": 256,
      "cell_deg": 0.5,
      "sources": {
        "GDELT": 256,
        "GDELT_DOC": 0,
        "DIRECT_FEED": 0,
        "USGS": 0,
        "GDACS": 0
      },
      "last7_score": 70.927,
      "prev7_score": 15.225,
      "trend": "up",
      "trend_arrow": "🔺",
      "change_pct": 365.8,
      "place": "Warsaw, Poland"
    },
    {
      "lon": 15.25,
      "lat": 49.75,
      "type": "hotspot_cell",
      "score": 58.091,
      "count": 159,
      "cell_deg": 0.5,
      "sources": {
        "GDELT": 159,
        "GDELT_DOC": 0,
        "DIRECT_FEED": 0,
        "USGS": 0,
        "GDACS": 0
      },
      "last7_score": 46.842,
      "prev7_score": 11.249,
      "trend": "up",
      "trend_arrow": "🔺",
      "change_pct": 316.4,
      "place": "Vysočina Region, Czechia"
    }
  ]
}