{
  "generated_utc": "2026-06-17T02:56:02Z",
  "top": [
    {
      "lon": 26.25,
      "lat": 44.25,
      "type": "hotspot_cell",
      "score": 590.09,
      "count": 960,
      "cell_deg": 0.5,
      "sources": {
        "GDELT": 162,
        "GDELT_DOC": 788,
        "DIRECT_FEED": 10,
        "USGS": 0,
        "GDACS": 0
      },
      "last7_score": 577.457,
      "prev7_score": 12.633,
      "trend": "up",
      "trend_arrow": "🔺",
      "change_pct": 4471.0,
      "place": "Giurgiu, Romania"
    },
    {
      "lon": 14.25,
      "lat": 50.25,
      "type": "hotspot_cell",
      "score": 445.817,
      "count": 828,
      "cell_deg": 0.5,
      "sources": {
        "GDELT": 95,
        "GDELT_DOC": 726,
        "DIRECT_FEED": 7,
        "USGS": 0,
        "GDACS": 0
      },
      "last7_score": 440.929,
      "prev7_score": 4.889,
      "trend": "up",
      "trend_arrow": "🔺",
      "change_pct": 8919.7,
      "place": "SO ORP Kralupy nad Vltavou, Czechia"
    },
    {
      "lon": 25.25,
      "lat": 54.75,
      "type": "hotspot_cell",
      "score": 394.312,
      "count": 645,
      "cell_deg": 0.5,
      "sources": {
        "GDELT": 49,
        "GDELT_DOC": 595,
        "DIRECT_FEED": 1,
        "USGS": 0,
        "GDACS": 0
      },
      "last7_score": 389.248,
      "prev7_score": 5.064,
      "trend": "up",
      "trend_arrow": "🔺",
      "change_pct": 7586.1,
      "place": "Vilnius County, Lithuania"
    },
    {
      "lon": 19.25,
      "lat": 47.75,
      "type": "hotspot_cell",
      "score": 175.952,
      "count": 346,
      "cell_deg": 0.5,
      "sources": {
        "GDELT": 175,
        "GDELT_DOC": 0,
        "DIRECT_FEED": 171,
        "USGS": 0,
        "GDACS": 0
      },
      "last7_score": 164.637,
      "prev7_score": 11.316,
      "trend": "up",
      "trend_arrow": "🔺",
      "change_pct": 1355.0,
      "place": "Pest, Hungary"
    },
    {
      "lon": 20.25,
      "lat": 52.25,
      "type": "hotspot_cell",
      "score": 169.435,
      "count": 431,
      "cell_deg": 0.5,
      "sources": {
        "GDELT": 431,
        "GDELT_DOC": 0,
        "DIRECT_FEED": 0,
        "USGS": 0,
        "GDACS": 0
      },
      "last7_score": 137.645,
      "prev7_score": 31.79,
      "trend": "up",
      "trend_arrow": "🔺",
      "change_pct": 333.0,
      "place": "Sochaczew County, Poland"
    },
    {
      "lon": 25.25,
      "lat": 46.25,
      "type": "hotspot_cell",
      "score": 159.813,
      "count": 410,
      "cell_deg": 0.5,
      "sources": {
        "GDELT": 410,
        "GDELT_DOC": 0,
        "DIRECT_FEED": 0,
        "USGS": 0,
        "GDACS": 0
      },
      "last7_score": 125.257,
      "prev7_score": 34.556,
      "trend": "up",
      "trend_arrow": "🔺",
      "change_pct": 262.5,
      "place": "Harghita, Romania"
    },
    {
      "lon": 17.25,
      "lat": 48.25,
      "type": "hotspot_cell",
      "score": 115.864,
      "count": 157,
      "cell_deg": 0.5,
      "sources": {
        "GDELT": 157,
        "GDELT_DOC": 0,
        "DIRECT_FEED": 0,
        "USGS": 0,
        "GDACS": 0
      },
      "last7_score": 115.22,
      "prev7_score": 0.644,
      "trend": "up",
      "trend_arrow": "🔺",
      "change_pct": 17802.6,
      "place": "District of Pezinok, Slovakia"
    },
    {
      "lon": 24.25,
      "lat": 56.75,
      "type": "hotspot_cell",
      "score": 109.358,
      "count": 177,
      "cell_deg": 0.5,
      "sources": {
        "GDELT": 39,
        "GDELT_DOC": 0,
        "DIRECT_FEED": 138,
        "USGS": 0,
        "GDACS": 0
      },
      "last7_score": 105.852,
      "prev7_score": 3.505,
      "trend": "up",
      "trend_arrow": "🔺",
      "change_pct": 2919.7,
      "place": "Ķekavas novads, Latvia"
    },
    {
      "lon": 20.25,
      "lat": 47.25,
      "type": "hotspot_cell",
      "score": 93.401,
      "count": 238,
      "cell_deg": 0.5,
      "sources": {
        "GDELT": 238,
        "GDELT_DOC": 0,
        "DIRECT_FEED": 0,
        "USGS": 0,
        "GDACS": 0
      },
      "last7_score": 74.724,
      "prev7_score": 18.676,
      "trend": "up",
      "trend_arrow": "🔺",
      "change_pct": 300.1,
      "place": "Jász-Nagykun-Szolnok, Hungary"
    },
    {
      "lon": 21.25,
      "lat": 52.25,
      "type": "hotspot_cell",
      "score": 59.584,
      "count": 154,
      "cell_deg": 0.5,
      "sources": {
        "GDELT": 154,
        "GDELT_DOC": 0,
        "DIRECT_FEED": 0,
        "USGS": 0,
        "GDACS": 0
      },
      "last7_score": 47.088,
      "prev7_score": 12.496,
      "trend": "up",
      "trend_arrow": "🔺",
      "change_pct": 276.8,
      "place": "Warsaw, Poland"
    }
  ]
}