{
  "generated_utc": "2026-04-17T13:26:14Z",
  "top": [
    {
      "lon": 14.25,
      "lat": 50.25,
      "type": "hotspot_cell",
      "score": 980.341,
      "count": 1428,
      "cell_deg": 0.5,
      "sources": {
        "GDELT": 115,
        "GDELT_DOC": 1313,
        "DIRECT_FEED": 0,
        "USGS": 0,
        "GDACS": 0
      },
      "last7_score": 974.359,
      "prev7_score": 5.982,
      "trend": "up",
      "trend_arrow": "🔺",
      "change_pct": 16188.6,
      "place": "SO ORP Kralupy nad Vltavou, Czechia"
    },
    {
      "lon": 26.25,
      "lat": 44.25,
      "type": "hotspot_cell",
      "score": 815.815,
      "count": 1289,
      "cell_deg": 0.5,
      "sources": {
        "GDELT": 106,
        "GDELT_DOC": 1181,
        "DIRECT_FEED": 2,
        "USGS": 0,
        "GDACS": 0
      },
      "last7_score": 808.699,
      "prev7_score": 7.116,
      "trend": "up",
      "trend_arrow": "🔺",
      "change_pct": 11265.1,
      "place": "Giurgiu, Romania"
    },
    {
      "lon": 19.25,
      "lat": 47.75,
      "type": "hotspot_cell",
      "score": 693.026,
      "count": 1505,
      "cell_deg": 0.5,
      "sources": {
        "GDELT": 1174,
        "GDELT_DOC": 0,
        "DIRECT_FEED": 331,
        "USGS": 0,
        "GDACS": 0
      },
      "last7_score": 627.189,
      "prev7_score": 65.837,
      "trend": "up",
      "trend_arrow": "🔺",
      "change_pct": 852.6,
      "place": "Pest, Hungary"
    },
    {
      "lon": 25.25,
      "lat": 54.75,
      "type": "hotspot_cell",
      "score": 514.748,
      "count": 819,
      "cell_deg": 0.5,
      "sources": {
        "GDELT": 74,
        "GDELT_DOC": 744,
        "DIRECT_FEED": 1,
        "USGS": 0,
        "GDACS": 0
      },
      "last7_score": 509.852,
      "prev7_score": 4.896,
      "trend": "up",
      "trend_arrow": "🔺",
      "change_pct": 10313.3,
      "place": "Vilnius County, Lithuania"
    },
    {
      "lon": 20.25,
      "lat": 47.25,
      "type": "hotspot_cell",
      "score": 346.171,
      "count": 784,
      "cell_deg": 0.5,
      "sources": {
        "GDELT": 784,
        "GDELT_DOC": 0,
        "DIRECT_FEED": 0,
        "USGS": 0,
        "GDACS": 0
      },
      "last7_score": 305.405,
      "prev7_score": 40.766,
      "trend": "up",
      "trend_arrow": "🔺",
      "change_pct": 649.2,
      "place": "Jász-Nagykun-Szolnok, Hungary"
    },
    {
      "lon": 20.25,
      "lat": 52.25,
      "type": "hotspot_cell",
      "score": 158.321,
      "count": 380,
      "cell_deg": 0.5,
      "sources": {
        "GDELT": 380,
        "GDELT_DOC": 0,
        "DIRECT_FEED": 0,
        "USGS": 0,
        "GDACS": 0
      },
      "last7_score": 131.216,
      "prev7_score": 27.105,
      "trend": "up",
      "trend_arrow": "🔺",
      "change_pct": 384.1,
      "place": "Sochaczew County, Poland"
    },
    {
      "lon": 24.25,
      "lat": 56.75,
      "type": "hotspot_cell",
      "score": 123.23,
      "count": 161,
      "cell_deg": 0.5,
      "sources": {
        "GDELT": 30,
        "GDELT_DOC": 0,
        "DIRECT_FEED": 131,
        "USGS": 0,
        "GDACS": 0
      },
      "last7_score": 121.542,
      "prev7_score": 1.687,
      "trend": "up",
      "trend_arrow": "🔺",
      "change_pct": 7103.5,
      "place": "Ķekavas novads, Latvia"
    },
    {
      "lon": 25.25,
      "lat": 46.25,
      "type": "hotspot_cell",
      "score": 114.974,
      "count": 258,
      "cell_deg": 0.5,
      "sources": {
        "GDELT": 258,
        "GDELT_DOC": 0,
        "DIRECT_FEED": 0,
        "USGS": 0,
        "GDACS": 0
      },
      "last7_score": 98.294,
      "prev7_score": 16.68,
      "trend": "up",
      "trend_arrow": "🔺",
      "change_pct": 489.3,
      "place": "Harghita, Romania"
    },
    {
      "lon": 21.25,
      "lat": 52.25,
      "type": "hotspot_cell",
      "score": 78.136,
      "count": 164,
      "cell_deg": 0.5,
      "sources": {
        "GDELT": 164,
        "GDELT_DOC": 0,
        "DIRECT_FEED": 0,
        "USGS": 0,
        "GDACS": 0
      },
      "last7_score": 70.203,
      "prev7_score": 7.933,
      "trend": "up",
      "trend_arrow": "🔺",
      "change_pct": 785.0,
      "place": "Warsaw, Poland"
    },
    {
      "lon": 15.25,
      "lat": 49.75,
      "type": "hotspot_cell",
      "score": 74.097,
      "count": 160,
      "cell_deg": 0.5,
      "sources": {
        "GDELT": 160,
        "GDELT_DOC": 0,
        "DIRECT_FEED": 0,
        "USGS": 0,
        "GDACS": 0
      },
      "last7_score": 64.713,
      "prev7_score": 9.384,
      "trend": "up",
      "trend_arrow": "🔺",
      "change_pct": 589.7,
      "place": "Vysočina Region, Czechia"
    }
  ]
}