{
  "generated_utc": "2026-04-14T19:20:39Z",
  "top": [
    {
      "lon": 19.25,
      "lat": 47.75,
      "type": "hotspot_cell",
      "score": 853.561,
      "count": 1390,
      "cell_deg": 0.5,
      "sources": {
        "GDELT": 1068,
        "GDELT_DOC": 0,
        "DIRECT_FEED": 322,
        "USGS": 0,
        "GDACS": 0
      },
      "last7_score": 809.633,
      "prev7_score": 43.928,
      "trend": "up",
      "trend_arrow": "🔺",
      "change_pct": 1743.1,
      "place": "Pest, Hungary"
    },
    {
      "lon": 26.25,
      "lat": 44.25,
      "type": "hotspot_cell",
      "score": 822.319,
      "count": 1436,
      "cell_deg": 0.5,
      "sources": {
        "GDELT": 133,
        "GDELT_DOC": 1300,
        "DIRECT_FEED": 3,
        "USGS": 0,
        "GDACS": 0
      },
      "last7_score": 809.922,
      "prev7_score": 12.397,
      "trend": "up",
      "trend_arrow": "🔺",
      "change_pct": 6433.2,
      "place": "Giurgiu, Romania"
    },
    {
      "lon": 14.25,
      "lat": 50.25,
      "type": "hotspot_cell",
      "score": 804.223,
      "count": 1290,
      "cell_deg": 0.5,
      "sources": {
        "GDELT": 81,
        "GDELT_DOC": 1209,
        "DIRECT_FEED": 0,
        "USGS": 0,
        "GDACS": 0
      },
      "last7_score": 799.532,
      "prev7_score": 4.691,
      "trend": "up",
      "trend_arrow": "🔺",
      "change_pct": 16943.2,
      "place": "SO ORP Kralupy nad Vltavou, Czechia"
    },
    {
      "lon": 25.25,
      "lat": 54.75,
      "type": "hotspot_cell",
      "score": 540.398,
      "count": 941,
      "cell_deg": 0.5,
      "sources": {
        "GDELT": 78,
        "GDELT_DOC": 861,
        "DIRECT_FEED": 2,
        "USGS": 0,
        "GDACS": 0
      },
      "last7_score": 535.836,
      "prev7_score": 4.562,
      "trend": "up",
      "trend_arrow": "🔺",
      "change_pct": 11644.9,
      "place": "Vilnius County, Lithuania"
    },
    {
      "lon": 20.25,
      "lat": 47.25,
      "type": "hotspot_cell",
      "score": 366.853,
      "count": 673,
      "cell_deg": 0.5,
      "sources": {
        "GDELT": 673,
        "GDELT_DOC": 0,
        "DIRECT_FEED": 0,
        "USGS": 0,
        "GDACS": 0
      },
      "last7_score": 339.194,
      "prev7_score": 27.659,
      "trend": "up",
      "trend_arrow": "🔺",
      "change_pct": 1126.3,
      "place": "Jász-Nagykun-Szolnok, Hungary"
    },
    {
      "lon": 20.25,
      "lat": 52.25,
      "type": "hotspot_cell",
      "score": 153.706,
      "count": 405,
      "cell_deg": 0.5,
      "sources": {
        "GDELT": 405,
        "GDELT_DOC": 0,
        "DIRECT_FEED": 0,
        "USGS": 0,
        "GDACS": 0
      },
      "last7_score": 132.13,
      "prev7_score": 21.576,
      "trend": "up",
      "trend_arrow": "🔺",
      "change_pct": 512.4,
      "place": "Sochaczew County, Poland"
    },
    {
      "lon": 24.25,
      "lat": 56.75,
      "type": "hotspot_cell",
      "score": 109.371,
      "count": 162,
      "cell_deg": 0.5,
      "sources": {
        "GDELT": 27,
        "GDELT_DOC": 0,
        "DIRECT_FEED": 135,
        "USGS": 0,
        "GDACS": 0
      },
      "last7_score": 108.863,
      "prev7_score": 0.508,
      "trend": "up",
      "trend_arrow": "🔺",
      "change_pct": 21322.3,
      "place": "Ķekavas novads, Latvia"
    },
    {
      "lon": 25.25,
      "lat": 46.25,
      "type": "hotspot_cell",
      "score": 84.56,
      "count": 245,
      "cell_deg": 0.5,
      "sources": {
        "GDELT": 245,
        "GDELT_DOC": 0,
        "DIRECT_FEED": 0,
        "USGS": 0,
        "GDACS": 0
      },
      "last7_score": 66.618,
      "prev7_score": 17.942,
      "trend": "up",
      "trend_arrow": "🔺",
      "change_pct": 271.3,
      "place": "Harghita, Romania"
    },
    {
      "lon": 15.25,
      "lat": 49.75,
      "type": "hotspot_cell",
      "score": 63.93,
      "count": 141,
      "cell_deg": 0.5,
      "sources": {
        "GDELT": 141,
        "GDELT_DOC": 0,
        "DIRECT_FEED": 0,
        "USGS": 0,
        "GDACS": 0
      },
      "last7_score": 56.15,
      "prev7_score": 7.78,
      "trend": "up",
      "trend_arrow": "🔺",
      "change_pct": 621.7,
      "place": "Vysočina Region, Czechia"
    },
    {
      "lon": 21.25,
      "lat": 52.25,
      "type": "hotspot_cell",
      "score": 61.448,
      "count": 141,
      "cell_deg": 0.5,
      "sources": {
        "GDELT": 141,
        "GDELT_DOC": 0,
        "DIRECT_FEED": 0,
        "USGS": 0,
        "GDACS": 0
      },
      "last7_score": 54.087,
      "prev7_score": 7.362,
      "trend": "up",
      "trend_arrow": "🔺",
      "change_pct": 634.7,
      "place": "Warsaw, Poland"
    }
  ]
}