{
  "generated_utc": "2026-04-02T07:23:08Z",
  "top": [
    {
      "lon": 14.25,
      "lat": 50.25,
      "type": "hotspot_cell",
      "score": 1019.352,
      "count": 1629,
      "cell_deg": 0.5,
      "sources": {
        "GDELT": 114,
        "GDELT_DOC": 1512,
        "DIRECT_FEED": 3,
        "USGS": 0,
        "GDACS": 0
      },
      "last7_score": 1010.797,
      "prev7_score": 8.555,
      "trend": "up",
      "trend_arrow": "🔺",
      "change_pct": 11715.5,
      "place": "SO ORP Kralupy nad Vltavou, Czechia"
    },
    {
      "lon": 26.25,
      "lat": 44.25,
      "type": "hotspot_cell",
      "score": 841.179,
      "count": 1277,
      "cell_deg": 0.5,
      "sources": {
        "GDELT": 143,
        "GDELT_DOC": 1131,
        "DIRECT_FEED": 3,
        "USGS": 0,
        "GDACS": 0
      },
      "last7_score": 829.925,
      "prev7_score": 11.255,
      "trend": "up",
      "trend_arrow": "🔺",
      "change_pct": 7274.0,
      "place": "Giurgiu, Romania"
    },
    {
      "lon": 25.25,
      "lat": 54.75,
      "type": "hotspot_cell",
      "score": 741.866,
      "count": 1211,
      "cell_deg": 0.5,
      "sources": {
        "GDELT": 91,
        "GDELT_DOC": 1120,
        "DIRECT_FEED": 0,
        "USGS": 0,
        "GDACS": 0
      },
      "last7_score": 735.555,
      "prev7_score": 6.311,
      "trend": "up",
      "trend_arrow": "🔺",
      "change_pct": 11554.5,
      "place": "Vilnius County, Lithuania"
    },
    {
      "lon": 19.25,
      "lat": 47.75,
      "type": "hotspot_cell",
      "score": 245.416,
      "count": 487,
      "cell_deg": 0.5,
      "sources": {
        "GDELT": 269,
        "GDELT_DOC": 0,
        "DIRECT_FEED": 218,
        "USGS": 0,
        "GDACS": 0
      },
      "last7_score": 220.347,
      "prev7_score": 25.069,
      "trend": "up",
      "trend_arrow": "🔺",
      "change_pct": 778.9,
      "place": "Pest, Hungary"
    },
    {
      "lon": 20.25,
      "lat": 52.25,
      "type": "hotspot_cell",
      "score": 184.887,
      "count": 448,
      "cell_deg": 0.5,
      "sources": {
        "GDELT": 448,
        "GDELT_DOC": 0,
        "DIRECT_FEED": 0,
        "USGS": 0,
        "GDACS": 0
      },
      "last7_score": 154.457,
      "prev7_score": 30.43,
      "trend": "up",
      "trend_arrow": "🔺",
      "change_pct": 407.6,
      "place": "Sochaczew County, Poland"
    },
    {
      "lon": 20.25,
      "lat": 47.25,
      "type": "hotspot_cell",
      "score": 124.427,
      "count": 330,
      "cell_deg": 0.5,
      "sources": {
        "GDELT": 330,
        "GDELT_DOC": 0,
        "DIRECT_FEED": 0,
        "USGS": 0,
        "GDACS": 0
      },
      "last7_score": 96.884,
      "prev7_score": 27.543,
      "trend": "up",
      "trend_arrow": "🔺",
      "change_pct": 251.8,
      "place": "Jász-Nagykun-Szolnok, Hungary"
    },
    {
      "lon": 24.25,
      "lat": 56.75,
      "type": "hotspot_cell",
      "score": 119.053,
      "count": 184,
      "cell_deg": 0.5,
      "sources": {
        "GDELT": 46,
        "GDELT_DOC": 0,
        "DIRECT_FEED": 138,
        "USGS": 0,
        "GDACS": 0
      },
      "last7_score": 114.408,
      "prev7_score": 4.645,
      "trend": "up",
      "trend_arrow": "🔺",
      "change_pct": 2363.0,
      "place": "Ķekavas novads, Latvia"
    },
    {
      "lon": 25.25,
      "lat": 46.25,
      "type": "hotspot_cell",
      "score": 110.825,
      "count": 300,
      "cell_deg": 0.5,
      "sources": {
        "GDELT": 300,
        "GDELT_DOC": 0,
        "DIRECT_FEED": 0,
        "USGS": 0,
        "GDACS": 0
      },
      "last7_score": 82.374,
      "prev7_score": 28.451,
      "trend": "up",
      "trend_arrow": "🔺",
      "change_pct": 189.5,
      "place": "Harghita, Romania"
    },
    {
      "lon": 27.75,
      "lat": 47.25,
      "type": "hotspot_cell",
      "score": 60.633,
      "count": 87,
      "cell_deg": 0.5,
      "sources": {
        "GDELT": 0,
        "GDELT_DOC": 87,
        "DIRECT_FEED": 0,
        "USGS": 0,
        "GDACS": 0
      },
      "last7_score": 60.633,
      "prev7_score": 0.0,
      "trend": "new",
      "trend_arrow": "🆕",
      "change_pct": null,
      "place": "Iași, Romania"
    },
    {
      "lon": 21.25,
      "lat": 52.25,
      "type": "hotspot_cell",
      "score": 56.317,
      "count": 134,
      "cell_deg": 0.5,
      "sources": {
        "GDELT": 134,
        "GDELT_DOC": 0,
        "DIRECT_FEED": 0,
        "USGS": 0,
        "GDACS": 0
      },
      "last7_score": 45.321,
      "prev7_score": 10.996,
      "trend": "up",
      "trend_arrow": "🔺",
      "change_pct": 312.2,
      "place": "Warsaw, Poland"
    }
  ]
}