{
  "generated_utc": "2026-06-24T14:15:19Z",
  "top": [
    {
      "lon": 14.25,
      "lat": 50.25,
      "type": "hotspot_cell",
      "score": 662.188,
      "count": 962,
      "cell_deg": 0.5,
      "sources": {
        "GDELT": 130,
        "GDELT_DOC": 820,
        "DIRECT_FEED": 12,
        "USGS": 0,
        "GDACS": 0
      },
      "last7_score": 654.557,
      "prev7_score": 7.631,
      "trend": "up",
      "trend_arrow": "🔺",
      "change_pct": 8477.7,
      "place": "SO ORP Kralupy nad Vltavou, Czechia"
    },
    {
      "lon": 26.25,
      "lat": 44.25,
      "type": "hotspot_cell",
      "score": 627.855,
      "count": 998,
      "cell_deg": 0.5,
      "sources": {
        "GDELT": 141,
        "GDELT_DOC": 849,
        "DIRECT_FEED": 8,
        "USGS": 0,
        "GDACS": 0
      },
      "last7_score": 616.958,
      "prev7_score": 10.896,
      "trend": "up",
      "trend_arrow": "🔺",
      "change_pct": 5562.0,
      "place": "Giurgiu, Romania"
    },
    {
      "lon": 25.25,
      "lat": 54.75,
      "type": "hotspot_cell",
      "score": 461.213,
      "count": 796,
      "cell_deg": 0.5,
      "sources": {
        "GDELT": 56,
        "GDELT_DOC": 740,
        "DIRECT_FEED": 0,
        "USGS": 0,
        "GDACS": 0
      },
      "last7_score": 456.784,
      "prev7_score": 4.429,
      "trend": "up",
      "trend_arrow": "🔺",
      "change_pct": 10213.1,
      "place": "Vilnius County, Lithuania"
    },
    {
      "lon": 19.25,
      "lat": 47.75,
      "type": "hotspot_cell",
      "score": 194.372,
      "count": 355,
      "cell_deg": 0.5,
      "sources": {
        "GDELT": 183,
        "GDELT_DOC": 0,
        "DIRECT_FEED": 172,
        "USGS": 0,
        "GDACS": 0
      },
      "last7_score": 182.809,
      "prev7_score": 11.563,
      "trend": "up",
      "trend_arrow": "🔺",
      "change_pct": 1480.9,
      "place": "Pest, Hungary"
    },
    {
      "lon": 20.25,
      "lat": 52.25,
      "type": "hotspot_cell",
      "score": 170.687,
      "count": 476,
      "cell_deg": 0.5,
      "sources": {
        "GDELT": 476,
        "GDELT_DOC": 0,
        "DIRECT_FEED": 0,
        "USGS": 0,
        "GDACS": 0
      },
      "last7_score": 137.463,
      "prev7_score": 33.224,
      "trend": "up",
      "trend_arrow": "🔺",
      "change_pct": 313.7,
      "place": "Sochaczew County, Poland"
    },
    {
      "lon": 25.25,
      "lat": 46.25,
      "type": "hotspot_cell",
      "score": 146.642,
      "count": 396,
      "cell_deg": 0.5,
      "sources": {
        "GDELT": 396,
        "GDELT_DOC": 0,
        "DIRECT_FEED": 0,
        "USGS": 0,
        "GDACS": 0
      },
      "last7_score": 117.278,
      "prev7_score": 29.363,
      "trend": "up",
      "trend_arrow": "🔺",
      "change_pct": 299.4,
      "place": "Harghita, Romania"
    },
    {
      "lon": 21.25,
      "lat": 52.25,
      "type": "hotspot_cell",
      "score": 142.819,
      "count": 306,
      "cell_deg": 0.5,
      "sources": {
        "GDELT": 306,
        "GDELT_DOC": 0,
        "DIRECT_FEED": 0,
        "USGS": 0,
        "GDACS": 0
      },
      "last7_score": 125.984,
      "prev7_score": 16.835,
      "trend": "up",
      "trend_arrow": "🔺",
      "change_pct": 648.3,
      "place": "Warsaw, Poland"
    },
    {
      "lon": 24.25,
      "lat": 56.75,
      "type": "hotspot_cell",
      "score": 116.838,
      "count": 178,
      "cell_deg": 0.5,
      "sources": {
        "GDELT": 36,
        "GDELT_DOC": 0,
        "DIRECT_FEED": 142,
        "USGS": 0,
        "GDACS": 0
      },
      "last7_score": 114.717,
      "prev7_score": 2.121,
      "trend": "up",
      "trend_arrow": "🔺",
      "change_pct": 5309.6,
      "place": "Ķekavas novads, Latvia"
    },
    {
      "lon": 20.25,
      "lat": 47.25,
      "type": "hotspot_cell",
      "score": 91.97,
      "count": 248,
      "cell_deg": 0.5,
      "sources": {
        "GDELT": 247,
        "GDELT_DOC": 0,
        "DIRECT_FEED": 0,
        "USGS": 0,
        "GDACS": 1
      },
      "last7_score": 73.959,
      "prev7_score": 18.01,
      "trend": "up",
      "trend_arrow": "🔺",
      "change_pct": 310.6,
      "place": "Jász-Nagykun-Szolnok, Hungary"
    },
    {
      "lon": 15.25,
      "lat": 49.75,
      "type": "hotspot_cell",
      "score": 53.726,
      "count": 146,
      "cell_deg": 0.5,
      "sources": {
        "GDELT": 146,
        "GDELT_DOC": 0,
        "DIRECT_FEED": 0,
        "USGS": 0,
        "GDACS": 0
      },
      "last7_score": 43.636,
      "prev7_score": 10.09,
      "trend": "up",
      "trend_arrow": "🔺",
      "change_pct": 332.5,
      "place": "Vysočina Region, Czechia"
    }
  ]
}