{
  "generated_utc": "2026-06-28T13:25:25Z",
  "top": [
    {
      "lon": 14.25,
      "lat": 50.25,
      "type": "hotspot_cell",
      "score": 629.516,
      "count": 1159,
      "cell_deg": 0.5,
      "sources": {
        "GDELT": 127,
        "GDELT_DOC": 1021,
        "DIRECT_FEED": 11,
        "USGS": 0,
        "GDACS": 0
      },
      "last7_score": 622.104,
      "prev7_score": 7.413,
      "trend": "up",
      "trend_arrow": "🔺",
      "change_pct": 8292.5,
      "place": "SO ORP Kralupy nad Vltavou, Czechia"
    },
    {
      "lon": 26.25,
      "lat": 44.25,
      "type": "hotspot_cell",
      "score": 627.809,
      "count": 1070,
      "cell_deg": 0.5,
      "sources": {
        "GDELT": 136,
        "GDELT_DOC": 924,
        "DIRECT_FEED": 10,
        "USGS": 0,
        "GDACS": 0
      },
      "last7_score": 620.25,
      "prev7_score": 7.558,
      "trend": "up",
      "trend_arrow": "🔺",
      "change_pct": 8106.2,
      "place": "Giurgiu, Romania"
    },
    {
      "lon": 25.25,
      "lat": 54.75,
      "type": "hotspot_cell",
      "score": 376.212,
      "count": 606,
      "cell_deg": 0.5,
      "sources": {
        "GDELT": 58,
        "GDELT_DOC": 548,
        "DIRECT_FEED": 0,
        "USGS": 0,
        "GDACS": 0
      },
      "last7_score": 372.933,
      "prev7_score": 3.279,
      "trend": "up",
      "trend_arrow": "🔺",
      "change_pct": 11274.3,
      "place": "Vilnius County, Lithuania"
    },
    {
      "lon": 20.25,
      "lat": 52.25,
      "type": "hotspot_cell",
      "score": 187.439,
      "count": 529,
      "cell_deg": 0.5,
      "sources": {
        "GDELT": 529,
        "GDELT_DOC": 0,
        "DIRECT_FEED": 0,
        "USGS": 0,
        "GDACS": 0
      },
      "last7_score": 156.077,
      "prev7_score": 31.362,
      "trend": "up",
      "trend_arrow": "🔺",
      "change_pct": 397.7,
      "place": "Sochaczew County, Poland"
    },
    {
      "lon": 19.25,
      "lat": 47.75,
      "type": "hotspot_cell",
      "score": 175.932,
      "count": 363,
      "cell_deg": 0.5,
      "sources": {
        "GDELT": 200,
        "GDELT_DOC": 0,
        "DIRECT_FEED": 163,
        "USGS": 0,
        "GDACS": 0
      },
      "last7_score": 165.949,
      "prev7_score": 9.983,
      "trend": "up",
      "trend_arrow": "🔺",
      "change_pct": 1562.3,
      "place": "Pest, Hungary"
    },
    {
      "lon": 25.25,
      "lat": 46.25,
      "type": "hotspot_cell",
      "score": 118.372,
      "count": 399,
      "cell_deg": 0.5,
      "sources": {
        "GDELT": 399,
        "GDELT_DOC": 0,
        "DIRECT_FEED": 0,
        "USGS": 0,
        "GDACS": 0
      },
      "last7_score": 94.62,
      "prev7_score": 23.752,
      "trend": "up",
      "trend_arrow": "🔺",
      "change_pct": 298.4,
      "place": "Harghita, Romania"
    },
    {
      "lon": 24.25,
      "lat": 56.75,
      "type": "hotspot_cell",
      "score": 116.063,
      "count": 182,
      "cell_deg": 0.5,
      "sources": {
        "GDELT": 31,
        "GDELT_DOC": 0,
        "DIRECT_FEED": 151,
        "USGS": 0,
        "GDACS": 0
      },
      "last7_score": 113.643,
      "prev7_score": 2.42,
      "trend": "up",
      "trend_arrow": "🔺",
      "change_pct": 4595.5,
      "place": "Ķekavas novads, Latvia"
    },
    {
      "lon": 21.25,
      "lat": 52.25,
      "type": "hotspot_cell",
      "score": 115.585,
      "count": 352,
      "cell_deg": 0.5,
      "sources": {
        "GDELT": 352,
        "GDELT_DOC": 0,
        "DIRECT_FEED": 0,
        "USGS": 0,
        "GDACS": 0
      },
      "last7_score": 89.132,
      "prev7_score": 26.452,
      "trend": "up",
      "trend_arrow": "🔺",
      "change_pct": 237.0,
      "place": "Warsaw, Poland"
    },
    {
      "lon": 20.25,
      "lat": 47.25,
      "type": "hotspot_cell",
      "score": 71.136,
      "count": 234,
      "cell_deg": 0.5,
      "sources": {
        "GDELT": 233,
        "GDELT_DOC": 0,
        "DIRECT_FEED": 0,
        "USGS": 0,
        "GDACS": 1
      },
      "last7_score": 57.039,
      "prev7_score": 14.097,
      "trend": "up",
      "trend_arrow": "🔺",
      "change_pct": 304.6,
      "place": "Jász-Nagykun-Szolnok, Hungary"
    },
    {
      "lon": 15.25,
      "lat": 49.75,
      "type": "hotspot_cell",
      "score": 59.118,
      "count": 157,
      "cell_deg": 0.5,
      "sources": {
        "GDELT": 157,
        "GDELT_DOC": 0,
        "DIRECT_FEED": 0,
        "USGS": 0,
        "GDACS": 0
      },
      "last7_score": 49.152,
      "prev7_score": 9.966,
      "trend": "up",
      "trend_arrow": "🔺",
      "change_pct": 393.2,
      "place": "Vysočina Region, Czechia"
    }
  ]
}