{
  "generated_utc": "2026-06-05T09:39:51Z",
  "top": [
    {
      "lon": 26.25,
      "lat": 44.25,
      "type": "hotspot_cell",
      "score": 751.565,
      "count": 1155,
      "cell_deg": 0.5,
      "sources": {
        "GDELT": 233,
        "GDELT_DOC": 912,
        "DIRECT_FEED": 10,
        "USGS": 0,
        "GDACS": 0
      },
      "last7_score": 721.732,
      "prev7_score": 29.833,
      "trend": "up",
      "trend_arrow": "🔺",
      "change_pct": 2319.2,
      "place": "Giurgiu, Romania"
    },
    {
      "lon": 25.25,
      "lat": 54.75,
      "type": "hotspot_cell",
      "score": 694.306,
      "count": 1070,
      "cell_deg": 0.5,
      "sources": {
        "GDELT": 80,
        "GDELT_DOC": 987,
        "DIRECT_FEED": 3,
        "USGS": 0,
        "GDACS": 0
      },
      "last7_score": 688.404,
      "prev7_score": 5.903,
      "trend": "up",
      "trend_arrow": "🔺",
      "change_pct": 11562.4,
      "place": "Vilnius County, Lithuania"
    },
    {
      "lon": 14.25,
      "lat": 50.25,
      "type": "hotspot_cell",
      "score": 656.22,
      "count": 1122,
      "cell_deg": 0.5,
      "sources": {
        "GDELT": 134,
        "GDELT_DOC": 983,
        "DIRECT_FEED": 5,
        "USGS": 0,
        "GDACS": 0
      },
      "last7_score": 646.526,
      "prev7_score": 9.694,
      "trend": "up",
      "trend_arrow": "🔺",
      "change_pct": 6569.1,
      "place": "SO ORP Kralupy nad Vltavou, Czechia"
    },
    {
      "lon": 19.25,
      "lat": 47.75,
      "type": "hotspot_cell",
      "score": 251.688,
      "count": 448,
      "cell_deg": 0.5,
      "sources": {
        "GDELT": 249,
        "GDELT_DOC": 0,
        "DIRECT_FEED": 199,
        "USGS": 0,
        "GDACS": 0
      },
      "last7_score": 232.593,
      "prev7_score": 19.096,
      "trend": "up",
      "trend_arrow": "🔺",
      "change_pct": 1118.0,
      "place": "Pest, Hungary"
    },
    {
      "lon": 20.25,
      "lat": 52.25,
      "type": "hotspot_cell",
      "score": 206.883,
      "count": 567,
      "cell_deg": 0.5,
      "sources": {
        "GDELT": 567,
        "GDELT_DOC": 0,
        "DIRECT_FEED": 0,
        "USGS": 0,
        "GDACS": 0
      },
      "last7_score": 161.332,
      "prev7_score": 45.551,
      "trend": "up",
      "trend_arrow": "🔺",
      "change_pct": 254.2,
      "place": "Sochaczew County, Poland"
    },
    {
      "lon": 25.25,
      "lat": 46.25,
      "type": "hotspot_cell",
      "score": 192.694,
      "count": 470,
      "cell_deg": 0.5,
      "sources": {
        "GDELT": 470,
        "GDELT_DOC": 0,
        "DIRECT_FEED": 0,
        "USGS": 0,
        "GDACS": 0
      },
      "last7_score": 143.051,
      "prev7_score": 49.643,
      "trend": "up",
      "trend_arrow": "🔺",
      "change_pct": 188.2,
      "place": "Harghita, Romania"
    },
    {
      "lon": 24.25,
      "lat": 56.75,
      "type": "hotspot_cell",
      "score": 129.913,
      "count": 189,
      "cell_deg": 0.5,
      "sources": {
        "GDELT": 42,
        "GDELT_DOC": 0,
        "DIRECT_FEED": 147,
        "USGS": 0,
        "GDACS": 0
      },
      "last7_score": 125.72,
      "prev7_score": 4.193,
      "trend": "up",
      "trend_arrow": "🔺",
      "change_pct": 2898.4,
      "place": "Ķekavas novads, Latvia"
    },
    {
      "lon": 20.25,
      "lat": 47.25,
      "type": "hotspot_cell",
      "score": 100.649,
      "count": 253,
      "cell_deg": 0.5,
      "sources": {
        "GDELT": 253,
        "GDELT_DOC": 0,
        "DIRECT_FEED": 0,
        "USGS": 0,
        "GDACS": 0
      },
      "last7_score": 80.337,
      "prev7_score": 20.312,
      "trend": "up",
      "trend_arrow": "🔺",
      "change_pct": 295.5,
      "place": "Jász-Nagykun-Szolnok, Hungary"
    },
    {
      "lon": 21.25,
      "lat": 52.25,
      "type": "hotspot_cell",
      "score": 88.315,
      "count": 222,
      "cell_deg": 0.5,
      "sources": {
        "GDELT": 222,
        "GDELT_DOC": 0,
        "DIRECT_FEED": 0,
        "USGS": 0,
        "GDACS": 0
      },
      "last7_score": 70.036,
      "prev7_score": 18.278,
      "trend": "up",
      "trend_arrow": "🔺",
      "change_pct": 283.2,
      "place": "Warsaw, Poland"
    },
    {
      "lon": 24.25,
      "lat": 56.25,
      "type": "hotspot_cell",
      "score": 55.65,
      "count": 133,
      "cell_deg": 0.5,
      "sources": {
        "GDELT": 133,
        "GDELT_DOC": 0,
        "DIRECT_FEED": 0,
        "USGS": 0,
        "GDACS": 0
      },
      "last7_score": 44.359,
      "prev7_score": 11.291,
      "trend": "up",
      "trend_arrow": "🔺",
      "change_pct": 292.9,
      "place": "Namišių seniūnija, Lithuania"
    }
  ]
}