{
  "generated_utc": "2026-04-27T14:00:42Z",
  "top": [
    {
      "lon": 14.25,
      "lat": 50.25,
      "type": "hotspot_cell",
      "score": 987.315,
      "count": 1822,
      "cell_deg": 0.5,
      "sources": {
        "GDELT": 187,
        "GDELT_DOC": 1633,
        "DIRECT_FEED": 2,
        "USGS": 0,
        "GDACS": 0
      },
      "last7_score": 973.843,
      "prev7_score": 13.472,
      "trend": "up",
      "trend_arrow": "🔺",
      "change_pct": 7128.5,
      "place": "SO ORP Kralupy nad Vltavou, Czechia"
    },
    {
      "lon": 26.25,
      "lat": 44.25,
      "type": "hotspot_cell",
      "score": 980.286,
      "count": 1569,
      "cell_deg": 0.5,
      "sources": {
        "GDELT": 146,
        "GDELT_DOC": 1414,
        "DIRECT_FEED": 9,
        "USGS": 0,
        "GDACS": 0
      },
      "last7_score": 969.721,
      "prev7_score": 10.565,
      "trend": "up",
      "trend_arrow": "🔺",
      "change_pct": 9078.8,
      "place": "Giurgiu, Romania"
    },
    {
      "lon": 25.25,
      "lat": 54.75,
      "type": "hotspot_cell",
      "score": 672.886,
      "count": 1170,
      "cell_deg": 0.5,
      "sources": {
        "GDELT": 72,
        "GDELT_DOC": 1098,
        "DIRECT_FEED": 0,
        "USGS": 0,
        "GDACS": 0
      },
      "last7_score": 667.833,
      "prev7_score": 5.053,
      "trend": "up",
      "trend_arrow": "🔺",
      "change_pct": 13115.6,
      "place": "Vilnius County, Lithuania"
    },
    {
      "lon": 19.25,
      "lat": 47.75,
      "type": "hotspot_cell",
      "score": 294.211,
      "count": 811,
      "cell_deg": 0.5,
      "sources": {
        "GDELT": 566,
        "GDELT_DOC": 0,
        "DIRECT_FEED": 245,
        "USGS": 0,
        "GDACS": 0
      },
      "last7_score": 255.676,
      "prev7_score": 38.535,
      "trend": "up",
      "trend_arrow": "🔺",
      "change_pct": 563.5,
      "place": "Pest, Hungary"
    },
    {
      "lon": 20.25,
      "lat": 47.25,
      "type": "hotspot_cell",
      "score": 203.305,
      "count": 692,
      "cell_deg": 0.5,
      "sources": {
        "GDELT": 692,
        "GDELT_DOC": 0,
        "DIRECT_FEED": 0,
        "USGS": 0,
        "GDACS": 0
      },
      "last7_score": 158.739,
      "prev7_score": 44.566,
      "trend": "up",
      "trend_arrow": "🔺",
      "change_pct": 256.2,
      "place": "Jász-Nagykun-Szolnok, Hungary"
    },
    {
      "lon": 20.25,
      "lat": 52.25,
      "type": "hotspot_cell",
      "score": 157.605,
      "count": 457,
      "cell_deg": 0.5,
      "sources": {
        "GDELT": 457,
        "GDELT_DOC": 0,
        "DIRECT_FEED": 0,
        "USGS": 0,
        "GDACS": 0
      },
      "last7_score": 130.417,
      "prev7_score": 27.188,
      "trend": "up",
      "trend_arrow": "🔺",
      "change_pct": 379.7,
      "place": "Sochaczew County, Poland"
    },
    {
      "lon": 26.75,
      "lat": 47.75,
      "type": "hotspot_cell",
      "score": 134.441,
      "count": 169,
      "cell_deg": 0.5,
      "sources": {
        "GDELT": 2,
        "GDELT_DOC": 164,
        "DIRECT_FEED": 3,
        "USGS": 0,
        "GDACS": 0
      },
      "last7_score": 134.092,
      "prev7_score": 0.349,
      "trend": "up",
      "trend_arrow": "🔺",
      "change_pct": 38280.6,
      "place": "Botoșani, Romania"
    },
    {
      "lon": 24.25,
      "lat": 56.75,
      "type": "hotspot_cell",
      "score": 108.398,
      "count": 179,
      "cell_deg": 0.5,
      "sources": {
        "GDELT": 35,
        "GDELT_DOC": 0,
        "DIRECT_FEED": 144,
        "USGS": 0,
        "GDACS": 0
      },
      "last7_score": 106.693,
      "prev7_score": 1.706,
      "trend": "up",
      "trend_arrow": "🔺",
      "change_pct": 6154.6,
      "place": "Ķekavas novads, Latvia"
    },
    {
      "lon": 25.25,
      "lat": 46.25,
      "type": "hotspot_cell",
      "score": 100.102,
      "count": 286,
      "cell_deg": 0.5,
      "sources": {
        "GDELT": 286,
        "GDELT_DOC": 0,
        "DIRECT_FEED": 0,
        "USGS": 0,
        "GDACS": 0
      },
      "last7_score": 83.048,
      "prev7_score": 17.054,
      "trend": "up",
      "trend_arrow": "🔺",
      "change_pct": 387.0,
      "place": "Harghita, Romania"
    },
    {
      "lon": 22.25,
      "lat": 55.25,
      "type": "hotspot_cell",
      "score": 76.861,
      "count": 110,
      "cell_deg": 0.5,
      "sources": {
        "GDELT": 0,
        "GDELT_DOC": 109,
        "DIRECT_FEED": 1,
        "USGS": 0,
        "GDACS": 0
      },
      "last7_score": 76.861,
      "prev7_score": 0.0,
      "trend": "new",
      "trend_arrow": "🆕",
      "change_pct": null,
      "place": "Tauragės seniūnija, Lithuania"
    }
  ]
}