{
  "generated_utc": "2026-03-04T13:01:45Z",
  "top": [
    {
      "lon": 21.25,
      "lat": 52.25,
      "type": "hotspot_cell",
      "score": 18.374,
      "count": 46,
      "cell_deg": 0.5,
      "sources": {
        "GDELT": 46,
        "USGS": 0,
        "GDACS": 0
      },
      "last7_score": 15.653,
      "prev7_score": 2.722,
      "trend": "up",
      "trend_arrow": "🔺",
      "change_pct": 475.1,
      "place": "Warsaw, Poland"
    },
    {
      "lon": 20.25,
      "lat": 52.25,
      "type": "hotspot_cell",
      "score": 17.001,
      "count": 48,
      "cell_deg": 0.5,
      "sources": {
        "GDELT": 48,
        "USGS": 0,
        "GDACS": 0
      },
      "last7_score": 13.897,
      "prev7_score": 3.105,
      "trend": "up",
      "trend_arrow": "🔺",
      "change_pct": 347.6,
      "place": "Sochaczew County, Poland"
    },
    {
      "lon": 20.25,
      "lat": 47.25,
      "type": "hotspot_cell",
      "score": 16.43,
      "count": 41,
      "cell_deg": 0.5,
      "sources": {
        "GDELT": 41,
        "USGS": 0,
        "GDACS": 0
      },
      "last7_score": 13.535,
      "prev7_score": 2.895,
      "trend": "up",
      "trend_arrow": "🔺",
      "change_pct": 367.6,
      "place": "Jász-Nagykun-Szolnok, Hungary"
    },
    {
      "lon": 26.25,
      "lat": 59.25,
      "type": "hotspot_cell",
      "score": 15.69,
      "count": 36,
      "cell_deg": 0.5,
      "sources": {
        "GDELT": 36,
        "USGS": 0,
        "GDACS": 0
      },
      "last7_score": 13.916,
      "prev7_score": 1.774,
      "trend": "up",
      "trend_arrow": "🔺",
      "change_pct": 684.3,
      "place": "Lääne-Viru County, Estonia"
    },
    {
      "lon": 14.25,
      "lat": 50.25,
      "type": "hotspot_cell",
      "score": 15.249,
      "count": 38,
      "cell_deg": 0.5,
      "sources": {
        "GDELT": 38,
        "USGS": 0,
        "GDACS": 0
      },
      "last7_score": 12.575,
      "prev7_score": 2.674,
      "trend": "up",
      "trend_arrow": "🔺",
      "change_pct": 370.4,
      "place": "SO ORP Kralupy nad Vltavou, Czechia"
    },
    {
      "lon": 19.25,
      "lat": 47.75,
      "type": "hotspot_cell",
      "score": 14.777,
      "count": 40,
      "cell_deg": 0.5,
      "sources": {
        "GDELT": 40,
        "USGS": 0,
        "GDACS": 0
      },
      "last7_score": 12.071,
      "prev7_score": 2.705,
      "trend": "up",
      "trend_arrow": "🔺",
      "change_pct": 346.2,
      "place": "Pest, Hungary"
    },
    {
      "lon": 25.25,
      "lat": 46.25,
      "type": "hotspot_cell",
      "score": 14.466,
      "count": 35,
      "cell_deg": 0.5,
      "sources": {
        "GDELT": 35,
        "USGS": 0,
        "GDACS": 0
      },
      "last7_score": 12.152,
      "prev7_score": 2.314,
      "trend": "up",
      "trend_arrow": "🔺",
      "change_pct": 425.2,
      "place": "Harghita, Romania"
    },
    {
      "lon": 15.25,
      "lat": 49.75,
      "type": "hotspot_cell",
      "score": 12.303,
      "count": 34,
      "cell_deg": 0.5,
      "sources": {
        "GDELT": 34,
        "USGS": 0,
        "GDACS": 0
      },
      "last7_score": 9.94,
      "prev7_score": 2.363,
      "trend": "up",
      "trend_arrow": "🔺",
      "change_pct": 320.6,
      "place": "Vysočina Region, Czechia"
    },
    {
      "lon": 26.25,
      "lat": 44.25,
      "type": "hotspot_cell",
      "score": 11.13,
      "count": 29,
      "cell_deg": 0.5,
      "sources": {
        "GDELT": 29,
        "USGS": 0,
        "GDACS": 0
      },
      "last7_score": 9.129,
      "prev7_score": 2.002,
      "trend": "up",
      "trend_arrow": "🔺",
      "change_pct": 356.0,
      "place": "Giurgiu, Romania"
    },
    {
      "lon": 25.25,
      "lat": 57.25,
      "type": "hotspot_cell",
      "score": 10.345,
      "count": 32,
      "cell_deg": 0.5,
      "sources": {
        "GDELT": 32,
        "USGS": 0,
        "GDACS": 0
      },
      "last7_score": 8.581,
      "prev7_score": 1.764,
      "trend": "up",
      "trend_arrow": "🔺",
      "change_pct": 386.3,
      "place": "Cēsu novads, Latvia"
    }
  ]
}