{
  "generated_utc": "2026-03-22T18:44:39Z",
  "top": [
    {
      "lon": 14.25,
      "lat": 50.25,
      "type": "hotspot_cell",
      "score": 860.673,
      "count": 1451,
      "cell_deg": 0.5,
      "sources": {
        "GDELT": 119,
        "GDELT_DOC": 1329,
        "DIRECT_FEED": 3,
        "USGS": 0,
        "GDACS": 0
      },
      "last7_score": 854.352,
      "prev7_score": 6.321,
      "trend": "up",
      "trend_arrow": "🔺",
      "change_pct": 13415.7,
      "place": "SO ORP Kralupy nad Vltavou, Czechia"
    },
    {
      "lon": 26.25,
      "lat": 44.25,
      "type": "hotspot_cell",
      "score": 723.219,
      "count": 1330,
      "cell_deg": 0.5,
      "sources": {
        "GDELT": 188,
        "GDELT_DOC": 1142,
        "DIRECT_FEED": 0,
        "USGS": 0,
        "GDACS": 0
      },
      "last7_score": 710.793,
      "prev7_score": 12.426,
      "trend": "up",
      "trend_arrow": "🔺",
      "change_pct": 5620.3,
      "place": "Giurgiu, Romania"
    },
    {
      "lon": 25.25,
      "lat": 54.75,
      "type": "hotspot_cell",
      "score": 526.668,
      "count": 911,
      "cell_deg": 0.5,
      "sources": {
        "GDELT": 87,
        "GDELT_DOC": 824,
        "DIRECT_FEED": 0,
        "USGS": 0,
        "GDACS": 0
      },
      "last7_score": 522.386,
      "prev7_score": 4.283,
      "trend": "up",
      "trend_arrow": "🔺",
      "change_pct": 12097.4,
      "place": "Vilnius County, Lithuania"
    },
    {
      "lon": 19.25,
      "lat": 47.75,
      "type": "hotspot_cell",
      "score": 254.929,
      "count": 583,
      "cell_deg": 0.5,
      "sources": {
        "GDELT": 365,
        "GDELT_DOC": 0,
        "DIRECT_FEED": 218,
        "USGS": 0,
        "GDACS": 0
      },
      "last7_score": 231.599,
      "prev7_score": 23.33,
      "trend": "up",
      "trend_arrow": "🔺",
      "change_pct": 892.7,
      "place": "Pest, Hungary"
    },
    {
      "lon": 20.25,
      "lat": 47.25,
      "type": "hotspot_cell",
      "score": 141.815,
      "count": 410,
      "cell_deg": 0.5,
      "sources": {
        "GDELT": 410,
        "GDELT_DOC": 0,
        "DIRECT_FEED": 0,
        "USGS": 0,
        "GDACS": 0
      },
      "last7_score": 117.032,
      "prev7_score": 24.783,
      "trend": "up",
      "trend_arrow": "🔺",
      "change_pct": 372.2,
      "place": "Jász-Nagykun-Szolnok, Hungary"
    },
    {
      "lon": 20.25,
      "lat": 52.25,
      "type": "hotspot_cell",
      "score": 139.794,
      "count": 415,
      "cell_deg": 0.5,
      "sources": {
        "GDELT": 415,
        "GDELT_DOC": 0,
        "DIRECT_FEED": 0,
        "USGS": 0,
        "GDACS": 0
      },
      "last7_score": 118.159,
      "prev7_score": 21.635,
      "trend": "up",
      "trend_arrow": "🔺",
      "change_pct": 446.2,
      "place": "Sochaczew County, Poland"
    },
    {
      "lon": 25.25,
      "lat": 46.25,
      "type": "hotspot_cell",
      "score": 100.606,
      "count": 328,
      "cell_deg": 0.5,
      "sources": {
        "GDELT": 328,
        "GDELT_DOC": 0,
        "DIRECT_FEED": 0,
        "USGS": 0,
        "GDACS": 0
      },
      "last7_score": 83.794,
      "prev7_score": 16.812,
      "trend": "up",
      "trend_arrow": "🔺",
      "change_pct": 398.4,
      "place": "Harghita, Romania"
    },
    {
      "lon": 24.25,
      "lat": 56.75,
      "type": "hotspot_cell",
      "score": 98.229,
      "count": 165,
      "cell_deg": 0.5,
      "sources": {
        "GDELT": 35,
        "GDELT_DOC": 0,
        "DIRECT_FEED": 130,
        "USGS": 0,
        "GDACS": 0
      },
      "last7_score": 96.197,
      "prev7_score": 2.032,
      "trend": "up",
      "trend_arrow": "🔺",
      "change_pct": 4633.6,
      "place": "Ķekavas novads, Latvia"
    },
    {
      "lon": 15.25,
      "lat": 49.75,
      "type": "hotspot_cell",
      "score": 67.058,
      "count": 170,
      "cell_deg": 0.5,
      "sources": {
        "GDELT": 170,
        "GDELT_DOC": 0,
        "DIRECT_FEED": 0,
        "USGS": 0,
        "GDACS": 0
      },
      "last7_score": 60.146,
      "prev7_score": 6.912,
      "trend": "up",
      "trend_arrow": "🔺",
      "change_pct": 770.2,
      "place": "Vysočina Region, Czechia"
    },
    {
      "lon": 21.25,
      "lat": 52.25,
      "type": "hotspot_cell",
      "score": 54.942,
      "count": 184,
      "cell_deg": 0.5,
      "sources": {
        "GDELT": 184,
        "GDELT_DOC": 0,
        "DIRECT_FEED": 0,
        "USGS": 0,
        "GDACS": 0
      },
      "last7_score": 42.073,
      "prev7_score": 12.868,
      "trend": "up",
      "trend_arrow": "🔺",
      "change_pct": 227.0,
      "place": "Warsaw, Poland"
    }
  ]
}