{
  "generated_utc": "2026-05-01T03:34:16Z",
  "top": [
    {
      "lon": 14.25,
      "lat": 50.25,
      "type": "hotspot_cell",
      "score": 859.248,
      "count": 1497,
      "cell_deg": 0.5,
      "sources": {
        "GDELT": 180,
        "GDELT_DOC": 1316,
        "DIRECT_FEED": 1,
        "USGS": 0,
        "GDACS": 0
      },
      "last7_score": 842.362,
      "prev7_score": 16.887,
      "trend": "up",
      "trend_arrow": "🔺",
      "change_pct": 4888.4,
      "place": "SO ORP Kralupy nad Vltavou, Czechia"
    },
    {
      "lon": 26.25,
      "lat": 44.25,
      "type": "hotspot_cell",
      "score": 822.755,
      "count": 1478,
      "cell_deg": 0.5,
      "sources": {
        "GDELT": 149,
        "GDELT_DOC": 1324,
        "DIRECT_FEED": 5,
        "USGS": 0,
        "GDACS": 0
      },
      "last7_score": 810.139,
      "prev7_score": 12.616,
      "trend": "up",
      "trend_arrow": "🔺",
      "change_pct": 6321.6,
      "place": "Giurgiu, Romania"
    },
    {
      "lon": 25.25,
      "lat": 54.75,
      "type": "hotspot_cell",
      "score": 647.46,
      "count": 1061,
      "cell_deg": 0.5,
      "sources": {
        "GDELT": 63,
        "GDELT_DOC": 998,
        "DIRECT_FEED": 0,
        "USGS": 0,
        "GDACS": 0
      },
      "last7_score": 642.55,
      "prev7_score": 4.909,
      "trend": "up",
      "trend_arrow": "🔺",
      "change_pct": 12988.4,
      "place": "Vilnius County, Lithuania"
    },
    {
      "lon": 19.25,
      "lat": 47.75,
      "type": "hotspot_cell",
      "score": 256.603,
      "count": 573,
      "cell_deg": 0.5,
      "sources": {
        "GDELT": 360,
        "GDELT_DOC": 0,
        "DIRECT_FEED": 213,
        "USGS": 0,
        "GDACS": 0
      },
      "last7_score": 219.346,
      "prev7_score": 37.257,
      "trend": "up",
      "trend_arrow": "🔺",
      "change_pct": 488.7,
      "place": "Pest, Hungary"
    },
    {
      "lon": 20.25,
      "lat": 52.25,
      "type": "hotspot_cell",
      "score": 175.548,
      "count": 449,
      "cell_deg": 0.5,
      "sources": {
        "GDELT": 449,
        "GDELT_DOC": 0,
        "DIRECT_FEED": 0,
        "USGS": 0,
        "GDACS": 0
      },
      "last7_score": 133.8,
      "prev7_score": 41.748,
      "trend": "up",
      "trend_arrow": "🔺",
      "change_pct": 220.5,
      "place": "Sochaczew County, Poland"
    },
    {
      "lon": 20.25,
      "lat": 47.25,
      "type": "hotspot_cell",
      "score": 167.07,
      "count": 515,
      "cell_deg": 0.5,
      "sources": {
        "GDELT": 515,
        "GDELT_DOC": 0,
        "DIRECT_FEED": 0,
        "USGS": 0,
        "GDACS": 0
      },
      "last7_score": 111.988,
      "prev7_score": 55.082,
      "trend": "up",
      "trend_arrow": "🔺",
      "change_pct": 103.3,
      "place": "Jász-Nagykun-Szolnok, Hungary"
    },
    {
      "lon": 25.25,
      "lat": 46.25,
      "type": "hotspot_cell",
      "score": 142.043,
      "count": 292,
      "cell_deg": 0.5,
      "sources": {
        "GDELT": 292,
        "GDELT_DOC": 0,
        "DIRECT_FEED": 0,
        "USGS": 0,
        "GDACS": 0
      },
      "last7_score": 120.657,
      "prev7_score": 21.386,
      "trend": "up",
      "trend_arrow": "🔺",
      "change_pct": 464.2,
      "place": "Harghita, Romania"
    },
    {
      "lon": 24.25,
      "lat": 56.75,
      "type": "hotspot_cell",
      "score": 118.211,
      "count": 165,
      "cell_deg": 0.5,
      "sources": {
        "GDELT": 24,
        "GDELT_DOC": 0,
        "DIRECT_FEED": 141,
        "USGS": 0,
        "GDACS": 0
      },
      "last7_score": 116.089,
      "prev7_score": 2.122,
      "trend": "up",
      "trend_arrow": "🔺",
      "change_pct": 5370.6,
      "place": "Ķekavas novads, Latvia"
    },
    {
      "lon": 15.25,
      "lat": 49.75,
      "type": "hotspot_cell",
      "score": 88.827,
      "count": 204,
      "cell_deg": 0.5,
      "sources": {
        "GDELT": 204,
        "GDELT_DOC": 0,
        "DIRECT_FEED": 0,
        "USGS": 0,
        "GDACS": 0
      },
      "last7_score": 74.402,
      "prev7_score": 14.425,
      "trend": "up",
      "trend_arrow": "🔺",
      "change_pct": 415.8,
      "place": "Vysočina Region, Czechia"
    },
    {
      "lon": 26.75,
      "lat": 47.75,
      "type": "hotspot_cell",
      "score": 63.626,
      "count": 154,
      "cell_deg": 0.5,
      "sources": {
        "GDELT": 1,
        "GDELT_DOC": 149,
        "DIRECT_FEED": 4,
        "USGS": 0,
        "GDACS": 0
      },
      "last7_score": 63.527,
      "prev7_score": 0.099,
      "trend": "up",
      "trend_arrow": "🔺",
      "change_pct": 64127.8,
      "place": "Botoșani, Romania"
    }
  ]
}