{
  "generated_utc": "2026-07-16T01:55:07Z",
  "top": [
    {
      "lon": 14.25,
      "lat": 50.25,
      "type": "hotspot_cell",
      "score": 703.839,
      "count": 1171,
      "cell_deg": 0.5,
      "sources": {
        "GDELT": 94,
        "GDELT_DOC": 1071,
        "DIRECT_FEED": 6,
        "USGS": 0,
        "GDACS": 0
      },
      "last7_score": 696.928,
      "prev7_score": 6.912,
      "trend": "up",
      "trend_arrow": "🔺",
      "change_pct": 9983.4,
      "place": "SO ORP Kralupy nad Vltavou, Czechia"
    },
    {
      "lon": 25.25,
      "lat": 54.75,
      "type": "hotspot_cell",
      "score": 434.023,
      "count": 771,
      "cell_deg": 0.5,
      "sources": {
        "GDELT": 74,
        "GDELT_DOC": 696,
        "DIRECT_FEED": 1,
        "USGS": 0,
        "GDACS": 0
      },
      "last7_score": 428.408,
      "prev7_score": 5.615,
      "trend": "up",
      "trend_arrow": "🔺",
      "change_pct": 7529.6,
      "place": "Vilnius County, Lithuania"
    },
    {
      "lon": 26.25,
      "lat": 44.25,
      "type": "hotspot_cell",
      "score": 428.218,
      "count": 748,
      "cell_deg": 0.5,
      "sources": {
        "GDELT": 87,
        "GDELT_DOC": 659,
        "DIRECT_FEED": 2,
        "USGS": 0,
        "GDACS": 0
      },
      "last7_score": 419.073,
      "prev7_score": 9.145,
      "trend": "up",
      "trend_arrow": "🔺",
      "change_pct": 4482.4,
      "place": "Giurgiu, Romania"
    },
    {
      "lon": 19.25,
      "lat": 47.75,
      "type": "hotspot_cell",
      "score": 197.3,
      "count": 330,
      "cell_deg": 0.5,
      "sources": {
        "GDELT": 146,
        "GDELT_DOC": 0,
        "DIRECT_FEED": 184,
        "USGS": 0,
        "GDACS": 0
      },
      "last7_score": 184.65,
      "prev7_score": 12.65,
      "trend": "up",
      "trend_arrow": "🔺",
      "change_pct": 1359.7,
      "place": "Pest, Hungary"
    },
    {
      "lon": 20.25,
      "lat": 52.25,
      "type": "hotspot_cell",
      "score": 178.993,
      "count": 447,
      "cell_deg": 0.5,
      "sources": {
        "GDELT": 447,
        "GDELT_DOC": 0,
        "DIRECT_FEED": 0,
        "USGS": 0,
        "GDACS": 0
      },
      "last7_score": 138.811,
      "prev7_score": 40.182,
      "trend": "up",
      "trend_arrow": "🔺",
      "change_pct": 245.5,
      "place": "Sochaczew County, Poland"
    },
    {
      "lon": 25.25,
      "lat": 46.25,
      "type": "hotspot_cell",
      "score": 157.459,
      "count": 371,
      "cell_deg": 0.5,
      "sources": {
        "GDELT": 371,
        "GDELT_DOC": 0,
        "DIRECT_FEED": 0,
        "USGS": 0,
        "GDACS": 0
      },
      "last7_score": 127.98,
      "prev7_score": 29.479,
      "trend": "up",
      "trend_arrow": "🔺",
      "change_pct": 334.1,
      "place": "Harghita, Romania"
    },
    {
      "lon": 24.25,
      "lat": 56.75,
      "type": "hotspot_cell",
      "score": 113.42,
      "count": 158,
      "cell_deg": 0.5,
      "sources": {
        "GDELT": 18,
        "GDELT_DOC": 0,
        "DIRECT_FEED": 140,
        "USGS": 0,
        "GDACS": 0
      },
      "last7_score": 112.101,
      "prev7_score": 1.318,
      "trend": "up",
      "trend_arrow": "🔺",
      "change_pct": 8404.4,
      "place": "Ķekavas novads, Latvia"
    },
    {
      "lon": 21.25,
      "lat": 52.25,
      "type": "hotspot_cell",
      "score": 97.746,
      "count": 249,
      "cell_deg": 0.5,
      "sources": {
        "GDELT": 249,
        "GDELT_DOC": 0,
        "DIRECT_FEED": 0,
        "USGS": 0,
        "GDACS": 0
      },
      "last7_score": 78.011,
      "prev7_score": 19.734,
      "trend": "up",
      "trend_arrow": "🔺",
      "change_pct": 295.3,
      "place": "Warsaw, Poland"
    },
    {
      "lon": 20.25,
      "lat": 47.25,
      "type": "hotspot_cell",
      "score": 72.527,
      "count": 181,
      "cell_deg": 0.5,
      "sources": {
        "GDELT": 181,
        "GDELT_DOC": 0,
        "DIRECT_FEED": 0,
        "USGS": 0,
        "GDACS": 0
      },
      "last7_score": 57.201,
      "prev7_score": 15.325,
      "trend": "up",
      "trend_arrow": "🔺",
      "change_pct": 273.2,
      "place": "Jász-Nagykun-Szolnok, Hungary"
    },
    {
      "lon": 24.25,
      "lat": 56.25,
      "type": "hotspot_cell",
      "score": 59.612,
      "count": 140,
      "cell_deg": 0.5,
      "sources": {
        "GDELT": 140,
        "GDELT_DOC": 0,
        "DIRECT_FEED": 0,
        "USGS": 0,
        "GDACS": 0
      },
      "last7_score": 46.118,
      "prev7_score": 13.494,
      "trend": "up",
      "trend_arrow": "🔺",
      "change_pct": 241.8,
      "place": "Namišių seniūnija, Lithuania"
    }
  ]
}