{
  "generated_utc": "2026-03-21T18:45:30Z",
  "top": [
    {
      "lon": 14.25,
      "lat": 50.25,
      "type": "hotspot_cell",
      "score": 802.944,
      "count": 1357,
      "cell_deg": 0.5,
      "sources": {
        "GDELT": 116,
        "GDELT_DOC": 1239,
        "DIRECT_FEED": 2,
        "USGS": 0,
        "GDACS": 0
      },
      "last7_score": 796.437,
      "prev7_score": 6.507,
      "trend": "up",
      "trend_arrow": "🔺",
      "change_pct": 12139.5,
      "place": "SO ORP Kralupy nad Vltavou, Czechia"
    },
    {
      "lon": 26.25,
      "lat": 44.25,
      "type": "hotspot_cell",
      "score": 750.795,
      "count": 1306,
      "cell_deg": 0.5,
      "sources": {
        "GDELT": 184,
        "GDELT_DOC": 1122,
        "DIRECT_FEED": 0,
        "USGS": 0,
        "GDACS": 0
      },
      "last7_score": 735.842,
      "prev7_score": 14.953,
      "trend": "up",
      "trend_arrow": "🔺",
      "change_pct": 4821.2,
      "place": "Giurgiu, Romania"
    },
    {
      "lon": 25.25,
      "lat": 54.75,
      "type": "hotspot_cell",
      "score": 599.12,
      "count": 915,
      "cell_deg": 0.5,
      "sources": {
        "GDELT": 86,
        "GDELT_DOC": 829,
        "DIRECT_FEED": 0,
        "USGS": 0,
        "GDACS": 0
      },
      "last7_score": 594.213,
      "prev7_score": 4.906,
      "trend": "up",
      "trend_arrow": "🔺",
      "change_pct": 12010.9,
      "place": "Vilnius County, Lithuania"
    },
    {
      "lon": 19.25,
      "lat": 47.75,
      "type": "hotspot_cell",
      "score": 287.296,
      "count": 601,
      "cell_deg": 0.5,
      "sources": {
        "GDELT": 381,
        "GDELT_DOC": 0,
        "DIRECT_FEED": 220,
        "USGS": 0,
        "GDACS": 0
      },
      "last7_score": 266.099,
      "prev7_score": 21.196,
      "trend": "up",
      "trend_arrow": "🔺",
      "change_pct": 1155.4,
      "place": "Pest, Hungary"
    },
    {
      "lon": 20.25,
      "lat": 52.25,
      "type": "hotspot_cell",
      "score": 168.766,
      "count": 427,
      "cell_deg": 0.5,
      "sources": {
        "GDELT": 427,
        "GDELT_DOC": 0,
        "DIRECT_FEED": 0,
        "USGS": 0,
        "GDACS": 0
      },
      "last7_score": 143.317,
      "prev7_score": 25.449,
      "trend": "up",
      "trend_arrow": "🔺",
      "change_pct": 463.2,
      "place": "Sochaczew County, Poland"
    },
    {
      "lon": 20.25,
      "lat": 47.25,
      "type": "hotspot_cell",
      "score": 164.144,
      "count": 412,
      "cell_deg": 0.5,
      "sources": {
        "GDELT": 412,
        "GDELT_DOC": 0,
        "DIRECT_FEED": 0,
        "USGS": 0,
        "GDACS": 0
      },
      "last7_score": 139.343,
      "prev7_score": 24.801,
      "trend": "up",
      "trend_arrow": "🔺",
      "change_pct": 461.8,
      "place": "Jász-Nagykun-Szolnok, Hungary"
    },
    {
      "lon": 25.25,
      "lat": 46.25,
      "type": "hotspot_cell",
      "score": 119.796,
      "count": 326,
      "cell_deg": 0.5,
      "sources": {
        "GDELT": 326,
        "GDELT_DOC": 0,
        "DIRECT_FEED": 0,
        "USGS": 0,
        "GDACS": 0
      },
      "last7_score": 99.897,
      "prev7_score": 19.899,
      "trend": "up",
      "trend_arrow": "🔺",
      "change_pct": 402.0,
      "place": "Harghita, Romania"
    },
    {
      "lon": 24.25,
      "lat": 56.75,
      "type": "hotspot_cell",
      "score": 110.693,
      "count": 168,
      "cell_deg": 0.5,
      "sources": {
        "GDELT": 36,
        "GDELT_DOC": 0,
        "DIRECT_FEED": 132,
        "USGS": 0,
        "GDACS": 0
      },
      "last7_score": 108.074,
      "prev7_score": 2.619,
      "trend": "up",
      "trend_arrow": "🔺",
      "change_pct": 4026.0,
      "place": "Ķekavas novads, Latvia"
    },
    {
      "lon": 15.25,
      "lat": 49.75,
      "type": "hotspot_cell",
      "score": 70.046,
      "count": 167,
      "cell_deg": 0.5,
      "sources": {
        "GDELT": 167,
        "GDELT_DOC": 0,
        "DIRECT_FEED": 0,
        "USGS": 0,
        "GDACS": 0
      },
      "last7_score": 62.228,
      "prev7_score": 7.818,
      "trend": "up",
      "trend_arrow": "🔺",
      "change_pct": 695.9,
      "place": "Vysočina Region, Czechia"
    },
    {
      "lon": 21.25,
      "lat": 52.25,
      "type": "hotspot_cell",
      "score": 66.594,
      "count": 187,
      "cell_deg": 0.5,
      "sources": {
        "GDELT": 187,
        "GDELT_DOC": 0,
        "DIRECT_FEED": 0,
        "USGS": 0,
        "GDACS": 0
      },
      "last7_score": 53.303,
      "prev7_score": 13.29,
      "trend": "up",
      "trend_arrow": "🔺",
      "change_pct": 301.1,
      "place": "Warsaw, Poland"
    }
  ]
}