{
  "generated_utc": "2026-06-20T08:49:38Z",
  "top": [
    {
      "lon": 25.25,
      "lat": 54.75,
      "type": "hotspot_cell",
      "score": 539.016,
      "count": 835,
      "cell_deg": 0.5,
      "sources": {
        "GDELT": 54,
        "GDELT_DOC": 780,
        "DIRECT_FEED": 1,
        "USGS": 0,
        "GDACS": 0
      },
      "last7_score": 535.425,
      "prev7_score": 3.59,
      "trend": "up",
      "trend_arrow": "🔺",
      "change_pct": 14813.6,
      "place": "Vilnius County, Lithuania"
    },
    {
      "lon": 26.25,
      "lat": 44.25,
      "type": "hotspot_cell",
      "score": 533.811,
      "count": 942,
      "cell_deg": 0.5,
      "sources": {
        "GDELT": 154,
        "GDELT_DOC": 783,
        "DIRECT_FEED": 5,
        "USGS": 0,
        "GDACS": 0
      },
      "last7_score": 522.753,
      "prev7_score": 11.058,
      "trend": "up",
      "trend_arrow": "🔺",
      "change_pct": 4627.4,
      "place": "Giurgiu, Romania"
    },
    {
      "lon": 14.25,
      "lat": 50.25,
      "type": "hotspot_cell",
      "score": 352.77,
      "count": 611,
      "cell_deg": 0.5,
      "sources": {
        "GDELT": 98,
        "GDELT_DOC": 504,
        "DIRECT_FEED": 9,
        "USGS": 0,
        "GDACS": 0
      },
      "last7_score": 346.637,
      "prev7_score": 6.133,
      "trend": "up",
      "trend_arrow": "🔺",
      "change_pct": 5552.0,
      "place": "SO ORP Kralupy nad Vltavou, Czechia"
    },
    {
      "lon": 20.25,
      "lat": 52.25,
      "type": "hotspot_cell",
      "score": 183.617,
      "count": 451,
      "cell_deg": 0.5,
      "sources": {
        "GDELT": 451,
        "GDELT_DOC": 0,
        "DIRECT_FEED": 0,
        "USGS": 0,
        "GDACS": 0
      },
      "last7_score": 152.131,
      "prev7_score": 31.487,
      "trend": "up",
      "trend_arrow": "🔺",
      "change_pct": 383.2,
      "place": "Sochaczew County, Poland"
    },
    {
      "lon": 19.25,
      "lat": 47.75,
      "type": "hotspot_cell",
      "score": 182.593,
      "count": 331,
      "cell_deg": 0.5,
      "sources": {
        "GDELT": 160,
        "GDELT_DOC": 0,
        "DIRECT_FEED": 171,
        "USGS": 0,
        "GDACS": 0
      },
      "last7_score": 171.314,
      "prev7_score": 11.279,
      "trend": "up",
      "trend_arrow": "🔺",
      "change_pct": 1418.9,
      "place": "Pest, Hungary"
    },
    {
      "lon": 25.25,
      "lat": 46.25,
      "type": "hotspot_cell",
      "score": 159.849,
      "count": 412,
      "cell_deg": 0.5,
      "sources": {
        "GDELT": 412,
        "GDELT_DOC": 0,
        "DIRECT_FEED": 0,
        "USGS": 0,
        "GDACS": 0
      },
      "last7_score": 134.38,
      "prev7_score": 25.469,
      "trend": "up",
      "trend_arrow": "🔺",
      "change_pct": 427.6,
      "place": "Harghita, Romania"
    },
    {
      "lon": 24.25,
      "lat": 56.75,
      "type": "hotspot_cell",
      "score": 114.98,
      "count": 176,
      "cell_deg": 0.5,
      "sources": {
        "GDELT": 35,
        "GDELT_DOC": 0,
        "DIRECT_FEED": 141,
        "USGS": 0,
        "GDACS": 0
      },
      "last7_score": 112.284,
      "prev7_score": 2.696,
      "trend": "up",
      "trend_arrow": "🔺",
      "change_pct": 4065.1,
      "place": "Ķekavas novads, Latvia"
    },
    {
      "lon": 21.25,
      "lat": 52.25,
      "type": "hotspot_cell",
      "score": 104.541,
      "count": 210,
      "cell_deg": 0.5,
      "sources": {
        "GDELT": 210,
        "GDELT_DOC": 0,
        "DIRECT_FEED": 0,
        "USGS": 0,
        "GDACS": 0
      },
      "last7_score": 94.308,
      "prev7_score": 10.233,
      "trend": "up",
      "trend_arrow": "🔺",
      "change_pct": 821.6,
      "place": "Warsaw, Poland"
    },
    {
      "lon": 20.25,
      "lat": 47.25,
      "type": "hotspot_cell",
      "score": 93.522,
      "count": 248,
      "cell_deg": 0.5,
      "sources": {
        "GDELT": 248,
        "GDELT_DOC": 0,
        "DIRECT_FEED": 0,
        "USGS": 0,
        "GDACS": 0
      },
      "last7_score": 74.882,
      "prev7_score": 18.64,
      "trend": "up",
      "trend_arrow": "🔺",
      "change_pct": 301.7,
      "place": "Jász-Nagykun-Szolnok, Hungary"
    },
    {
      "lon": 17.25,
      "lat": 48.25,
      "type": "hotspot_cell",
      "score": 68.219,
      "count": 168,
      "cell_deg": 0.5,
      "sources": {
        "GDELT": 166,
        "GDELT_DOC": 0,
        "DIRECT_FEED": 2,
        "USGS": 0,
        "GDACS": 0
      },
      "last7_score": 60.343,
      "prev7_score": 7.876,
      "trend": "up",
      "trend_arrow": "🔺",
      "change_pct": 666.2,
      "place": "District of Pezinok, Slovakia"
    }
  ]
}