{
  "generated_utc": "2026-07-08T13:52:37Z",
  "top": [
    {
      "lon": 14.25,
      "lat": 50.25,
      "type": "hotspot_cell",
      "score": 564.511,
      "count": 626,
      "cell_deg": 0.5,
      "sources": {
        "GDELT": 115,
        "GDELT_DOC": 509,
        "DIRECT_FEED": 2,
        "USGS": 0,
        "GDACS": 0
      },
      "last7_score": 556.142,
      "prev7_score": 8.368,
      "trend": "up",
      "trend_arrow": "🔺",
      "change_pct": 6545.8,
      "place": "SO ORP Kralupy nad Vltavou, Czechia"
    },
    {
      "lon": 26.25,
      "lat": 44.25,
      "type": "hotspot_cell",
      "score": 433.024,
      "count": 597,
      "cell_deg": 0.5,
      "sources": {
        "GDELT": 138,
        "GDELT_DOC": 454,
        "DIRECT_FEED": 5,
        "USGS": 0,
        "GDACS": 0
      },
      "last7_score": 421.549,
      "prev7_score": 11.475,
      "trend": "up",
      "trend_arrow": "🔺",
      "change_pct": 3573.5,
      "place": "Giurgiu, Romania"
    },
    {
      "lon": 25.25,
      "lat": 54.75,
      "type": "hotspot_cell",
      "score": 300.258,
      "count": 342,
      "cell_deg": 0.5,
      "sources": {
        "GDELT": 73,
        "GDELT_DOC": 268,
        "DIRECT_FEED": 1,
        "USGS": 0,
        "GDACS": 0
      },
      "last7_score": 295.922,
      "prev7_score": 4.336,
      "trend": "up",
      "trend_arrow": "🔺",
      "change_pct": 6724.8,
      "place": "Vilnius County, Lithuania"
    },
    {
      "lon": 20.25,
      "lat": 52.25,
      "type": "hotspot_cell",
      "score": 205.847,
      "count": 555,
      "cell_deg": 0.5,
      "sources": {
        "GDELT": 555,
        "GDELT_DOC": 0,
        "DIRECT_FEED": 0,
        "USGS": 0,
        "GDACS": 0
      },
      "last7_score": 166.615,
      "prev7_score": 39.232,
      "trend": "up",
      "trend_arrow": "🔺",
      "change_pct": 324.7,
      "place": "Sochaczew County, Poland"
    },
    {
      "lon": 19.25,
      "lat": 47.75,
      "type": "hotspot_cell",
      "score": 161.805,
      "count": 317,
      "cell_deg": 0.5,
      "sources": {
        "GDELT": 152,
        "GDELT_DOC": 0,
        "DIRECT_FEED": 165,
        "USGS": 0,
        "GDACS": 0
      },
      "last7_score": 150.437,
      "prev7_score": 11.368,
      "trend": "up",
      "trend_arrow": "🔺",
      "change_pct": 1223.3,
      "place": "Pest, Hungary"
    },
    {
      "lon": 25.25,
      "lat": 46.25,
      "type": "hotspot_cell",
      "score": 140.65,
      "count": 351,
      "cell_deg": 0.5,
      "sources": {
        "GDELT": 351,
        "GDELT_DOC": 0,
        "DIRECT_FEED": 0,
        "USGS": 0,
        "GDACS": 0
      },
      "last7_score": 119.454,
      "prev7_score": 21.196,
      "trend": "up",
      "trend_arrow": "🔺",
      "change_pct": 463.6,
      "place": "Harghita, Romania"
    },
    {
      "lon": 24.25,
      "lat": 56.75,
      "type": "hotspot_cell",
      "score": 108.107,
      "count": 158,
      "cell_deg": 0.5,
      "sources": {
        "GDELT": 23,
        "GDELT_DOC": 0,
        "DIRECT_FEED": 135,
        "USGS": 0,
        "GDACS": 0
      },
      "last7_score": 106.025,
      "prev7_score": 2.082,
      "trend": "up",
      "trend_arrow": "🔺",
      "change_pct": 4993.0,
      "place": "Ķekavas novads, Latvia"
    },
    {
      "lon": 21.25,
      "lat": 52.25,
      "type": "hotspot_cell",
      "score": 94.333,
      "count": 278,
      "cell_deg": 0.5,
      "sources": {
        "GDELT": 278,
        "GDELT_DOC": 0,
        "DIRECT_FEED": 0,
        "USGS": 0,
        "GDACS": 0
      },
      "last7_score": 76.154,
      "prev7_score": 18.178,
      "trend": "up",
      "trend_arrow": "🔺",
      "change_pct": 318.9,
      "place": "Warsaw, Poland"
    },
    {
      "lon": 20.25,
      "lat": 47.25,
      "type": "hotspot_cell",
      "score": 71.531,
      "count": 164,
      "cell_deg": 0.5,
      "sources": {
        "GDELT": 164,
        "GDELT_DOC": 0,
        "DIRECT_FEED": 0,
        "USGS": 0,
        "GDACS": 0
      },
      "last7_score": 61.936,
      "prev7_score": 9.595,
      "trend": "up",
      "trend_arrow": "🔺",
      "change_pct": 545.5,
      "place": "Jász-Nagykun-Szolnok, Hungary"
    },
    {
      "lon": 15.25,
      "lat": 49.75,
      "type": "hotspot_cell",
      "score": 67.677,
      "count": 177,
      "cell_deg": 0.5,
      "sources": {
        "GDELT": 177,
        "GDELT_DOC": 0,
        "DIRECT_FEED": 0,
        "USGS": 0,
        "GDACS": 0
      },
      "last7_score": 55.306,
      "prev7_score": 12.371,
      "trend": "up",
      "trend_arrow": "🔺",
      "change_pct": 347.1,
      "place": "Vysočina Region, Czechia"
    }
  ]
}