{
  "generated_utc": "2026-03-21T02:09:43Z",
  "top": [
    {
      "lon": 14.25,
      "lat": 50.25,
      "type": "hotspot_cell",
      "score": 880.832,
      "count": 1418,
      "cell_deg": 0.5,
      "sources": {
        "GDELT": 111,
        "GDELT_DOC": 1306,
        "DIRECT_FEED": 1,
        "USGS": 0,
        "GDACS": 0
      },
      "last7_score": 873.198,
      "prev7_score": 7.634,
      "trend": "up",
      "trend_arrow": "🔺",
      "change_pct": 11337.6,
      "place": "SO ORP Kralupy nad Vltavou, Czechia"
    },
    {
      "lon": 26.25,
      "lat": 44.25,
      "type": "hotspot_cell",
      "score": 785.621,
      "count": 1349,
      "cell_deg": 0.5,
      "sources": {
        "GDELT": 179,
        "GDELT_DOC": 1170,
        "DIRECT_FEED": 0,
        "USGS": 0,
        "GDACS": 0
      },
      "last7_score": 768.078,
      "prev7_score": 17.543,
      "trend": "up",
      "trend_arrow": "🔺",
      "change_pct": 4278.2,
      "place": "Giurgiu, Romania"
    },
    {
      "lon": 25.25,
      "lat": 54.75,
      "type": "hotspot_cell",
      "score": 518.591,
      "count": 841,
      "cell_deg": 0.5,
      "sources": {
        "GDELT": 85,
        "GDELT_DOC": 756,
        "DIRECT_FEED": 0,
        "USGS": 0,
        "GDACS": 0
      },
      "last7_score": 512.835,
      "prev7_score": 5.756,
      "trend": "up",
      "trend_arrow": "🔺",
      "change_pct": 8808.9,
      "place": "Vilnius County, Lithuania"
    },
    {
      "lon": 19.25,
      "lat": 47.75,
      "type": "hotspot_cell",
      "score": 312.323,
      "count": 598,
      "cell_deg": 0.5,
      "sources": {
        "GDELT": 375,
        "GDELT_DOC": 0,
        "DIRECT_FEED": 223,
        "USGS": 0,
        "GDACS": 0
      },
      "last7_score": 287.455,
      "prev7_score": 24.869,
      "trend": "up",
      "trend_arrow": "🔺",
      "change_pct": 1055.9,
      "place": "Pest, Hungary"
    },
    {
      "lon": 20.25,
      "lat": 52.25,
      "type": "hotspot_cell",
      "score": 181.497,
      "count": 415,
      "cell_deg": 0.5,
      "sources": {
        "GDELT": 415,
        "GDELT_DOC": 0,
        "DIRECT_FEED": 0,
        "USGS": 0,
        "GDACS": 0
      },
      "last7_score": 151.64,
      "prev7_score": 29.858,
      "trend": "up",
      "trend_arrow": "🔺",
      "change_pct": 407.9,
      "place": "Sochaczew County, Poland"
    },
    {
      "lon": 20.25,
      "lat": 47.25,
      "type": "hotspot_cell",
      "score": 177.94,
      "count": 401,
      "cell_deg": 0.5,
      "sources": {
        "GDELT": 401,
        "GDELT_DOC": 0,
        "DIRECT_FEED": 0,
        "USGS": 0,
        "GDACS": 0
      },
      "last7_score": 148.842,
      "prev7_score": 29.098,
      "trend": "up",
      "trend_arrow": "🔺",
      "change_pct": 411.5,
      "place": "Jász-Nagykun-Szolnok, Hungary"
    },
    {
      "lon": 25.25,
      "lat": 46.25,
      "type": "hotspot_cell",
      "score": 129.982,
      "count": 318,
      "cell_deg": 0.5,
      "sources": {
        "GDELT": 318,
        "GDELT_DOC": 0,
        "DIRECT_FEED": 0,
        "USGS": 0,
        "GDACS": 0
      },
      "last7_score": 106.636,
      "prev7_score": 23.346,
      "trend": "up",
      "trend_arrow": "🔺",
      "change_pct": 356.8,
      "place": "Harghita, Romania"
    },
    {
      "lon": 24.25,
      "lat": 56.75,
      "type": "hotspot_cell",
      "score": 114.17,
      "count": 163,
      "cell_deg": 0.5,
      "sources": {
        "GDELT": 34,
        "GDELT_DOC": 0,
        "DIRECT_FEED": 129,
        "USGS": 0,
        "GDACS": 0
      },
      "last7_score": 111.097,
      "prev7_score": 3.073,
      "trend": "up",
      "trend_arrow": "🔺",
      "change_pct": 3515.2,
      "place": "Ķekavas novads, Latvia"
    },
    {
      "lon": 15.25,
      "lat": 49.75,
      "type": "hotspot_cell",
      "score": 76.961,
      "count": 163,
      "cell_deg": 0.5,
      "sources": {
        "GDELT": 163,
        "GDELT_DOC": 0,
        "DIRECT_FEED": 0,
        "USGS": 0,
        "GDACS": 0
      },
      "last7_score": 67.788,
      "prev7_score": 9.173,
      "trend": "up",
      "trend_arrow": "🔺",
      "change_pct": 639.0,
      "place": "Vysočina Region, Czechia"
    },
    {
      "lon": 21.25,
      "lat": 52.25,
      "type": "hotspot_cell",
      "score": 68.709,
      "count": 180,
      "cell_deg": 0.5,
      "sources": {
        "GDELT": 180,
        "GDELT_DOC": 0,
        "DIRECT_FEED": 0,
        "USGS": 0,
        "GDACS": 0
      },
      "last7_score": 53.116,
      "prev7_score": 15.593,
      "trend": "up",
      "trend_arrow": "🔺",
      "change_pct": 240.6,
      "place": "Warsaw, Poland"
    }
  ]
}