{
  "generated_utc": "2026-04-17T02:45:06Z",
  "top": [
    {
      "lon": 14.25,
      "lat": 50.25,
      "type": "hotspot_cell",
      "score": 888.705,
      "count": 1352,
      "cell_deg": 0.5,
      "sources": {
        "GDELT": 97,
        "GDELT_DOC": 1255,
        "DIRECT_FEED": 0,
        "USGS": 0,
        "GDACS": 0
      },
      "last7_score": 882.075,
      "prev7_score": 6.63,
      "trend": "up",
      "trend_arrow": "🔺",
      "change_pct": 13204.3,
      "place": "SO ORP Kralupy nad Vltavou, Czechia"
    },
    {
      "lon": 26.25,
      "lat": 44.25,
      "type": "hotspot_cell",
      "score": 777.649,
      "count": 1280,
      "cell_deg": 0.5,
      "sources": {
        "GDELT": 99,
        "GDELT_DOC": 1180,
        "DIRECT_FEED": 1,
        "USGS": 0,
        "GDACS": 0
      },
      "last7_score": 769.762,
      "prev7_score": 7.887,
      "trend": "up",
      "trend_arrow": "🔺",
      "change_pct": 9660.4,
      "place": "Giurgiu, Romania"
    },
    {
      "lon": 19.25,
      "lat": 47.75,
      "type": "hotspot_cell",
      "score": 709.897,
      "count": 1476,
      "cell_deg": 0.5,
      "sources": {
        "GDELT": 1152,
        "GDELT_DOC": 0,
        "DIRECT_FEED": 324,
        "USGS": 0,
        "GDACS": 0
      },
      "last7_score": 636.927,
      "prev7_score": 72.97,
      "trend": "up",
      "trend_arrow": "🔺",
      "change_pct": 772.9,
      "place": "Pest, Hungary"
    },
    {
      "lon": 25.25,
      "lat": 54.75,
      "type": "hotspot_cell",
      "score": 450.307,
      "count": 788,
      "cell_deg": 0.5,
      "sources": {
        "GDELT": 68,
        "GDELT_DOC": 719,
        "DIRECT_FEED": 1,
        "USGS": 0,
        "GDACS": 0
      },
      "last7_score": 444.881,
      "prev7_score": 5.427,
      "trend": "up",
      "trend_arrow": "🔺",
      "change_pct": 8098.1,
      "place": "Vilnius County, Lithuania"
    },
    {
      "lon": 20.25,
      "lat": 47.25,
      "type": "hotspot_cell",
      "score": 355.319,
      "count": 762,
      "cell_deg": 0.5,
      "sources": {
        "GDELT": 762,
        "GDELT_DOC": 0,
        "DIRECT_FEED": 0,
        "USGS": 0,
        "GDACS": 0
      },
      "last7_score": 310.137,
      "prev7_score": 45.183,
      "trend": "up",
      "trend_arrow": "🔺",
      "change_pct": 586.4,
      "place": "Jász-Nagykun-Szolnok, Hungary"
    },
    {
      "lon": 20.25,
      "lat": 52.25,
      "type": "hotspot_cell",
      "score": 153.193,
      "count": 363,
      "cell_deg": 0.5,
      "sources": {
        "GDELT": 363,
        "GDELT_DOC": 0,
        "DIRECT_FEED": 0,
        "USGS": 0,
        "GDACS": 0
      },
      "last7_score": 123.151,
      "prev7_score": 30.042,
      "trend": "up",
      "trend_arrow": "🔺",
      "change_pct": 309.9,
      "place": "Sochaczew County, Poland"
    },
    {
      "lon": 24.25,
      "lat": 56.75,
      "type": "hotspot_cell",
      "score": 123.472,
      "count": 166,
      "cell_deg": 0.5,
      "sources": {
        "GDELT": 28,
        "GDELT_DOC": 0,
        "DIRECT_FEED": 138,
        "USGS": 0,
        "GDACS": 0
      },
      "last7_score": 121.601,
      "prev7_score": 1.87,
      "trend": "up",
      "trend_arrow": "🔺",
      "change_pct": 6402.4,
      "place": "Ķekavas novads, Latvia"
    },
    {
      "lon": 25.25,
      "lat": 46.25,
      "type": "hotspot_cell",
      "score": 106.542,
      "count": 242,
      "cell_deg": 0.5,
      "sources": {
        "GDELT": 242,
        "GDELT_DOC": 0,
        "DIRECT_FEED": 0,
        "USGS": 0,
        "GDACS": 0
      },
      "last7_score": 88.055,
      "prev7_score": 18.487,
      "trend": "up",
      "trend_arrow": "🔺",
      "change_pct": 376.3,
      "place": "Harghita, Romania"
    },
    {
      "lon": 21.25,
      "lat": 52.25,
      "type": "hotspot_cell",
      "score": 85.336,
      "count": 163,
      "cell_deg": 0.5,
      "sources": {
        "GDELT": 163,
        "GDELT_DOC": 0,
        "DIRECT_FEED": 0,
        "USGS": 0,
        "GDACS": 0
      },
      "last7_score": 76.544,
      "prev7_score": 8.792,
      "trend": "up",
      "trend_arrow": "🔺",
      "change_pct": 770.6,
      "place": "Warsaw, Poland"
    },
    {
      "lon": 15.25,
      "lat": 49.75,
      "type": "hotspot_cell",
      "score": 67.525,
      "count": 149,
      "cell_deg": 0.5,
      "sources": {
        "GDELT": 149,
        "GDELT_DOC": 0,
        "DIRECT_FEED": 0,
        "USGS": 0,
        "GDACS": 0
      },
      "last7_score": 57.125,
      "prev7_score": 10.4,
      "trend": "up",
      "trend_arrow": "🔺",
      "change_pct": 449.3,
      "place": "Vysočina Region, Czechia"
    }
  ]
}