{
  "generated_utc": "2026-06-03T16:27:26Z",
  "top": [
    {
      "lon": 25.25,
      "lat": 54.75,
      "type": "hotspot_cell",
      "score": 647.766,
      "count": 1135,
      "cell_deg": 0.5,
      "sources": {
        "GDELT": 98,
        "GDELT_DOC": 1035,
        "DIRECT_FEED": 2,
        "USGS": 0,
        "GDACS": 0
      },
      "last7_score": 640.751,
      "prev7_score": 7.015,
      "trend": "up",
      "trend_arrow": "🔺",
      "change_pct": 9033.5,
      "place": "Vilnius County, Lithuania"
    },
    {
      "lon": 14.25,
      "lat": 50.25,
      "type": "hotspot_cell",
      "score": 638.465,
      "count": 1184,
      "cell_deg": 0.5,
      "sources": {
        "GDELT": 153,
        "GDELT_DOC": 1026,
        "DIRECT_FEED": 5,
        "USGS": 0,
        "GDACS": 0
      },
      "last7_score": 627.739,
      "prev7_score": 10.726,
      "trend": "up",
      "trend_arrow": "🔺",
      "change_pct": 5752.6,
      "place": "SO ORP Kralupy nad Vltavou, Czechia"
    },
    {
      "lon": 26.25,
      "lat": 44.25,
      "type": "hotspot_cell",
      "score": 615.485,
      "count": 1067,
      "cell_deg": 0.5,
      "sources": {
        "GDELT": 227,
        "GDELT_DOC": 829,
        "DIRECT_FEED": 11,
        "USGS": 0,
        "GDACS": 0
      },
      "last7_score": 606.865,
      "prev7_score": 8.62,
      "trend": "up",
      "trend_arrow": "🔺",
      "change_pct": 6940.5,
      "place": "Giurgiu, Romania"
    },
    {
      "lon": 19.25,
      "lat": 47.75,
      "type": "hotspot_cell",
      "score": 225.242,
      "count": 422,
      "cell_deg": 0.5,
      "sources": {
        "GDELT": 232,
        "GDELT_DOC": 0,
        "DIRECT_FEED": 190,
        "USGS": 0,
        "GDACS": 0
      },
      "last7_score": 213.111,
      "prev7_score": 12.131,
      "trend": "up",
      "trend_arrow": "🔺",
      "change_pct": 1656.7,
      "place": "Pest, Hungary"
    },
    {
      "lon": 20.25,
      "lat": 52.25,
      "type": "hotspot_cell",
      "score": 224.334,
      "count": 750,
      "cell_deg": 0.5,
      "sources": {
        "GDELT": 750,
        "GDELT_DOC": 0,
        "DIRECT_FEED": 0,
        "USGS": 0,
        "GDACS": 0
      },
      "last7_score": 170.949,
      "prev7_score": 53.384,
      "trend": "up",
      "trend_arrow": "🔺",
      "change_pct": 220.2,
      "place": "Sochaczew County, Poland"
    },
    {
      "lon": 25.25,
      "lat": 46.25,
      "type": "hotspot_cell",
      "score": 204.285,
      "count": 466,
      "cell_deg": 0.5,
      "sources": {
        "GDELT": 466,
        "GDELT_DOC": 0,
        "DIRECT_FEED": 0,
        "USGS": 0,
        "GDACS": 0
      },
      "last7_score": 182.351,
      "prev7_score": 21.934,
      "trend": "up",
      "trend_arrow": "🔺",
      "change_pct": 731.4,
      "place": "Harghita, Romania"
    },
    {
      "lon": 24.25,
      "lat": 56.75,
      "type": "hotspot_cell",
      "score": 133.074,
      "count": 198,
      "cell_deg": 0.5,
      "sources": {
        "GDELT": 49,
        "GDELT_DOC": 0,
        "DIRECT_FEED": 149,
        "USGS": 0,
        "GDACS": 0
      },
      "last7_score": 130.663,
      "prev7_score": 2.411,
      "trend": "up",
      "trend_arrow": "🔺",
      "change_pct": 5319.1,
      "place": "Ķekavas novads, Latvia"
    },
    {
      "lon": 20.25,
      "lat": 47.25,
      "type": "hotspot_cell",
      "score": 108.6,
      "count": 266,
      "cell_deg": 0.5,
      "sources": {
        "GDELT": 266,
        "GDELT_DOC": 0,
        "DIRECT_FEED": 0,
        "USGS": 0,
        "GDACS": 0
      },
      "last7_score": 94.269,
      "prev7_score": 14.331,
      "trend": "up",
      "trend_arrow": "🔺",
      "change_pct": 557.8,
      "place": "Jász-Nagykun-Szolnok, Hungary"
    },
    {
      "lon": 21.25,
      "lat": 52.25,
      "type": "hotspot_cell",
      "score": 85.282,
      "count": 259,
      "cell_deg": 0.5,
      "sources": {
        "GDELT": 259,
        "GDELT_DOC": 0,
        "DIRECT_FEED": 0,
        "USGS": 0,
        "GDACS": 0
      },
      "last7_score": 70.858,
      "prev7_score": 14.425,
      "trend": "up",
      "trend_arrow": "🔺",
      "change_pct": 391.2,
      "place": "Warsaw, Poland"
    },
    {
      "lon": 15.25,
      "lat": 49.75,
      "type": "hotspot_cell",
      "score": 57.255,
      "count": 161,
      "cell_deg": 0.5,
      "sources": {
        "GDELT": 161,
        "GDELT_DOC": 0,
        "DIRECT_FEED": 0,
        "USGS": 0,
        "GDACS": 0
      },
      "last7_score": 46.597,
      "prev7_score": 10.657,
      "trend": "up",
      "trend_arrow": "🔺",
      "change_pct": 337.2,
      "place": "Vysočina Region, Czechia"
    }
  ]
}