{
  "generated_utc": "2026-05-30T13:12:43Z",
  "top": [
    {
      "lon": 14.25,
      "lat": 50.25,
      "type": "hotspot_cell",
      "score": 842.476,
      "count": 1477,
      "cell_deg": 0.5,
      "sources": {
        "GDELT": 146,
        "GDELT_DOC": 1318,
        "DIRECT_FEED": 13,
        "USGS": 0,
        "GDACS": 0
      },
      "last7_score": 829.949,
      "prev7_score": 12.527,
      "trend": "up",
      "trend_arrow": "🔺",
      "change_pct": 6525.1,
      "place": "SO ORP Kralupy nad Vltavou, Czechia"
    },
    {
      "lon": 26.25,
      "lat": 44.25,
      "type": "hotspot_cell",
      "score": 831.818,
      "count": 1244,
      "cell_deg": 0.5,
      "sources": {
        "GDELT": 205,
        "GDELT_DOC": 1029,
        "DIRECT_FEED": 10,
        "USGS": 0,
        "GDACS": 0
      },
      "last7_score": 824.818,
      "prev7_score": 7.0,
      "trend": "up",
      "trend_arrow": "🔺",
      "change_pct": 11683.5,
      "place": "Giurgiu, Romania"
    },
    {
      "lon": 25.25,
      "lat": 54.75,
      "type": "hotspot_cell",
      "score": 746.214,
      "count": 1202,
      "cell_deg": 0.5,
      "sources": {
        "GDELT": 103,
        "GDELT_DOC": 1097,
        "DIRECT_FEED": 2,
        "USGS": 0,
        "GDACS": 0
      },
      "last7_score": 736.636,
      "prev7_score": 9.578,
      "trend": "up",
      "trend_arrow": "🔺",
      "change_pct": 7590.7,
      "place": "Vilnius County, Lithuania"
    },
    {
      "lon": 20.25,
      "lat": 52.25,
      "type": "hotspot_cell",
      "score": 252.092,
      "count": 764,
      "cell_deg": 0.5,
      "sources": {
        "GDELT": 764,
        "GDELT_DOC": 0,
        "DIRECT_FEED": 0,
        "USGS": 0,
        "GDACS": 0
      },
      "last7_score": 178.337,
      "prev7_score": 73.755,
      "trend": "up",
      "trend_arrow": "🔺",
      "change_pct": 141.8,
      "place": "Sochaczew County, Poland"
    },
    {
      "lon": 19.25,
      "lat": 47.75,
      "type": "hotspot_cell",
      "score": 242.234,
      "count": 425,
      "cell_deg": 0.5,
      "sources": {
        "GDELT": 221,
        "GDELT_DOC": 0,
        "DIRECT_FEED": 204,
        "USGS": 0,
        "GDACS": 0
      },
      "last7_score": 228.797,
      "prev7_score": 13.437,
      "trend": "up",
      "trend_arrow": "🔺",
      "change_pct": 1602.7,
      "place": "Pest, Hungary"
    },
    {
      "lon": 25.25,
      "lat": 46.25,
      "type": "hotspot_cell",
      "score": 233.122,
      "count": 435,
      "cell_deg": 0.5,
      "sources": {
        "GDELT": 435,
        "GDELT_DOC": 0,
        "DIRECT_FEED": 0,
        "USGS": 0,
        "GDACS": 0
      },
      "last7_score": 211.444,
      "prev7_score": 21.678,
      "trend": "up",
      "trend_arrow": "🔺",
      "change_pct": 875.4,
      "place": "Harghita, Romania"
    },
    {
      "lon": 24.25,
      "lat": 56.75,
      "type": "hotspot_cell",
      "score": 116.283,
      "count": 179,
      "cell_deg": 0.5,
      "sources": {
        "GDELT": 54,
        "GDELT_DOC": 0,
        "DIRECT_FEED": 125,
        "USGS": 0,
        "GDACS": 0
      },
      "last7_score": 112.196,
      "prev7_score": 4.088,
      "trend": "up",
      "trend_arrow": "🔺",
      "change_pct": 2644.7,
      "place": "Ķekavas novads, Latvia"
    },
    {
      "lon": 20.25,
      "lat": 47.25,
      "type": "hotspot_cell",
      "score": 100.442,
      "count": 256,
      "cell_deg": 0.5,
      "sources": {
        "GDELT": 256,
        "GDELT_DOC": 0,
        "DIRECT_FEED": 0,
        "USGS": 0,
        "GDACS": 0
      },
      "last7_score": 82.234,
      "prev7_score": 18.208,
      "trend": "up",
      "trend_arrow": "🔺",
      "change_pct": 351.6,
      "place": "Jász-Nagykun-Szolnok, Hungary"
    },
    {
      "lon": 21.25,
      "lat": 52.25,
      "type": "hotspot_cell",
      "score": 99.465,
      "count": 264,
      "cell_deg": 0.5,
      "sources": {
        "GDELT": 264,
        "GDELT_DOC": 0,
        "DIRECT_FEED": 0,
        "USGS": 0,
        "GDACS": 0
      },
      "last7_score": 76.206,
      "prev7_score": 23.259,
      "trend": "up",
      "trend_arrow": "🔺",
      "change_pct": 227.6,
      "place": "Warsaw, Poland"
    },
    {
      "lon": 15.25,
      "lat": 49.75,
      "type": "hotspot_cell",
      "score": 69.117,
      "count": 170,
      "cell_deg": 0.5,
      "sources": {
        "GDELT": 170,
        "GDELT_DOC": 0,
        "DIRECT_FEED": 0,
        "USGS": 0,
        "GDACS": 0
      },
      "last7_score": 57.53,
      "prev7_score": 11.587,
      "trend": "up",
      "trend_arrow": "🔺",
      "change_pct": 396.5,
      "place": "Vysočina Region, Czechia"
    }
  ]
}