{
  "generated_utc": "2026-06-25T14:11:59Z",
  "top": [
    {
      "lon": 14.25,
      "lat": 50.25,
      "type": "hotspot_cell",
      "score": 779.426,
      "count": 1109,
      "cell_deg": 0.5,
      "sources": {
        "GDELT": 121,
        "GDELT_DOC": 972,
        "DIRECT_FEED": 16,
        "USGS": 0,
        "GDACS": 0
      },
      "last7_score": 771.532,
      "prev7_score": 7.894,
      "trend": "up",
      "trend_arrow": "🔺",
      "change_pct": 9673.5,
      "place": "SO ORP Kralupy nad Vltavou, Czechia"
    },
    {
      "lon": 26.25,
      "lat": 44.25,
      "type": "hotspot_cell",
      "score": 627.576,
      "count": 1007,
      "cell_deg": 0.5,
      "sources": {
        "GDELT": 139,
        "GDELT_DOC": 859,
        "DIRECT_FEED": 9,
        "USGS": 0,
        "GDACS": 0
      },
      "last7_score": 617.172,
      "prev7_score": 10.404,
      "trend": "up",
      "trend_arrow": "🔺",
      "change_pct": 5831.9,
      "place": "Giurgiu, Romania"
    },
    {
      "lon": 25.25,
      "lat": 54.75,
      "type": "hotspot_cell",
      "score": 327.24,
      "count": 605,
      "cell_deg": 0.5,
      "sources": {
        "GDELT": 56,
        "GDELT_DOC": 549,
        "DIRECT_FEED": 0,
        "USGS": 0,
        "GDACS": 0
      },
      "last7_score": 322.772,
      "prev7_score": 4.468,
      "trend": "up",
      "trend_arrow": "🔺",
      "change_pct": 7123.5,
      "place": "Vilnius County, Lithuania"
    },
    {
      "lon": 20.25,
      "lat": 52.25,
      "type": "hotspot_cell",
      "score": 199.271,
      "count": 487,
      "cell_deg": 0.5,
      "sources": {
        "GDELT": 487,
        "GDELT_DOC": 0,
        "DIRECT_FEED": 0,
        "USGS": 0,
        "GDACS": 0
      },
      "last7_score": 164.703,
      "prev7_score": 34.568,
      "trend": "up",
      "trend_arrow": "🔺",
      "change_pct": 376.5,
      "place": "Sochaczew County, Poland"
    },
    {
      "lon": 19.25,
      "lat": 47.75,
      "type": "hotspot_cell",
      "score": 197.67,
      "count": 355,
      "cell_deg": 0.5,
      "sources": {
        "GDELT": 189,
        "GDELT_DOC": 0,
        "DIRECT_FEED": 166,
        "USGS": 0,
        "GDACS": 0
      },
      "last7_score": 184.967,
      "prev7_score": 12.703,
      "trend": "up",
      "trend_arrow": "🔺",
      "change_pct": 1356.1,
      "place": "Pest, Hungary"
    },
    {
      "lon": 25.25,
      "lat": 46.25,
      "type": "hotspot_cell",
      "score": 143.616,
      "count": 393,
      "cell_deg": 0.5,
      "sources": {
        "GDELT": 393,
        "GDELT_DOC": 0,
        "DIRECT_FEED": 0,
        "USGS": 0,
        "GDACS": 0
      },
      "last7_score": 112.468,
      "prev7_score": 31.148,
      "trend": "up",
      "trend_arrow": "🔺",
      "change_pct": 261.1,
      "place": "Harghita, Romania"
    },
    {
      "lon": 21.25,
      "lat": 52.25,
      "type": "hotspot_cell",
      "score": 140.274,
      "count": 323,
      "cell_deg": 0.5,
      "sources": {
        "GDELT": 323,
        "GDELT_DOC": 0,
        "DIRECT_FEED": 0,
        "USGS": 0,
        "GDACS": 0
      },
      "last7_score": 121.325,
      "prev7_score": 18.949,
      "trend": "up",
      "trend_arrow": "🔺",
      "change_pct": 540.3,
      "place": "Warsaw, Poland"
    },
    {
      "lon": 24.25,
      "lat": 56.75,
      "type": "hotspot_cell",
      "score": 118.076,
      "count": 173,
      "cell_deg": 0.5,
      "sources": {
        "GDELT": 32,
        "GDELT_DOC": 0,
        "DIRECT_FEED": 141,
        "USGS": 0,
        "GDACS": 0
      },
      "last7_score": 115.9,
      "prev7_score": 2.176,
      "trend": "up",
      "trend_arrow": "🔺",
      "change_pct": 5226.3,
      "place": "Ķekavas novads, Latvia"
    },
    {
      "lon": 20.25,
      "lat": 47.25,
      "type": "hotspot_cell",
      "score": 87.059,
      "count": 243,
      "cell_deg": 0.5,
      "sources": {
        "GDELT": 242,
        "GDELT_DOC": 0,
        "DIRECT_FEED": 0,
        "USGS": 0,
        "GDACS": 1
      },
      "last7_score": 67.622,
      "prev7_score": 19.437,
      "trend": "up",
      "trend_arrow": "🔺",
      "change_pct": 247.9,
      "place": "Jász-Nagykun-Szolnok, Hungary"
    },
    {
      "lon": 27.75,
      "lat": 47.25,
      "type": "hotspot_cell",
      "score": 52.962,
      "count": 73,
      "cell_deg": 0.5,
      "sources": {
        "GDELT": 0,
        "GDELT_DOC": 73,
        "DIRECT_FEED": 0,
        "USGS": 0,
        "GDACS": 0
      },
      "last7_score": 52.962,
      "prev7_score": 0.0,
      "trend": "new",
      "trend_arrow": "🆕",
      "change_pct": null,
      "place": "Iași, Romania"
    }
  ]
}