{
  "generated_utc": "2026-05-07T14:14:21Z",
  "top": [
    {
      "lon": 14.25,
      "lat": 50.25,
      "type": "hotspot_cell",
      "score": 794.638,
      "count": 1338,
      "cell_deg": 0.5,
      "sources": {
        "GDELT": 164,
        "GDELT_DOC": 1169,
        "DIRECT_FEED": 5,
        "USGS": 0,
        "GDACS": 0
      },
      "last7_score": 781.805,
      "prev7_score": 12.833,
      "trend": "up",
      "trend_arrow": "🔺",
      "change_pct": 5992.3,
      "place": "SO ORP Kralupy nad Vltavou, Czechia"
    },
    {
      "lon": 26.25,
      "lat": 44.25,
      "type": "hotspot_cell",
      "score": 700.766,
      "count": 1201,
      "cell_deg": 0.5,
      "sources": {
        "GDELT": 151,
        "GDELT_DOC": 1042,
        "DIRECT_FEED": 8,
        "USGS": 0,
        "GDACS": 0
      },
      "last7_score": 689.8,
      "prev7_score": 10.966,
      "trend": "up",
      "trend_arrow": "🔺",
      "change_pct": 6190.4,
      "place": "Giurgiu, Romania"
    },
    {
      "lon": 25.25,
      "lat": 54.75,
      "type": "hotspot_cell",
      "score": 545.737,
      "count": 945,
      "cell_deg": 0.5,
      "sources": {
        "GDELT": 63,
        "GDELT_DOC": 882,
        "DIRECT_FEED": 0,
        "USGS": 0,
        "GDACS": 0
      },
      "last7_score": 539.785,
      "prev7_score": 5.952,
      "trend": "up",
      "trend_arrow": "🔺",
      "change_pct": 8969.0,
      "place": "Vilnius County, Lithuania"
    },
    {
      "lon": 19.25,
      "lat": 47.75,
      "type": "hotspot_cell",
      "score": 216.269,
      "count": 374,
      "cell_deg": 0.5,
      "sources": {
        "GDELT": 210,
        "GDELT_DOC": 0,
        "DIRECT_FEED": 164,
        "USGS": 0,
        "GDACS": 0
      },
      "last7_score": 200.119,
      "prev7_score": 16.151,
      "trend": "up",
      "trend_arrow": "🔺",
      "change_pct": 1139.1,
      "place": "Pest, Hungary"
    },
    {
      "lon": 20.25,
      "lat": 52.25,
      "type": "hotspot_cell",
      "score": 214.694,
      "count": 507,
      "cell_deg": 0.5,
      "sources": {
        "GDELT": 507,
        "GDELT_DOC": 0,
        "DIRECT_FEED": 0,
        "USGS": 0,
        "GDACS": 0
      },
      "last7_score": 181.837,
      "prev7_score": 32.857,
      "trend": "up",
      "trend_arrow": "🔺",
      "change_pct": 453.4,
      "place": "Sochaczew County, Poland"
    },
    {
      "lon": 25.25,
      "lat": 46.25,
      "type": "hotspot_cell",
      "score": 143.979,
      "count": 358,
      "cell_deg": 0.5,
      "sources": {
        "GDELT": 358,
        "GDELT_DOC": 0,
        "DIRECT_FEED": 0,
        "USGS": 0,
        "GDACS": 0
      },
      "last7_score": 115.893,
      "prev7_score": 28.087,
      "trend": "up",
      "trend_arrow": "🔺",
      "change_pct": 312.6,
      "place": "Harghita, Romania"
    },
    {
      "lon": 24.25,
      "lat": 56.75,
      "type": "hotspot_cell",
      "score": 113.34,
      "count": 160,
      "cell_deg": 0.5,
      "sources": {
        "GDELT": 36,
        "GDELT_DOC": 0,
        "DIRECT_FEED": 124,
        "USGS": 0,
        "GDACS": 0
      },
      "last7_score": 111.58,
      "prev7_score": 1.76,
      "trend": "up",
      "trend_arrow": "🔺",
      "change_pct": 6238.9,
      "place": "Ķekavas novads, Latvia"
    },
    {
      "lon": 20.25,
      "lat": 47.25,
      "type": "hotspot_cell",
      "score": 96.687,
      "count": 310,
      "cell_deg": 0.5,
      "sources": {
        "GDELT": 310,
        "GDELT_DOC": 0,
        "DIRECT_FEED": 0,
        "USGS": 0,
        "GDACS": 0
      },
      "last7_score": 69.991,
      "prev7_score": 26.697,
      "trend": "up",
      "trend_arrow": "🔺",
      "change_pct": 162.2,
      "place": "Jász-Nagykun-Szolnok, Hungary"
    },
    {
      "lon": 15.25,
      "lat": 49.75,
      "type": "hotspot_cell",
      "score": 58.556,
      "count": 190,
      "cell_deg": 0.5,
      "sources": {
        "GDELT": 190,
        "GDELT_DOC": 0,
        "DIRECT_FEED": 0,
        "USGS": 0,
        "GDACS": 0
      },
      "last7_score": 41.224,
      "prev7_score": 17.332,
      "trend": "up",
      "trend_arrow": "🔺",
      "change_pct": 137.9,
      "place": "Vysočina Region, Czechia"
    },
    {
      "lon": 21.25,
      "lat": 52.25,
      "type": "hotspot_cell",
      "score": 53.919,
      "count": 152,
      "cell_deg": 0.5,
      "sources": {
        "GDELT": 152,
        "GDELT_DOC": 0,
        "DIRECT_FEED": 0,
        "USGS": 0,
        "GDACS": 0
      },
      "last7_score": 42.311,
      "prev7_score": 11.608,
      "trend": "up",
      "trend_arrow": "🔺",
      "change_pct": 264.5,
      "place": "Warsaw, Poland"
    }
  ]
}