{
  "generated_utc": "2026-04-24T19:02:41Z",
  "top": [
    {
      "lon": 14.25,
      "lat": 50.25,
      "type": "hotspot_cell",
      "score": 1142.455,
      "count": 1647,
      "cell_deg": 0.5,
      "sources": {
        "GDELT": 181,
        "GDELT_DOC": 1462,
        "DIRECT_FEED": 4,
        "USGS": 0,
        "GDACS": 0
      },
      "last7_score": 1128.503,
      "prev7_score": 13.952,
      "trend": "up",
      "trend_arrow": "🔺",
      "change_pct": 7988.5,
      "place": "SO ORP Kralupy nad Vltavou, Czechia"
    },
    {
      "lon": 26.25,
      "lat": 44.25,
      "type": "hotspot_cell",
      "score": 932.586,
      "count": 1379,
      "cell_deg": 0.5,
      "sources": {
        "GDELT": 137,
        "GDELT_DOC": 1235,
        "DIRECT_FEED": 7,
        "USGS": 0,
        "GDACS": 0
      },
      "last7_score": 923.79,
      "prev7_score": 8.796,
      "trend": "up",
      "trend_arrow": "🔺",
      "change_pct": 10402.3,
      "place": "Giurgiu, Romania"
    },
    {
      "lon": 25.25,
      "lat": 54.75,
      "type": "hotspot_cell",
      "score": 775.359,
      "count": 1174,
      "cell_deg": 0.5,
      "sources": {
        "GDELT": 74,
        "GDELT_DOC": 1100,
        "DIRECT_FEED": 0,
        "USGS": 0,
        "GDACS": 0
      },
      "last7_score": 768.697,
      "prev7_score": 6.662,
      "trend": "up",
      "trend_arrow": "🔺",
      "change_pct": 11438.0,
      "place": "Vilnius County, Lithuania"
    },
    {
      "lon": 19.25,
      "lat": 47.75,
      "type": "hotspot_cell",
      "score": 427.736,
      "count": 1256,
      "cell_deg": 0.5,
      "sources": {
        "GDELT": 1001,
        "GDELT_DOC": 0,
        "DIRECT_FEED": 255,
        "USGS": 0,
        "GDACS": 0
      },
      "last7_score": 351.145,
      "prev7_score": 76.591,
      "trend": "up",
      "trend_arrow": "🔺",
      "change_pct": 358.5,
      "place": "Pest, Hungary"
    },
    {
      "lon": 20.25,
      "lat": 47.25,
      "type": "hotspot_cell",
      "score": 292.439,
      "count": 877,
      "cell_deg": 0.5,
      "sources": {
        "GDELT": 877,
        "GDELT_DOC": 0,
        "DIRECT_FEED": 0,
        "USGS": 0,
        "GDACS": 0
      },
      "last7_score": 229.221,
      "prev7_score": 63.218,
      "trend": "up",
      "trend_arrow": "🔺",
      "change_pct": 262.6,
      "place": "Jász-Nagykun-Szolnok, Hungary"
    },
    {
      "lon": 20.25,
      "lat": 52.25,
      "type": "hotspot_cell",
      "score": 203.497,
      "count": 473,
      "cell_deg": 0.5,
      "sources": {
        "GDELT": 473,
        "GDELT_DOC": 0,
        "DIRECT_FEED": 0,
        "USGS": 0,
        "GDACS": 0
      },
      "last7_score": 173.127,
      "prev7_score": 30.37,
      "trend": "up",
      "trend_arrow": "🔺",
      "change_pct": 470.1,
      "place": "Sochaczew County, Poland"
    },
    {
      "lon": 24.25,
      "lat": 56.75,
      "type": "hotspot_cell",
      "score": 116.276,
      "count": 165,
      "cell_deg": 0.5,
      "sources": {
        "GDELT": 34,
        "GDELT_DOC": 0,
        "DIRECT_FEED": 131,
        "USGS": 0,
        "GDACS": 0
      },
      "last7_score": 113.234,
      "prev7_score": 3.042,
      "trend": "up",
      "trend_arrow": "🔺",
      "change_pct": 3622.8,
      "place": "Ķekavas novads, Latvia"
    },
    {
      "lon": 25.25,
      "lat": 46.25,
      "type": "hotspot_cell",
      "score": 110.119,
      "count": 267,
      "cell_deg": 0.5,
      "sources": {
        "GDELT": 267,
        "GDELT_DOC": 0,
        "DIRECT_FEED": 0,
        "USGS": 0,
        "GDACS": 0
      },
      "last7_score": 89.643,
      "prev7_score": 20.476,
      "trend": "up",
      "trend_arrow": "🔺",
      "change_pct": 337.8,
      "place": "Harghita, Romania"
    },
    {
      "lon": 27.75,
      "lat": 47.25,
      "type": "hotspot_cell",
      "score": 104.895,
      "count": 129,
      "cell_deg": 0.5,
      "sources": {
        "GDELT": 0,
        "GDELT_DOC": 129,
        "DIRECT_FEED": 0,
        "USGS": 0,
        "GDACS": 0
      },
      "last7_score": 104.895,
      "prev7_score": 0.0,
      "trend": "new",
      "trend_arrow": "🆕",
      "change_pct": null,
      "place": "Iași, Romania"
    },
    {
      "lon": 15.25,
      "lat": 49.75,
      "type": "hotspot_cell",
      "score": 77.251,
      "count": 208,
      "cell_deg": 0.5,
      "sources": {
        "GDELT": 208,
        "GDELT_DOC": 0,
        "DIRECT_FEED": 0,
        "USGS": 0,
        "GDACS": 0
      },
      "last7_score": 62.637,
      "prev7_score": 14.614,
      "trend": "up",
      "trend_arrow": "🔺",
      "change_pct": 328.6,
      "place": "Vysočina Region, Czechia"
    }
  ]
}