{
  "generated_utc": "2026-07-02T08:51:54Z",
  "top": [
    {
      "lon": 26.25,
      "lat": 44.25,
      "type": "hotspot_cell",
      "score": 382.25,
      "count": 820,
      "cell_deg": 0.5,
      "sources": {
        "GDELT": 139,
        "GDELT_DOC": 675,
        "DIRECT_FEED": 6,
        "USGS": 0,
        "GDACS": 0
      },
      "last7_score": 370.231,
      "prev7_score": 12.018,
      "trend": "up",
      "trend_arrow": "🔺",
      "change_pct": 2980.5,
      "place": "Giurgiu, Romania"
    },
    {
      "lon": 14.25,
      "lat": 50.25,
      "type": "hotspot_cell",
      "score": 338.413,
      "count": 730,
      "cell_deg": 0.5,
      "sources": {
        "GDELT": 128,
        "GDELT_DOC": 600,
        "DIRECT_FEED": 2,
        "USGS": 0,
        "GDACS": 0
      },
      "last7_score": 328.804,
      "prev7_score": 9.609,
      "trend": "up",
      "trend_arrow": "🔺",
      "change_pct": 3322.0,
      "place": "SO ORP Kralupy nad Vltavou, Czechia"
    },
    {
      "lon": 25.25,
      "lat": 54.75,
      "type": "hotspot_cell",
      "score": 301.975,
      "count": 587,
      "cell_deg": 0.5,
      "sources": {
        "GDELT": 56,
        "GDELT_DOC": 531,
        "DIRECT_FEED": 0,
        "USGS": 0,
        "GDACS": 0
      },
      "last7_score": 297.603,
      "prev7_score": 4.372,
      "trend": "up",
      "trend_arrow": "🔺",
      "change_pct": 6707.2,
      "place": "Vilnius County, Lithuania"
    },
    {
      "lon": 20.25,
      "lat": 52.25,
      "type": "hotspot_cell",
      "score": 205.844,
      "count": 521,
      "cell_deg": 0.5,
      "sources": {
        "GDELT": 521,
        "GDELT_DOC": 0,
        "DIRECT_FEED": 0,
        "USGS": 0,
        "GDACS": 0
      },
      "last7_score": 164.306,
      "prev7_score": 41.539,
      "trend": "up",
      "trend_arrow": "🔺",
      "change_pct": 295.5,
      "place": "Sochaczew County, Poland"
    },
    {
      "lon": 19.25,
      "lat": 47.75,
      "type": "hotspot_cell",
      "score": 192.313,
      "count": 358,
      "cell_deg": 0.5,
      "sources": {
        "GDELT": 185,
        "GDELT_DOC": 0,
        "DIRECT_FEED": 173,
        "USGS": 0,
        "GDACS": 0
      },
      "last7_score": 175.791,
      "prev7_score": 16.522,
      "trend": "up",
      "trend_arrow": "🔺",
      "change_pct": 964.0,
      "place": "Pest, Hungary"
    },
    {
      "lon": 25.25,
      "lat": 46.25,
      "type": "hotspot_cell",
      "score": 120.055,
      "count": 334,
      "cell_deg": 0.5,
      "sources": {
        "GDELT": 334,
        "GDELT_DOC": 0,
        "DIRECT_FEED": 0,
        "USGS": 0,
        "GDACS": 0
      },
      "last7_score": 92.679,
      "prev7_score": 27.375,
      "trend": "up",
      "trend_arrow": "🔺",
      "change_pct": 238.6,
      "place": "Harghita, Romania"
    },
    {
      "lon": 24.25,
      "lat": 56.75,
      "type": "hotspot_cell",
      "score": 119.871,
      "count": 178,
      "cell_deg": 0.5,
      "sources": {
        "GDELT": 29,
        "GDELT_DOC": 0,
        "DIRECT_FEED": 149,
        "USGS": 0,
        "GDACS": 0
      },
      "last7_score": 117.838,
      "prev7_score": 2.033,
      "trend": "up",
      "trend_arrow": "🔺",
      "change_pct": 5695.8,
      "place": "Ķekavas novads, Latvia"
    },
    {
      "lon": 21.25,
      "lat": 52.25,
      "type": "hotspot_cell",
      "score": 101.398,
      "count": 332,
      "cell_deg": 0.5,
      "sources": {
        "GDELT": 332,
        "GDELT_DOC": 0,
        "DIRECT_FEED": 0,
        "USGS": 0,
        "GDACS": 0
      },
      "last7_score": 70.957,
      "prev7_score": 30.441,
      "trend": "up",
      "trend_arrow": "🔺",
      "change_pct": 133.1,
      "place": "Warsaw, Poland"
    },
    {
      "lon": 15.25,
      "lat": 49.75,
      "type": "hotspot_cell",
      "score": 63.618,
      "count": 161,
      "cell_deg": 0.5,
      "sources": {
        "GDELT": 161,
        "GDELT_DOC": 0,
        "DIRECT_FEED": 0,
        "USGS": 0,
        "GDACS": 0
      },
      "last7_score": 53.403,
      "prev7_score": 10.215,
      "trend": "up",
      "trend_arrow": "🔺",
      "change_pct": 422.8,
      "place": "Vysočina Region, Czechia"
    },
    {
      "lon": 20.25,
      "lat": 47.25,
      "type": "hotspot_cell",
      "score": 55.293,
      "count": 174,
      "cell_deg": 0.5,
      "sources": {
        "GDELT": 174,
        "GDELT_DOC": 0,
        "DIRECT_FEED": 0,
        "USGS": 0,
        "GDACS": 0
      },
      "last7_score": 38.805,
      "prev7_score": 16.488,
      "trend": "up",
      "trend_arrow": "🔺",
      "change_pct": 135.3,
      "place": "Jász-Nagykun-Szolnok, Hungary"
    }
  ]
}