{
  "generated_utc": "2026-06-16T02:59:04Z",
  "top": [
    {
      "lon": 26.25,
      "lat": 44.25,
      "type": "hotspot_cell",
      "score": 486.64,
      "count": 921,
      "cell_deg": 0.5,
      "sources": {
        "GDELT": 164,
        "GDELT_DOC": 745,
        "DIRECT_FEED": 12,
        "USGS": 0,
        "GDACS": 0
      },
      "last7_score": 473.768,
      "prev7_score": 12.872,
      "trend": "up",
      "trend_arrow": "🔺",
      "change_pct": 3580.5,
      "place": "Giurgiu, Romania"
    },
    {
      "lon": 14.25,
      "lat": 50.25,
      "type": "hotspot_cell",
      "score": 396.257,
      "count": 781,
      "cell_deg": 0.5,
      "sources": {
        "GDELT": 96,
        "GDELT_DOC": 679,
        "DIRECT_FEED": 6,
        "USGS": 0,
        "GDACS": 0
      },
      "last7_score": 390.662,
      "prev7_score": 5.594,
      "trend": "up",
      "trend_arrow": "🔺",
      "change_pct": 6883.3,
      "place": "SO ORP Kralupy nad Vltavou, Czechia"
    },
    {
      "lon": 25.25,
      "lat": 54.75,
      "type": "hotspot_cell",
      "score": 392.059,
      "count": 626,
      "cell_deg": 0.5,
      "sources": {
        "GDELT": 51,
        "GDELT_DOC": 575,
        "DIRECT_FEED": 0,
        "USGS": 0,
        "GDACS": 0
      },
      "last7_score": 387.178,
      "prev7_score": 4.881,
      "trend": "up",
      "trend_arrow": "🔺",
      "change_pct": 7832.5,
      "place": "Vilnius County, Lithuania"
    },
    {
      "lon": 19.25,
      "lat": 47.75,
      "type": "hotspot_cell",
      "score": 170.82,
      "count": 355,
      "cell_deg": 0.5,
      "sources": {
        "GDELT": 185,
        "GDELT_DOC": 0,
        "DIRECT_FEED": 170,
        "USGS": 0,
        "GDACS": 0
      },
      "last7_score": 158.152,
      "prev7_score": 12.668,
      "trend": "up",
      "trend_arrow": "🔺",
      "change_pct": 1148.4,
      "place": "Pest, Hungary"
    },
    {
      "lon": 25.25,
      "lat": 46.25,
      "type": "hotspot_cell",
      "score": 151.755,
      "count": 412,
      "cell_deg": 0.5,
      "sources": {
        "GDELT": 412,
        "GDELT_DOC": 0,
        "DIRECT_FEED": 0,
        "USGS": 0,
        "GDACS": 0
      },
      "last7_score": 118.47,
      "prev7_score": 33.285,
      "trend": "up",
      "trend_arrow": "🔺",
      "change_pct": 255.9,
      "place": "Harghita, Romania"
    },
    {
      "lon": 20.25,
      "lat": 52.25,
      "type": "hotspot_cell",
      "score": 143.862,
      "count": 417,
      "cell_deg": 0.5,
      "sources": {
        "GDELT": 417,
        "GDELT_DOC": 0,
        "DIRECT_FEED": 0,
        "USGS": 0,
        "GDACS": 0
      },
      "last7_score": 114.833,
      "prev7_score": 29.029,
      "trend": "up",
      "trend_arrow": "🔺",
      "change_pct": 295.6,
      "place": "Sochaczew County, Poland"
    },
    {
      "lon": 17.25,
      "lat": 48.25,
      "type": "hotspot_cell",
      "score": 108.864,
      "count": 134,
      "cell_deg": 0.5,
      "sources": {
        "GDELT": 134,
        "GDELT_DOC": 0,
        "DIRECT_FEED": 0,
        "USGS": 0,
        "GDACS": 0
      },
      "last7_score": 108.049,
      "prev7_score": 0.814,
      "trend": "up",
      "trend_arrow": "🔺",
      "change_pct": 13169.5,
      "place": "District of Pezinok, Slovakia"
    },
    {
      "lon": 24.25,
      "lat": 56.75,
      "type": "hotspot_cell",
      "score": 108.08,
      "count": 176,
      "cell_deg": 0.5,
      "sources": {
        "GDELT": 42,
        "GDELT_DOC": 0,
        "DIRECT_FEED": 134,
        "USGS": 0,
        "GDACS": 0
      },
      "last7_score": 104.846,
      "prev7_score": 3.234,
      "trend": "up",
      "trend_arrow": "🔺",
      "change_pct": 3142.2,
      "place": "Ķekavas novads, Latvia"
    },
    {
      "lon": 20.25,
      "lat": 47.25,
      "type": "hotspot_cell",
      "score": 85.072,
      "count": 234,
      "cell_deg": 0.5,
      "sources": {
        "GDELT": 234,
        "GDELT_DOC": 0,
        "DIRECT_FEED": 0,
        "USGS": 0,
        "GDACS": 0
      },
      "last7_score": 68.068,
      "prev7_score": 17.003,
      "trend": "up",
      "trend_arrow": "🔺",
      "change_pct": 300.3,
      "place": "Jász-Nagykun-Szolnok, Hungary"
    },
    {
      "lon": 21.25,
      "lat": 52.25,
      "type": "hotspot_cell",
      "score": 50.933,
      "count": 155,
      "cell_deg": 0.5,
      "sources": {
        "GDELT": 155,
        "GDELT_DOC": 0,
        "DIRECT_FEED": 0,
        "USGS": 0,
        "GDACS": 0
      },
      "last7_score": 39.121,
      "prev7_score": 11.812,
      "trend": "up",
      "trend_arrow": "🔺",
      "change_pct": 231.2,
      "place": "Warsaw, Poland"
    }
  ]
}