{
  "generated_utc": "2026-04-16T02:50:09Z",
  "top": [
    {
      "lon": 14.25,
      "lat": 50.25,
      "type": "hotspot_cell",
      "score": 890.048,
      "count": 1376,
      "cell_deg": 0.5,
      "sources": {
        "GDELT": 75,
        "GDELT_DOC": 1301,
        "DIRECT_FEED": 0,
        "USGS": 0,
        "GDACS": 0
      },
      "last7_score": 884.082,
      "prev7_score": 5.966,
      "trend": "up",
      "trend_arrow": "🔺",
      "change_pct": 14717.9,
      "place": "SO ORP Kralupy nad Vltavou, Czechia"
    },
    {
      "lon": 26.25,
      "lat": 44.25,
      "type": "hotspot_cell",
      "score": 803.232,
      "count": 1370,
      "cell_deg": 0.5,
      "sources": {
        "GDELT": 100,
        "GDELT_DOC": 1268,
        "DIRECT_FEED": 2,
        "USGS": 0,
        "GDACS": 0
      },
      "last7_score": 793.452,
      "prev7_score": 9.78,
      "trend": "up",
      "trend_arrow": "🔺",
      "change_pct": 8012.8,
      "place": "Giurgiu, Romania"
    },
    {
      "lon": 19.25,
      "lat": 47.75,
      "type": "hotspot_cell",
      "score": 772.589,
      "count": 1448,
      "cell_deg": 0.5,
      "sources": {
        "GDELT": 1119,
        "GDELT_DOC": 0,
        "DIRECT_FEED": 329,
        "USGS": 0,
        "GDACS": 0
      },
      "last7_score": 697.947,
      "prev7_score": 74.642,
      "trend": "up",
      "trend_arrow": "🔺",
      "change_pct": 835.1,
      "place": "Pest, Hungary"
    },
    {
      "lon": 25.25,
      "lat": 54.75,
      "type": "hotspot_cell",
      "score": 492.381,
      "count": 863,
      "cell_deg": 0.5,
      "sources": {
        "GDELT": 69,
        "GDELT_DOC": 792,
        "DIRECT_FEED": 2,
        "USGS": 0,
        "GDACS": 0
      },
      "last7_score": 487.325,
      "prev7_score": 5.056,
      "trend": "up",
      "trend_arrow": "🔺",
      "change_pct": 9537.8,
      "place": "Vilnius County, Lithuania"
    },
    {
      "lon": 20.25,
      "lat": 47.25,
      "type": "hotspot_cell",
      "score": 363.525,
      "count": 718,
      "cell_deg": 0.5,
      "sources": {
        "GDELT": 718,
        "GDELT_DOC": 0,
        "DIRECT_FEED": 0,
        "USGS": 0,
        "GDACS": 0
      },
      "last7_score": 319.716,
      "prev7_score": 43.809,
      "trend": "up",
      "trend_arrow": "🔺",
      "change_pct": 629.8,
      "place": "Jász-Nagykun-Szolnok, Hungary"
    },
    {
      "lon": 20.25,
      "lat": 52.25,
      "type": "hotspot_cell",
      "score": 145.881,
      "count": 359,
      "cell_deg": 0.5,
      "sources": {
        "GDELT": 359,
        "GDELT_DOC": 0,
        "DIRECT_FEED": 0,
        "USGS": 0,
        "GDACS": 0
      },
      "last7_score": 116.272,
      "prev7_score": 29.609,
      "trend": "up",
      "trend_arrow": "🔺",
      "change_pct": 292.7,
      "place": "Sochaczew County, Poland"
    },
    {
      "lon": 24.25,
      "lat": 56.75,
      "type": "hotspot_cell",
      "score": 111.44,
      "count": 158,
      "cell_deg": 0.5,
      "sources": {
        "GDELT": 25,
        "GDELT_DOC": 0,
        "DIRECT_FEED": 133,
        "USGS": 0,
        "GDACS": 0
      },
      "last7_score": 109.339,
      "prev7_score": 2.101,
      "trend": "up",
      "trend_arrow": "🔺",
      "change_pct": 5104.7,
      "place": "Ķekavas novads, Latvia"
    },
    {
      "lon": 25.25,
      "lat": 46.25,
      "type": "hotspot_cell",
      "score": 100.856,
      "count": 233,
      "cell_deg": 0.5,
      "sources": {
        "GDELT": 233,
        "GDELT_DOC": 0,
        "DIRECT_FEED": 0,
        "USGS": 0,
        "GDACS": 0
      },
      "last7_score": 79.147,
      "prev7_score": 21.709,
      "trend": "up",
      "trend_arrow": "🔺",
      "change_pct": 264.6,
      "place": "Harghita, Romania"
    },
    {
      "lon": 21.25,
      "lat": 52.25,
      "type": "hotspot_cell",
      "score": 88.387,
      "count": 157,
      "cell_deg": 0.5,
      "sources": {
        "GDELT": 157,
        "GDELT_DOC": 0,
        "DIRECT_FEED": 0,
        "USGS": 0,
        "GDACS": 0
      },
      "last7_score": 79.922,
      "prev7_score": 8.465,
      "trend": "up",
      "trend_arrow": "🔺",
      "change_pct": 844.2,
      "place": "Warsaw, Poland"
    },
    {
      "lon": 15.25,
      "lat": 49.75,
      "type": "hotspot_cell",
      "score": 69.032,
      "count": 143,
      "cell_deg": 0.5,
      "sources": {
        "GDELT": 143,
        "GDELT_DOC": 0,
        "DIRECT_FEED": 0,
        "USGS": 0,
        "GDACS": 0
      },
      "last7_score": 59.516,
      "prev7_score": 9.516,
      "trend": "up",
      "trend_arrow": "🔺",
      "change_pct": 525.4,
      "place": "Vysočina Region, Czechia"
    }
  ]
}