{
  "generated_utc": "2026-07-11T18:55:54Z",
  "top": [
    {
      "lon": 14.25,
      "lat": 50.25,
      "type": "hotspot_cell",
      "score": 778.768,
      "count": 1218,
      "cell_deg": 0.5,
      "sources": {
        "GDELT": 110,
        "GDELT_DOC": 1102,
        "DIRECT_FEED": 6,
        "USGS": 0,
        "GDACS": 0
      },
      "last7_score": 771.488,
      "prev7_score": 7.281,
      "trend": "up",
      "trend_arrow": "🔺",
      "change_pct": 10496.6,
      "place": "SO ORP Kralupy nad Vltavou, Czechia"
    },
    {
      "lon": 25.25,
      "lat": 54.75,
      "type": "hotspot_cell",
      "score": 606.79,
      "count": 861,
      "cell_deg": 0.5,
      "sources": {
        "GDELT": 75,
        "GDELT_DOC": 784,
        "DIRECT_FEED": 2,
        "USGS": 0,
        "GDACS": 0
      },
      "last7_score": 601.919,
      "prev7_score": 4.871,
      "trend": "up",
      "trend_arrow": "🔺",
      "change_pct": 12257.5,
      "place": "Vilnius County, Lithuania"
    },
    {
      "lon": 26.25,
      "lat": 44.25,
      "type": "hotspot_cell",
      "score": 517.234,
      "count": 945,
      "cell_deg": 0.5,
      "sources": {
        "GDELT": 133,
        "GDELT_DOC": 809,
        "DIRECT_FEED": 3,
        "USGS": 0,
        "GDACS": 0
      },
      "last7_score": 508.741,
      "prev7_score": 8.492,
      "trend": "up",
      "trend_arrow": "🔺",
      "change_pct": 5890.6,
      "place": "Giurgiu, Romania"
    },
    {
      "lon": 19.25,
      "lat": 47.75,
      "type": "hotspot_cell",
      "score": 172.398,
      "count": 314,
      "cell_deg": 0.5,
      "sources": {
        "GDELT": 153,
        "GDELT_DOC": 0,
        "DIRECT_FEED": 161,
        "USGS": 0,
        "GDACS": 0
      },
      "last7_score": 163.427,
      "prev7_score": 8.971,
      "trend": "up",
      "trend_arrow": "🔺",
      "change_pct": 1721.7,
      "place": "Pest, Hungary"
    },
    {
      "lon": 20.25,
      "lat": 52.25,
      "type": "hotspot_cell",
      "score": 164.929,
      "count": 517,
      "cell_deg": 0.5,
      "sources": {
        "GDELT": 517,
        "GDELT_DOC": 0,
        "DIRECT_FEED": 0,
        "USGS": 0,
        "GDACS": 0
      },
      "last7_score": 130.362,
      "prev7_score": 34.567,
      "trend": "up",
      "trend_arrow": "🔺",
      "change_pct": 277.1,
      "place": "Sochaczew County, Poland"
    },
    {
      "lon": 25.25,
      "lat": 46.25,
      "type": "hotspot_cell",
      "score": 144.948,
      "count": 373,
      "cell_deg": 0.5,
      "sources": {
        "GDELT": 373,
        "GDELT_DOC": 0,
        "DIRECT_FEED": 0,
        "USGS": 0,
        "GDACS": 0
      },
      "last7_score": 123.116,
      "prev7_score": 21.833,
      "trend": "up",
      "trend_arrow": "🔺",
      "change_pct": 463.9,
      "place": "Harghita, Romania"
    },
    {
      "lon": 24.25,
      "lat": 56.75,
      "type": "hotspot_cell",
      "score": 92.673,
      "count": 148,
      "cell_deg": 0.5,
      "sources": {
        "GDELT": 21,
        "GDELT_DOC": 0,
        "DIRECT_FEED": 127,
        "USGS": 0,
        "GDACS": 0
      },
      "last7_score": 91.169,
      "prev7_score": 1.504,
      "trend": "up",
      "trend_arrow": "🔺",
      "change_pct": 5961.8,
      "place": "Ķekavas novads, Latvia"
    },
    {
      "lon": 21.25,
      "lat": 52.25,
      "type": "hotspot_cell",
      "score": 88.168,
      "count": 261,
      "cell_deg": 0.5,
      "sources": {
        "GDELT": 261,
        "GDELT_DOC": 0,
        "DIRECT_FEED": 0,
        "USGS": 0,
        "GDACS": 0
      },
      "last7_score": 67.018,
      "prev7_score": 21.15,
      "trend": "up",
      "trend_arrow": "🔺",
      "change_pct": 216.9,
      "place": "Warsaw, Poland"
    },
    {
      "lon": 20.25,
      "lat": 47.25,
      "type": "hotspot_cell",
      "score": 68.552,
      "count": 173,
      "cell_deg": 0.5,
      "sources": {
        "GDELT": 173,
        "GDELT_DOC": 0,
        "DIRECT_FEED": 0,
        "USGS": 0,
        "GDACS": 0
      },
      "last7_score": 59.466,
      "prev7_score": 9.087,
      "trend": "up",
      "trend_arrow": "🔺",
      "change_pct": 554.4,
      "place": "Jász-Nagykun-Szolnok, Hungary"
    },
    {
      "lon": 15.25,
      "lat": 49.75,
      "type": "hotspot_cell",
      "score": 64.232,
      "count": 179,
      "cell_deg": 0.5,
      "sources": {
        "GDELT": 179,
        "GDELT_DOC": 0,
        "DIRECT_FEED": 0,
        "USGS": 0,
        "GDACS": 0
      },
      "last7_score": 53.421,
      "prev7_score": 10.811,
      "trend": "up",
      "trend_arrow": "🔺",
      "change_pct": 394.1,
      "place": "Vysočina Region, Czechia"
    }
  ]
}