{
  "generated_utc": "2026-07-16T19:05:34Z",
  "top": [
    {
      "lon": 14.25,
      "lat": 50.25,
      "type": "hotspot_cell",
      "score": 712.831,
      "count": 1153,
      "cell_deg": 0.5,
      "sources": {
        "GDELT": 106,
        "GDELT_DOC": 1041,
        "DIRECT_FEED": 6,
        "USGS": 0,
        "GDACS": 0
      },
      "last7_score": 706.973,
      "prev7_score": 5.858,
      "trend": "up",
      "trend_arrow": "🔺",
      "change_pct": 11967.7,
      "place": "SO ORP Kralupy nad Vltavou, Czechia"
    },
    {
      "lon": 26.25,
      "lat": 44.25,
      "type": "hotspot_cell",
      "score": 484.588,
      "count": 741,
      "cell_deg": 0.5,
      "sources": {
        "GDELT": 97,
        "GDELT_DOC": 641,
        "DIRECT_FEED": 3,
        "USGS": 0,
        "GDACS": 0
      },
      "last7_score": 476.836,
      "prev7_score": 7.752,
      "trend": "up",
      "trend_arrow": "🔺",
      "change_pct": 6051.4,
      "place": "Giurgiu, Romania"
    },
    {
      "lon": 25.25,
      "lat": 54.75,
      "type": "hotspot_cell",
      "score": 421.52,
      "count": 707,
      "cell_deg": 0.5,
      "sources": {
        "GDELT": 81,
        "GDELT_DOC": 626,
        "DIRECT_FEED": 0,
        "USGS": 0,
        "GDACS": 0
      },
      "last7_score": 416.761,
      "prev7_score": 4.759,
      "trend": "up",
      "trend_arrow": "🔺",
      "change_pct": 8656.6,
      "place": "Vilnius County, Lithuania"
    },
    {
      "lon": 19.25,
      "lat": 47.75,
      "type": "hotspot_cell",
      "score": 215.531,
      "count": 347,
      "cell_deg": 0.5,
      "sources": {
        "GDELT": 161,
        "GDELT_DOC": 0,
        "DIRECT_FEED": 186,
        "USGS": 0,
        "GDACS": 0
      },
      "last7_score": 204.809,
      "prev7_score": 10.722,
      "trend": "up",
      "trend_arrow": "🔺",
      "change_pct": 1810.2,
      "place": "Pest, Hungary"
    },
    {
      "lon": 20.25,
      "lat": 52.25,
      "type": "hotspot_cell",
      "score": 177.461,
      "count": 470,
      "cell_deg": 0.5,
      "sources": {
        "GDELT": 470,
        "GDELT_DOC": 0,
        "DIRECT_FEED": 0,
        "USGS": 0,
        "GDACS": 0
      },
      "last7_score": 143.402,
      "prev7_score": 34.059,
      "trend": "up",
      "trend_arrow": "🔺",
      "change_pct": 321.0,
      "place": "Sochaczew County, Poland"
    },
    {
      "lon": 25.25,
      "lat": 46.25,
      "type": "hotspot_cell",
      "score": 159.243,
      "count": 394,
      "cell_deg": 0.5,
      "sources": {
        "GDELT": 394,
        "GDELT_DOC": 0,
        "DIRECT_FEED": 0,
        "USGS": 0,
        "GDACS": 0
      },
      "last7_score": 134.256,
      "prev7_score": 24.987,
      "trend": "up",
      "trend_arrow": "🔺",
      "change_pct": 437.3,
      "place": "Harghita, Romania"
    },
    {
      "lon": 24.25,
      "lat": 56.75,
      "type": "hotspot_cell",
      "score": 113.295,
      "count": 156,
      "cell_deg": 0.5,
      "sources": {
        "GDELT": 19,
        "GDELT_DOC": 0,
        "DIRECT_FEED": 137,
        "USGS": 0,
        "GDACS": 0
      },
      "last7_score": 112.178,
      "prev7_score": 1.117,
      "trend": "up",
      "trend_arrow": "🔺",
      "change_pct": 9940.3,
      "place": "Ķekavas novads, Latvia"
    },
    {
      "lon": 21.25,
      "lat": 52.25,
      "type": "hotspot_cell",
      "score": 97.704,
      "count": 262,
      "cell_deg": 0.5,
      "sources": {
        "GDELT": 262,
        "GDELT_DOC": 0,
        "DIRECT_FEED": 0,
        "USGS": 0,
        "GDACS": 0
      },
      "last7_score": 80.977,
      "prev7_score": 16.727,
      "trend": "up",
      "trend_arrow": "🔺",
      "change_pct": 384.1,
      "place": "Warsaw, Poland"
    },
    {
      "lon": 20.25,
      "lat": 47.25,
      "type": "hotspot_cell",
      "score": 76.943,
      "count": 195,
      "cell_deg": 0.5,
      "sources": {
        "GDELT": 195,
        "GDELT_DOC": 0,
        "DIRECT_FEED": 0,
        "USGS": 0,
        "GDACS": 0
      },
      "last7_score": 63.953,
      "prev7_score": 12.99,
      "trend": "up",
      "trend_arrow": "🔺",
      "change_pct": 392.3,
      "place": "Jász-Nagykun-Szolnok, Hungary"
    },
    {
      "lon": 15.25,
      "lat": 49.75,
      "type": "hotspot_cell",
      "score": 64.95,
      "count": 170,
      "cell_deg": 0.5,
      "sources": {
        "GDELT": 170,
        "GDELT_DOC": 0,
        "DIRECT_FEED": 0,
        "USGS": 0,
        "GDACS": 0
      },
      "last7_score": 52.411,
      "prev7_score": 12.539,
      "trend": "up",
      "trend_arrow": "🔺",
      "change_pct": 318.0,
      "place": "Vysočina Region, Czechia"
    }
  ]
}