{
  "generated_utc": "2026-06-22T11:43:43Z",
  "top": [
    {
      "lon": 26.25,
      "lat": 44.25,
      "type": "hotspot_cell",
      "score": 564.637,
      "count": 963,
      "cell_deg": 0.5,
      "sources": {
        "GDELT": 145,
        "GDELT_DOC": 814,
        "DIRECT_FEED": 4,
        "USGS": 0,
        "GDACS": 0
      },
      "last7_score": 554.284,
      "prev7_score": 10.353,
      "trend": "up",
      "trend_arrow": "🔺",
      "change_pct": 5253.8,
      "place": "Giurgiu, Romania"
    },
    {
      "lon": 25.25,
      "lat": 54.75,
      "type": "hotspot_cell",
      "score": 451.128,
      "count": 886,
      "cell_deg": 0.5,
      "sources": {
        "GDELT": 52,
        "GDELT_DOC": 833,
        "DIRECT_FEED": 1,
        "USGS": 0,
        "GDACS": 0
      },
      "last7_score": 448.747,
      "prev7_score": 2.381,
      "trend": "up",
      "trend_arrow": "🔺",
      "change_pct": 18744.5,
      "place": "Vilnius County, Lithuania"
    },
    {
      "lon": 14.25,
      "lat": 50.25,
      "type": "hotspot_cell",
      "score": 389.385,
      "count": 649,
      "cell_deg": 0.5,
      "sources": {
        "GDELT": 110,
        "GDELT_DOC": 528,
        "DIRECT_FEED": 11,
        "USGS": 0,
        "GDACS": 0
      },
      "last7_score": 382.037,
      "prev7_score": 7.348,
      "trend": "up",
      "trend_arrow": "🔺",
      "change_pct": 5098.9,
      "place": "SO ORP Kralupy nad Vltavou, Czechia"
    },
    {
      "lon": 20.25,
      "lat": 52.25,
      "type": "hotspot_cell",
      "score": 177.64,
      "count": 474,
      "cell_deg": 0.5,
      "sources": {
        "GDELT": 474,
        "GDELT_DOC": 0,
        "DIRECT_FEED": 0,
        "USGS": 0,
        "GDACS": 0
      },
      "last7_score": 151.023,
      "prev7_score": 26.617,
      "trend": "up",
      "trend_arrow": "🔺",
      "change_pct": 467.4,
      "place": "Sochaczew County, Poland"
    },
    {
      "lon": 19.25,
      "lat": 47.75,
      "type": "hotspot_cell",
      "score": 153.763,
      "count": 319,
      "cell_deg": 0.5,
      "sources": {
        "GDELT": 160,
        "GDELT_DOC": 0,
        "DIRECT_FEED": 159,
        "USGS": 0,
        "GDACS": 0
      },
      "last7_score": 143.018,
      "prev7_score": 10.744,
      "trend": "up",
      "trend_arrow": "🔺",
      "change_pct": 1231.1,
      "place": "Pest, Hungary"
    },
    {
      "lon": 25.25,
      "lat": 46.25,
      "type": "hotspot_cell",
      "score": 131.271,
      "count": 391,
      "cell_deg": 0.5,
      "sources": {
        "GDELT": 391,
        "GDELT_DOC": 0,
        "DIRECT_FEED": 0,
        "USGS": 0,
        "GDACS": 0
      },
      "last7_score": 103.848,
      "prev7_score": 27.423,
      "trend": "up",
      "trend_arrow": "🔺",
      "change_pct": 278.7,
      "place": "Harghita, Romania"
    },
    {
      "lon": 21.25,
      "lat": 52.25,
      "type": "hotspot_cell",
      "score": 129.392,
      "count": 263,
      "cell_deg": 0.5,
      "sources": {
        "GDELT": 263,
        "GDELT_DOC": 0,
        "DIRECT_FEED": 0,
        "USGS": 0,
        "GDACS": 0
      },
      "last7_score": 119.506,
      "prev7_score": 9.886,
      "trend": "up",
      "trend_arrow": "🔺",
      "change_pct": 1108.8,
      "place": "Warsaw, Poland"
    },
    {
      "lon": 24.25,
      "lat": 56.75,
      "type": "hotspot_cell",
      "score": 97.995,
      "count": 167,
      "cell_deg": 0.5,
      "sources": {
        "GDELT": 36,
        "GDELT_DOC": 0,
        "DIRECT_FEED": 131,
        "USGS": 0,
        "GDACS": 0
      },
      "last7_score": 95.5,
      "prev7_score": 2.495,
      "trend": "up",
      "trend_arrow": "🔺",
      "change_pct": 3727.0,
      "place": "Ķekavas novads, Latvia"
    },
    {
      "lon": 20.25,
      "lat": 47.25,
      "type": "hotspot_cell",
      "score": 75.384,
      "count": 237,
      "cell_deg": 0.5,
      "sources": {
        "GDELT": 237,
        "GDELT_DOC": 0,
        "DIRECT_FEED": 0,
        "USGS": 0,
        "GDACS": 0
      },
      "last7_score": 60.528,
      "prev7_score": 14.855,
      "trend": "up",
      "trend_arrow": "🔺",
      "change_pct": 307.4,
      "place": "Jász-Nagykun-Szolnok, Hungary"
    },
    {
      "lon": 15.25,
      "lat": 49.75,
      "type": "hotspot_cell",
      "score": 49.498,
      "count": 140,
      "cell_deg": 0.5,
      "sources": {
        "GDELT": 140,
        "GDELT_DOC": 0,
        "DIRECT_FEED": 0,
        "USGS": 0,
        "GDACS": 0
      },
      "last7_score": 39.709,
      "prev7_score": 9.789,
      "trend": "up",
      "trend_arrow": "🔺",
      "change_pct": 305.6,
      "place": "Vysočina Region, Czechia"
    }
  ]
}