{
  "generated_utc": "2026-03-06T12:59:58Z",
  "top": [
    {
      "lon": 21.25,
      "lat": 52.25,
      "type": "hotspot_cell",
      "score": 18.312,
      "count": 49,
      "cell_deg": 0.5,
      "sources": {
        "GDELT": 49,
        "USGS": 0,
        "GDACS": 0
      },
      "last7_score": 14.717,
      "prev7_score": 3.594,
      "trend": "up",
      "trend_arrow": "🔺",
      "change_pct": 309.4,
      "place": "Warsaw, Poland"
    },
    {
      "lon": 19.25,
      "lat": 47.75,
      "type": "hotspot_cell",
      "score": 17.111,
      "count": 42,
      "cell_deg": 0.5,
      "sources": {
        "GDELT": 42,
        "USGS": 0,
        "GDACS": 0
      },
      "last7_score": 14.424,
      "prev7_score": 2.687,
      "trend": "up",
      "trend_arrow": "🔺",
      "change_pct": 436.9,
      "place": "Pest, Hungary"
    },
    {
      "lon": 20.25,
      "lat": 47.25,
      "type": "hotspot_cell",
      "score": 16.364,
      "count": 43,
      "cell_deg": 0.5,
      "sources": {
        "GDELT": 43,
        "USGS": 0,
        "GDACS": 0
      },
      "last7_score": 13.658,
      "prev7_score": 2.706,
      "trend": "up",
      "trend_arrow": "🔺",
      "change_pct": 404.7,
      "place": "Jász-Nagykun-Szolnok, Hungary"
    },
    {
      "lon": 25.25,
      "lat": 46.25,
      "type": "hotspot_cell",
      "score": 16.335,
      "count": 39,
      "cell_deg": 0.5,
      "sources": {
        "GDELT": 39,
        "USGS": 0,
        "GDACS": 0
      },
      "last7_score": 14.45,
      "prev7_score": 1.885,
      "trend": "up",
      "trend_arrow": "🔺",
      "change_pct": 666.6,
      "place": "Harghita, Romania"
    },
    {
      "lon": 14.25,
      "lat": 50.25,
      "type": "hotspot_cell",
      "score": 15.665,
      "count": 41,
      "cell_deg": 0.5,
      "sources": {
        "GDELT": 41,
        "USGS": 0,
        "GDACS": 0
      },
      "last7_score": 12.872,
      "prev7_score": 2.793,
      "trend": "up",
      "trend_arrow": "🔺",
      "change_pct": 360.9,
      "place": "SO ORP Kralupy nad Vltavou, Czechia"
    },
    {
      "lon": 25.25,
      "lat": 57.25,
      "type": "hotspot_cell",
      "score": 14.571,
      "count": 34,
      "cell_deg": 0.5,
      "sources": {
        "GDELT": 34,
        "USGS": 0,
        "GDACS": 0
      },
      "last7_score": 12.342,
      "prev7_score": 2.229,
      "trend": "up",
      "trend_arrow": "🔺",
      "change_pct": 453.7,
      "place": "Cēsu novads, Latvia"
    },
    {
      "lon": 20.25,
      "lat": 52.25,
      "type": "hotspot_cell",
      "score": 14.268,
      "count": 44,
      "cell_deg": 0.5,
      "sources": {
        "GDELT": 44,
        "USGS": 0,
        "GDACS": 0
      },
      "last7_score": 11.002,
      "prev7_score": 3.266,
      "trend": "up",
      "trend_arrow": "🔺",
      "change_pct": 236.9,
      "place": "Sochaczew County, Poland"
    },
    {
      "lon": 26.25,
      "lat": 59.25,
      "type": "hotspot_cell",
      "score": 13.532,
      "count": 34,
      "cell_deg": 0.5,
      "sources": {
        "GDELT": 34,
        "USGS": 0,
        "GDACS": 0
      },
      "last7_score": 11.65,
      "prev7_score": 1.882,
      "trend": "up",
      "trend_arrow": "🔺",
      "change_pct": 519.2,
      "place": "Lääne-Viru County, Estonia"
    },
    {
      "lon": 26.25,
      "lat": 44.25,
      "type": "hotspot_cell",
      "score": 11.877,
      "count": 30,
      "cell_deg": 0.5,
      "sources": {
        "GDELT": 30,
        "USGS": 0,
        "GDACS": 0
      },
      "last7_score": 9.781,
      "prev7_score": 2.097,
      "trend": "up",
      "trend_arrow": "🔺",
      "change_pct": 366.5,
      "place": "Giurgiu, Romania"
    },
    {
      "lon": 15.25,
      "lat": 49.75,
      "type": "hotspot_cell",
      "score": 11.706,
      "count": 34,
      "cell_deg": 0.5,
      "sources": {
        "GDELT": 34,
        "USGS": 0,
        "GDACS": 0
      },
      "last7_score": 9.201,
      "prev7_score": 2.505,
      "trend": "up",
      "trend_arrow": "🔺",
      "change_pct": 267.3,
      "place": "Vysočina Region, Czechia"
    }
  ]
}