{
  "generated_utc": "2026-04-07T02:34:50Z",
  "top": [
    {
      "lon": 26.25,
      "lat": 44.25,
      "type": "hotspot_cell",
      "score": 794.097,
      "count": 1391,
      "cell_deg": 0.5,
      "sources": {
        "GDELT": 154,
        "GDELT_DOC": 1230,
        "DIRECT_FEED": 7,
        "USGS": 0,
        "GDACS": 0
      },
      "last7_score": 782.605,
      "prev7_score": 11.492,
      "trend": "up",
      "trend_arrow": "🔺",
      "change_pct": 6710.0,
      "place": "Giurgiu, Romania"
    },
    {
      "lon": 14.25,
      "lat": 50.25,
      "type": "hotspot_cell",
      "score": 639.214,
      "count": 1292,
      "cell_deg": 0.5,
      "sources": {
        "GDELT": 103,
        "GDELT_DOC": 1187,
        "DIRECT_FEED": 2,
        "USGS": 0,
        "GDACS": 0
      },
      "last7_score": 630.095,
      "prev7_score": 9.119,
      "trend": "up",
      "trend_arrow": "🔺",
      "change_pct": 6810.0,
      "place": "SO ORP Kralupy nad Vltavou, Czechia"
    },
    {
      "lon": 25.25,
      "lat": 54.75,
      "type": "hotspot_cell",
      "score": 439.217,
      "count": 872,
      "cell_deg": 0.5,
      "sources": {
        "GDELT": 73,
        "GDELT_DOC": 799,
        "DIRECT_FEED": 0,
        "USGS": 0,
        "GDACS": 0
      },
      "last7_score": 433.108,
      "prev7_score": 6.11,
      "trend": "up",
      "trend_arrow": "🔺",
      "change_pct": 6988.9,
      "place": "Vilnius County, Lithuania"
    },
    {
      "lon": 19.25,
      "lat": 47.75,
      "type": "hotspot_cell",
      "score": 221.612,
      "count": 459,
      "cell_deg": 0.5,
      "sources": {
        "GDELT": 258,
        "GDELT_DOC": 0,
        "DIRECT_FEED": 201,
        "USGS": 0,
        "GDACS": 0
      },
      "last7_score": 202.056,
      "prev7_score": 19.556,
      "trend": "up",
      "trend_arrow": "🔺",
      "change_pct": 933.2,
      "place": "Pest, Hungary"
    },
    {
      "lon": 20.25,
      "lat": 52.25,
      "type": "hotspot_cell",
      "score": 136.262,
      "count": 431,
      "cell_deg": 0.5,
      "sources": {
        "GDELT": 431,
        "GDELT_DOC": 0,
        "DIRECT_FEED": 0,
        "USGS": 0,
        "GDACS": 0
      },
      "last7_score": 96.8,
      "prev7_score": 39.462,
      "trend": "up",
      "trend_arrow": "🔺",
      "change_pct": 145.3,
      "place": "Sochaczew County, Poland"
    },
    {
      "lon": 20.25,
      "lat": 47.25,
      "type": "hotspot_cell",
      "score": 120.573,
      "count": 301,
      "cell_deg": 0.5,
      "sources": {
        "GDELT": 301,
        "GDELT_DOC": 0,
        "DIRECT_FEED": 0,
        "USGS": 0,
        "GDACS": 0
      },
      "last7_score": 96.456,
      "prev7_score": 24.117,
      "trend": "up",
      "trend_arrow": "🔺",
      "change_pct": 300.0,
      "place": "Jász-Nagykun-Szolnok, Hungary"
    },
    {
      "lon": 24.25,
      "lat": 56.75,
      "type": "hotspot_cell",
      "score": 92.353,
      "count": 164,
      "cell_deg": 0.5,
      "sources": {
        "GDELT": 35,
        "GDELT_DOC": 0,
        "DIRECT_FEED": 129,
        "USGS": 0,
        "GDACS": 0
      },
      "last7_score": 88.904,
      "prev7_score": 3.449,
      "trend": "up",
      "trend_arrow": "🔺",
      "change_pct": 2477.9,
      "place": "Ķekavas novads, Latvia"
    },
    {
      "lon": 25.25,
      "lat": 46.25,
      "type": "hotspot_cell",
      "score": 86.967,
      "count": 266,
      "cell_deg": 0.5,
      "sources": {
        "GDELT": 266,
        "GDELT_DOC": 0,
        "DIRECT_FEED": 0,
        "USGS": 0,
        "GDACS": 0
      },
      "last7_score": 65.424,
      "prev7_score": 21.543,
      "trend": "up",
      "trend_arrow": "🔺",
      "change_pct": 203.7,
      "place": "Harghita, Romania"
    },
    {
      "lon": 27.75,
      "lat": 47.25,
      "type": "hotspot_cell",
      "score": 47.207,
      "count": 87,
      "cell_deg": 0.5,
      "sources": {
        "GDELT": 0,
        "GDELT_DOC": 87,
        "DIRECT_FEED": 0,
        "USGS": 0,
        "GDACS": 0
      },
      "last7_score": 47.207,
      "prev7_score": 0.0,
      "trend": "new",
      "trend_arrow": "🆕",
      "change_pct": null,
      "place": "Iași, Romania"
    },
    {
      "lon": 21.25,
      "lat": 52.25,
      "type": "hotspot_cell",
      "score": 38.376,
      "count": 111,
      "cell_deg": 0.5,
      "sources": {
        "GDELT": 111,
        "GDELT_DOC": 0,
        "DIRECT_FEED": 0,
        "USGS": 0,
        "GDACS": 0
      },
      "last7_score": 29.906,
      "prev7_score": 8.469,
      "trend": "up",
      "trend_arrow": "🔺",
      "change_pct": 253.1,
      "place": "Warsaw, Poland"
    }
  ]
}