{
  "generated_utc": "2026-07-12T13:06:43Z",
  "top": [
    {
      "lon": 14.25,
      "lat": 50.25,
      "type": "hotspot_cell",
      "score": 733.778,
      "count": 1279,
      "cell_deg": 0.5,
      "sources": {
        "GDELT": 106,
        "GDELT_DOC": 1167,
        "DIRECT_FEED": 6,
        "USGS": 0,
        "GDACS": 0
      },
      "last7_score": 726.558,
      "prev7_score": 7.219,
      "trend": "up",
      "trend_arrow": "🔺",
      "change_pct": 9964.4,
      "place": "SO ORP Kralupy nad Vltavou, Czechia"
    },
    {
      "lon": 25.25,
      "lat": 54.75,
      "type": "hotspot_cell",
      "score": 498.647,
      "count": 816,
      "cell_deg": 0.5,
      "sources": {
        "GDELT": 74,
        "GDELT_DOC": 740,
        "DIRECT_FEED": 2,
        "USGS": 0,
        "GDACS": 0
      },
      "last7_score": 494.175,
      "prev7_score": 4.472,
      "trend": "up",
      "trend_arrow": "🔺",
      "change_pct": 10951.6,
      "place": "Vilnius County, Lithuania"
    },
    {
      "lon": 26.25,
      "lat": 44.25,
      "type": "hotspot_cell",
      "score": 416.553,
      "count": 861,
      "cell_deg": 0.5,
      "sources": {
        "GDELT": 129,
        "GDELT_DOC": 728,
        "DIRECT_FEED": 4,
        "USGS": 0,
        "GDACS": 0
      },
      "last7_score": 409.195,
      "prev7_score": 7.358,
      "trend": "up",
      "trend_arrow": "🔺",
      "change_pct": 5461.3,
      "place": "Giurgiu, Romania"
    },
    {
      "lon": 19.25,
      "lat": 47.75,
      "type": "hotspot_cell",
      "score": 160.959,
      "count": 311,
      "cell_deg": 0.5,
      "sources": {
        "GDELT": 149,
        "GDELT_DOC": 0,
        "DIRECT_FEED": 162,
        "USGS": 0,
        "GDACS": 0
      },
      "last7_score": 153.361,
      "prev7_score": 7.598,
      "trend": "up",
      "trend_arrow": "🔺",
      "change_pct": 1918.5,
      "place": "Pest, Hungary"
    },
    {
      "lon": 20.25,
      "lat": 52.25,
      "type": "hotspot_cell",
      "score": 142.979,
      "count": 496,
      "cell_deg": 0.5,
      "sources": {
        "GDELT": 496,
        "GDELT_DOC": 0,
        "DIRECT_FEED": 0,
        "USGS": 0,
        "GDACS": 0
      },
      "last7_score": 112.152,
      "prev7_score": 30.827,
      "trend": "up",
      "trend_arrow": "🔺",
      "change_pct": 263.8,
      "place": "Sochaczew County, Poland"
    },
    {
      "lon": 25.25,
      "lat": 46.25,
      "type": "hotspot_cell",
      "score": 125.742,
      "count": 364,
      "cell_deg": 0.5,
      "sources": {
        "GDELT": 364,
        "GDELT_DOC": 0,
        "DIRECT_FEED": 0,
        "USGS": 0,
        "GDACS": 0
      },
      "last7_score": 106.553,
      "prev7_score": 19.189,
      "trend": "up",
      "trend_arrow": "🔺",
      "change_pct": 455.3,
      "place": "Harghita, Romania"
    },
    {
      "lon": 24.25,
      "lat": 56.75,
      "type": "hotspot_cell",
      "score": 86.529,
      "count": 145,
      "cell_deg": 0.5,
      "sources": {
        "GDELT": 21,
        "GDELT_DOC": 0,
        "DIRECT_FEED": 124,
        "USGS": 0,
        "GDACS": 0
      },
      "last7_score": 85.016,
      "prev7_score": 1.513,
      "trend": "up",
      "trend_arrow": "🔺",
      "change_pct": 5520.5,
      "place": "Ķekavas novads, Latvia"
    },
    {
      "lon": 21.25,
      "lat": 52.25,
      "type": "hotspot_cell",
      "score": 77.777,
      "count": 253,
      "cell_deg": 0.5,
      "sources": {
        "GDELT": 253,
        "GDELT_DOC": 0,
        "DIRECT_FEED": 0,
        "USGS": 0,
        "GDACS": 0
      },
      "last7_score": 58.436,
      "prev7_score": 19.341,
      "trend": "up",
      "trend_arrow": "🔺",
      "change_pct": 202.1,
      "place": "Warsaw, Poland"
    },
    {
      "lon": 20.25,
      "lat": 47.25,
      "type": "hotspot_cell",
      "score": 61.537,
      "count": 170,
      "cell_deg": 0.5,
      "sources": {
        "GDELT": 170,
        "GDELT_DOC": 0,
        "DIRECT_FEED": 0,
        "USGS": 0,
        "GDACS": 0
      },
      "last7_score": 53.302,
      "prev7_score": 8.235,
      "trend": "up",
      "trend_arrow": "🔺",
      "change_pct": 547.3,
      "place": "Jász-Nagykun-Szolnok, Hungary"
    },
    {
      "lon": 26.25,
      "lat": 59.25,
      "type": "hotspot_cell",
      "score": 57.646,
      "count": 158,
      "cell_deg": 0.5,
      "sources": {
        "GDELT": 158,
        "GDELT_DOC": 0,
        "DIRECT_FEED": 0,
        "USGS": 0,
        "GDACS": 0
      },
      "last7_score": 48.466,
      "prev7_score": 9.18,
      "trend": "up",
      "trend_arrow": "🔺",
      "change_pct": 428.0,
      "place": "Lääne-Viru County, Estonia"
    }
  ]
}