{
  "generated_utc": "2026-04-27T02:56:10Z",
  "top": [
    {
      "lon": 26.25,
      "lat": 44.25,
      "type": "hotspot_cell",
      "score": 972.854,
      "count": 1573,
      "cell_deg": 0.5,
      "sources": {
        "GDELT": 137,
        "GDELT_DOC": 1428,
        "DIRECT_FEED": 8,
        "USGS": 0,
        "GDACS": 0
      },
      "last7_score": 961.351,
      "prev7_score": 11.503,
      "trend": "up",
      "trend_arrow": "🔺",
      "change_pct": 8257.6,
      "place": "Giurgiu, Romania"
    },
    {
      "lon": 14.25,
      "lat": 50.25,
      "type": "hotspot_cell",
      "score": 946.843,
      "count": 1709,
      "cell_deg": 0.5,
      "sources": {
        "GDELT": 182,
        "GDELT_DOC": 1525,
        "DIRECT_FEED": 2,
        "USGS": 0,
        "GDACS": 0
      },
      "last7_score": 931.855,
      "prev7_score": 14.988,
      "trend": "up",
      "trend_arrow": "🔺",
      "change_pct": 6117.3,
      "place": "SO ORP Kralupy nad Vltavou, Czechia"
    },
    {
      "lon": 25.25,
      "lat": 54.75,
      "type": "hotspot_cell",
      "score": 657.344,
      "count": 1182,
      "cell_deg": 0.5,
      "sources": {
        "GDELT": 65,
        "GDELT_DOC": 1117,
        "DIRECT_FEED": 0,
        "USGS": 0,
        "GDACS": 0
      },
      "last7_score": 651.722,
      "prev7_score": 5.622,
      "trend": "up",
      "trend_arrow": "🔺",
      "change_pct": 11492.5,
      "place": "Vilnius County, Lithuania"
    },
    {
      "lon": 19.25,
      "lat": 47.75,
      "type": "hotspot_cell",
      "score": 282.27,
      "count": 803,
      "cell_deg": 0.5,
      "sources": {
        "GDELT": 555,
        "GDELT_DOC": 0,
        "DIRECT_FEED": 248,
        "USGS": 0,
        "GDACS": 0
      },
      "last7_score": 239.399,
      "prev7_score": 42.871,
      "trend": "up",
      "trend_arrow": "🔺",
      "change_pct": 458.4,
      "place": "Pest, Hungary"
    },
    {
      "lon": 20.25,
      "lat": 47.25,
      "type": "hotspot_cell",
      "score": 210.383,
      "count": 680,
      "cell_deg": 0.5,
      "sources": {
        "GDELT": 680,
        "GDELT_DOC": 0,
        "DIRECT_FEED": 0,
        "USGS": 0,
        "GDACS": 0
      },
      "last7_score": 160.803,
      "prev7_score": 49.58,
      "trend": "up",
      "trend_arrow": "🔺",
      "change_pct": 224.3,
      "place": "Jász-Nagykun-Szolnok, Hungary"
    },
    {
      "lon": 20.25,
      "lat": 52.25,
      "type": "hotspot_cell",
      "score": 156.887,
      "count": 443,
      "cell_deg": 0.5,
      "sources": {
        "GDELT": 443,
        "GDELT_DOC": 0,
        "DIRECT_FEED": 0,
        "USGS": 0,
        "GDACS": 0
      },
      "last7_score": 126.64,
      "prev7_score": 30.247,
      "trend": "up",
      "trend_arrow": "🔺",
      "change_pct": 318.7,
      "place": "Sochaczew County, Poland"
    },
    {
      "lon": 26.75,
      "lat": 47.75,
      "type": "hotspot_cell",
      "score": 140.225,
      "count": 162,
      "cell_deg": 0.5,
      "sources": {
        "GDELT": 2,
        "GDELT_DOC": 157,
        "DIRECT_FEED": 3,
        "USGS": 0,
        "GDACS": 0
      },
      "last7_score": 139.836,
      "prev7_score": 0.389,
      "trend": "up",
      "trend_arrow": "🔺",
      "change_pct": 35876.9,
      "place": "Botoșani, Romania"
    },
    {
      "lon": 24.25,
      "lat": 56.75,
      "type": "hotspot_cell",
      "score": 99.379,
      "count": 173,
      "cell_deg": 0.5,
      "sources": {
        "GDELT": 30,
        "GDELT_DOC": 0,
        "DIRECT_FEED": 143,
        "USGS": 0,
        "GDACS": 0
      },
      "last7_score": 97.481,
      "prev7_score": 1.898,
      "trend": "up",
      "trend_arrow": "🔺",
      "change_pct": 5036.6,
      "place": "Ķekavas novads, Latvia"
    },
    {
      "lon": 22.25,
      "lat": 55.25,
      "type": "hotspot_cell",
      "score": 83.344,
      "count": 111,
      "cell_deg": 0.5,
      "sources": {
        "GDELT": 0,
        "GDELT_DOC": 110,
        "DIRECT_FEED": 1,
        "USGS": 0,
        "GDACS": 0
      },
      "last7_score": 83.344,
      "prev7_score": 0.0,
      "trend": "new",
      "trend_arrow": "🆕",
      "change_pct": null,
      "place": "Tauragės seniūnija, Lithuania"
    },
    {
      "lon": 25.25,
      "lat": 46.25,
      "type": "hotspot_cell",
      "score": 81.161,
      "count": 263,
      "cell_deg": 0.5,
      "sources": {
        "GDELT": 263,
        "GDELT_DOC": 0,
        "DIRECT_FEED": 0,
        "USGS": 0,
        "GDACS": 0
      },
      "last7_score": 62.189,
      "prev7_score": 18.972,
      "trend": "up",
      "trend_arrow": "🔺",
      "change_pct": 227.8,
      "place": "Harghita, Romania"
    }
  ]
}