{
  "generated_utc": "2026-04-11T18:51:17Z",
  "top": [
    {
      "lon": 26.25,
      "lat": 44.25,
      "type": "hotspot_cell",
      "score": 891.68,
      "count": 1464,
      "cell_deg": 0.5,
      "sources": {
        "GDELT": 158,
        "GDELT_DOC": 1300,
        "DIRECT_FEED": 6,
        "USGS": 0,
        "GDACS": 0
      },
      "last7_score": 879.074,
      "prev7_score": 12.606,
      "trend": "up",
      "trend_arrow": "🔺",
      "change_pct": 6873.3,
      "place": "Giurgiu, Romania"
    },
    {
      "lon": 14.25,
      "lat": 50.25,
      "type": "hotspot_cell",
      "score": 642.976,
      "count": 1059,
      "cell_deg": 0.5,
      "sources": {
        "GDELT": 87,
        "GDELT_DOC": 972,
        "DIRECT_FEED": 0,
        "USGS": 0,
        "GDACS": 0
      },
      "last7_score": 637.136,
      "prev7_score": 5.84,
      "trend": "up",
      "trend_arrow": "🔺",
      "change_pct": 10809.3,
      "place": "SO ORP Kralupy nad Vltavou, Czechia"
    },
    {
      "lon": 25.25,
      "lat": 54.75,
      "type": "hotspot_cell",
      "score": 562.823,
      "count": 868,
      "cell_deg": 0.5,
      "sources": {
        "GDELT": 75,
        "GDELT_DOC": 791,
        "DIRECT_FEED": 2,
        "USGS": 0,
        "GDACS": 0
      },
      "last7_score": 557.068,
      "prev7_score": 5.755,
      "trend": "up",
      "trend_arrow": "🔺",
      "change_pct": 9579.6,
      "place": "Vilnius County, Lithuania"
    },
    {
      "lon": 19.25,
      "lat": 47.75,
      "type": "hotspot_cell",
      "score": 473.759,
      "count": 818,
      "cell_deg": 0.5,
      "sources": {
        "GDELT": 572,
        "GDELT_DOC": 0,
        "DIRECT_FEED": 246,
        "USGS": 0,
        "GDACS": 0
      },
      "last7_score": 460.099,
      "prev7_score": 13.66,
      "trend": "up",
      "trend_arrow": "🔺",
      "change_pct": 3268.1,
      "place": "Pest, Hungary"
    },
    {
      "lon": 20.25,
      "lat": 47.25,
      "type": "hotspot_cell",
      "score": 194.131,
      "count": 432,
      "cell_deg": 0.5,
      "sources": {
        "GDELT": 432,
        "GDELT_DOC": 0,
        "DIRECT_FEED": 0,
        "USGS": 0,
        "GDACS": 0
      },
      "last7_score": 177.559,
      "prev7_score": 16.572,
      "trend": "up",
      "trend_arrow": "🔺",
      "change_pct": 971.4,
      "place": "Jász-Nagykun-Szolnok, Hungary"
    },
    {
      "lon": 20.25,
      "lat": 52.25,
      "type": "hotspot_cell",
      "score": 142.954,
      "count": 420,
      "cell_deg": 0.5,
      "sources": {
        "GDELT": 420,
        "GDELT_DOC": 0,
        "DIRECT_FEED": 0,
        "USGS": 0,
        "GDACS": 0
      },
      "last7_score": 114.559,
      "prev7_score": 28.396,
      "trend": "up",
      "trend_arrow": "🔺",
      "change_pct": 303.4,
      "place": "Sochaczew County, Poland"
    },
    {
      "lon": 24.25,
      "lat": 56.75,
      "type": "hotspot_cell",
      "score": 104.324,
      "count": 160,
      "cell_deg": 0.5,
      "sources": {
        "GDELT": 28,
        "GDELT_DOC": 0,
        "DIRECT_FEED": 132,
        "USGS": 0,
        "GDACS": 0
      },
      "last7_score": 102.586,
      "prev7_score": 1.738,
      "trend": "up",
      "trend_arrow": "🔺",
      "change_pct": 5804.2,
      "place": "Ķekavas novads, Latvia"
    },
    {
      "lon": 25.25,
      "lat": 46.25,
      "type": "hotspot_cell",
      "score": 81.838,
      "count": 258,
      "cell_deg": 0.5,
      "sources": {
        "GDELT": 258,
        "GDELT_DOC": 0,
        "DIRECT_FEED": 0,
        "USGS": 0,
        "GDACS": 0
      },
      "last7_score": 65.75,
      "prev7_score": 16.088,
      "trend": "up",
      "trend_arrow": "🔺",
      "change_pct": 308.7,
      "place": "Harghita, Romania"
    },
    {
      "lon": 24.25,
      "lat": 56.25,
      "type": "hotspot_cell",
      "score": 51.736,
      "count": 116,
      "cell_deg": 0.5,
      "sources": {
        "GDELT": 116,
        "GDELT_DOC": 0,
        "DIRECT_FEED": 0,
        "USGS": 0,
        "GDACS": 0
      },
      "last7_score": 46.683,
      "prev7_score": 5.053,
      "trend": "up",
      "trend_arrow": "🔺",
      "change_pct": 823.9,
      "place": "Namišių seniūnija, Lithuania"
    },
    {
      "lon": 15.25,
      "lat": 49.75,
      "type": "hotspot_cell",
      "score": 47.416,
      "count": 124,
      "cell_deg": 0.5,
      "sources": {
        "GDELT": 124,
        "GDELT_DOC": 0,
        "DIRECT_FEED": 0,
        "USGS": 0,
        "GDACS": 0
      },
      "last7_score": 40.526,
      "prev7_score": 6.89,
      "trend": "up",
      "trend_arrow": "🔺",
      "change_pct": 488.2,
      "place": "Vysočina Region, Czechia"
    }
  ]
}