{
  "generated_utc": "2026-07-05T02:16:39Z",
  "top": [
    {
      "lon": 20.25,
      "lat": 52.25,
      "type": "hotspot_cell",
      "score": 192.795,
      "count": 540,
      "cell_deg": 0.5,
      "sources": {
        "GDELT": 540,
        "GDELT_DOC": 0,
        "DIRECT_FEED": 0,
        "USGS": 0,
        "GDACS": 0
      },
      "last7_score": 154.826,
      "prev7_score": 37.969,
      "trend": "up",
      "trend_arrow": "🔺",
      "change_pct": 307.8,
      "place": "Sochaczew County, Poland"
    },
    {
      "lon": 19.25,
      "lat": 47.75,
      "type": "hotspot_cell",
      "score": 169.335,
      "count": 360,
      "cell_deg": 0.5,
      "sources": {
        "GDELT": 181,
        "GDELT_DOC": 0,
        "DIRECT_FEED": 179,
        "USGS": 0,
        "GDACS": 0
      },
      "last7_score": 154.599,
      "prev7_score": 14.735,
      "trend": "up",
      "trend_arrow": "🔺",
      "change_pct": 949.2,
      "place": "Pest, Hungary"
    },
    {
      "lon": 26.25,
      "lat": 44.25,
      "type": "hotspot_cell",
      "score": 157.757,
      "count": 444,
      "cell_deg": 0.5,
      "sources": {
        "GDELT": 142,
        "GDELT_DOC": 296,
        "DIRECT_FEED": 6,
        "USGS": 0,
        "GDACS": 0
      },
      "last7_score": 149.171,
      "prev7_score": 8.586,
      "trend": "up",
      "trend_arrow": "🔺",
      "change_pct": 1637.3,
      "place": "Giurgiu, Romania"
    },
    {
      "lon": 14.25,
      "lat": 50.25,
      "type": "hotspot_cell",
      "score": 139.368,
      "count": 360,
      "cell_deg": 0.5,
      "sources": {
        "GDELT": 127,
        "GDELT_DOC": 232,
        "DIRECT_FEED": 1,
        "USGS": 0,
        "GDACS": 0
      },
      "last7_score": 130.399,
      "prev7_score": 8.969,
      "trend": "up",
      "trend_arrow": "🔺",
      "change_pct": 1353.9,
      "place": "SO ORP Kralupy nad Vltavou, Czechia"
    },
    {
      "lon": 25.25,
      "lat": 54.75,
      "type": "hotspot_cell",
      "score": 134.0,
      "count": 347,
      "cell_deg": 0.5,
      "sources": {
        "GDELT": 68,
        "GDELT_DOC": 279,
        "DIRECT_FEED": 0,
        "USGS": 0,
        "GDACS": 0
      },
      "last7_score": 130.485,
      "prev7_score": 3.515,
      "trend": "up",
      "trend_arrow": "🔺",
      "change_pct": 3611.8,
      "place": "Vilnius County, Lithuania"
    },
    {
      "lon": 25.25,
      "lat": 46.25,
      "type": "hotspot_cell",
      "score": 121.225,
      "count": 349,
      "cell_deg": 0.5,
      "sources": {
        "GDELT": 349,
        "GDELT_DOC": 0,
        "DIRECT_FEED": 0,
        "USGS": 0,
        "GDACS": 0
      },
      "last7_score": 98.02,
      "prev7_score": 23.205,
      "trend": "up",
      "trend_arrow": "🔺",
      "change_pct": 322.4,
      "place": "Harghita, Romania"
    },
    {
      "lon": 21.25,
      "lat": 52.25,
      "type": "hotspot_cell",
      "score": 117.192,
      "count": 312,
      "cell_deg": 0.5,
      "sources": {
        "GDELT": 312,
        "GDELT_DOC": 0,
        "DIRECT_FEED": 0,
        "USGS": 0,
        "GDACS": 0
      },
      "last7_score": 96.234,
      "prev7_score": 20.958,
      "trend": "up",
      "trend_arrow": "🔺",
      "change_pct": 359.2,
      "place": "Warsaw, Poland"
    },
    {
      "lon": 24.25,
      "lat": 56.75,
      "type": "hotspot_cell",
      "score": 107.853,
      "count": 171,
      "cell_deg": 0.5,
      "sources": {
        "GDELT": 24,
        "GDELT_DOC": 0,
        "DIRECT_FEED": 147,
        "USGS": 0,
        "GDACS": 0
      },
      "last7_score": 106.589,
      "prev7_score": 1.264,
      "trend": "up",
      "trend_arrow": "🔺",
      "change_pct": 8330.0,
      "place": "Ķekavas novads, Latvia"
    },
    {
      "lon": 15.25,
      "lat": 49.75,
      "type": "hotspot_cell",
      "score": 62.533,
      "count": 164,
      "cell_deg": 0.5,
      "sources": {
        "GDELT": 164,
        "GDELT_DOC": 0,
        "DIRECT_FEED": 0,
        "USGS": 0,
        "GDACS": 0
      },
      "last7_score": 51.064,
      "prev7_score": 11.469,
      "trend": "up",
      "trend_arrow": "🔺",
      "change_pct": 345.2,
      "place": "Vysočina Region, Czechia"
    },
    {
      "lon": 20.25,
      "lat": 47.25,
      "type": "hotspot_cell",
      "score": 53.661,
      "count": 174,
      "cell_deg": 0.5,
      "sources": {
        "GDELT": 174,
        "GDELT_DOC": 0,
        "DIRECT_FEED": 0,
        "USGS": 0,
        "GDACS": 0
      },
      "last7_score": 40.849,
      "prev7_score": 12.812,
      "trend": "up",
      "trend_arrow": "🔺",
      "change_pct": 218.8,
      "place": "Jász-Nagykun-Szolnok, Hungary"
    }
  ]
}