{
  "generated_utc": "2026-05-03T13:17:22Z",
  "top": [
    {
      "lon": 14.25,
      "lat": 50.25,
      "type": "hotspot_cell",
      "score": 879.995,
      "count": 1470,
      "cell_deg": 0.5,
      "sources": {
        "GDELT": 184,
        "GDELT_DOC": 1283,
        "DIRECT_FEED": 3,
        "USGS": 0,
        "GDACS": 0
      },
      "last7_score": 869.519,
      "prev7_score": 10.476,
      "trend": "up",
      "trend_arrow": "🔺",
      "change_pct": 8200.0,
      "place": "SO ORP Kralupy nad Vltavou, Czechia"
    },
    {
      "lon": 26.25,
      "lat": 44.25,
      "type": "hotspot_cell",
      "score": 798.412,
      "count": 1385,
      "cell_deg": 0.5,
      "sources": {
        "GDELT": 150,
        "GDELT_DOC": 1233,
        "DIRECT_FEED": 2,
        "USGS": 0,
        "GDACS": 0
      },
      "last7_score": 789.863,
      "prev7_score": 8.55,
      "trend": "up",
      "trend_arrow": "🔺",
      "change_pct": 9138.4,
      "place": "Giurgiu, Romania"
    },
    {
      "lon": 25.25,
      "lat": 54.75,
      "type": "hotspot_cell",
      "score": 656.132,
      "count": 1065,
      "cell_deg": 0.5,
      "sources": {
        "GDELT": 66,
        "GDELT_DOC": 999,
        "DIRECT_FEED": 0,
        "USGS": 0,
        "GDACS": 0
      },
      "last7_score": 652.622,
      "prev7_score": 3.51,
      "trend": "up",
      "trend_arrow": "🔺",
      "change_pct": 18493.1,
      "place": "Vilnius County, Lithuania"
    },
    {
      "lon": 19.25,
      "lat": 47.75,
      "type": "hotspot_cell",
      "score": 191.088,
      "count": 528,
      "cell_deg": 0.5,
      "sources": {
        "GDELT": 341,
        "GDELT_DOC": 0,
        "DIRECT_FEED": 187,
        "USGS": 0,
        "GDACS": 0
      },
      "last7_score": 167.797,
      "prev7_score": 23.292,
      "trend": "up",
      "trend_arrow": "🔺",
      "change_pct": 620.4,
      "place": "Pest, Hungary"
    },
    {
      "lon": 20.25,
      "lat": 52.25,
      "type": "hotspot_cell",
      "score": 173.182,
      "count": 482,
      "cell_deg": 0.5,
      "sources": {
        "GDELT": 482,
        "GDELT_DOC": 0,
        "DIRECT_FEED": 0,
        "USGS": 0,
        "GDACS": 0
      },
      "last7_score": 143.373,
      "prev7_score": 29.809,
      "trend": "up",
      "trend_arrow": "🔺",
      "change_pct": 381.0,
      "place": "Sochaczew County, Poland"
    },
    {
      "lon": 25.25,
      "lat": 46.25,
      "type": "hotspot_cell",
      "score": 126.645,
      "count": 331,
      "cell_deg": 0.5,
      "sources": {
        "GDELT": 331,
        "GDELT_DOC": 0,
        "DIRECT_FEED": 0,
        "USGS": 0,
        "GDACS": 0
      },
      "last7_score": 111.069,
      "prev7_score": 15.576,
      "trend": "up",
      "trend_arrow": "🔺",
      "change_pct": 613.1,
      "place": "Harghita, Romania"
    },
    {
      "lon": 20.25,
      "lat": 47.25,
      "type": "hotspot_cell",
      "score": 118.105,
      "count": 492,
      "cell_deg": 0.5,
      "sources": {
        "GDELT": 492,
        "GDELT_DOC": 0,
        "DIRECT_FEED": 0,
        "USGS": 0,
        "GDACS": 0
      },
      "last7_score": 79.541,
      "prev7_score": 38.564,
      "trend": "up",
      "trend_arrow": "🔺",
      "change_pct": 106.3,
      "place": "Jász-Nagykun-Szolnok, Hungary"
    },
    {
      "lon": 24.25,
      "lat": 56.75,
      "type": "hotspot_cell",
      "score": 90.414,
      "count": 155,
      "cell_deg": 0.5,
      "sources": {
        "GDELT": 24,
        "GDELT_DOC": 0,
        "DIRECT_FEED": 131,
        "USGS": 0,
        "GDACS": 0
      },
      "last7_score": 88.825,
      "prev7_score": 1.589,
      "trend": "up",
      "trend_arrow": "🔺",
      "change_pct": 5490.7,
      "place": "Ķekavas novads, Latvia"
    },
    {
      "lon": 15.25,
      "lat": 49.75,
      "type": "hotspot_cell",
      "score": 77.115,
      "count": 209,
      "cell_deg": 0.5,
      "sources": {
        "GDELT": 209,
        "GDELT_DOC": 0,
        "DIRECT_FEED": 0,
        "USGS": 0,
        "GDACS": 0
      },
      "last7_score": 67.386,
      "prev7_score": 9.729,
      "trend": "up",
      "trend_arrow": "🔺",
      "change_pct": 592.6,
      "place": "Vysočina Region, Czechia"
    },
    {
      "lon": 21.25,
      "lat": 52.25,
      "type": "hotspot_cell",
      "score": 51.19,
      "count": 160,
      "cell_deg": 0.5,
      "sources": {
        "GDELT": 160,
        "GDELT_DOC": 0,
        "DIRECT_FEED": 0,
        "USGS": 0,
        "GDACS": 0
      },
      "last7_score": 41.932,
      "prev7_score": 9.258,
      "trend": "up",
      "trend_arrow": "🔺",
      "change_pct": 352.9,
      "place": "Warsaw, Poland"
    }
  ]
}