{
  "generated_utc": "2026-07-20T19:35:03Z",
  "top": [
    {
      "lon": 14.25,
      "lat": 50.25,
      "type": "hotspot_cell",
      "score": 572.52,
      "count": 1035,
      "cell_deg": 0.5,
      "sources": {
        "GDELT": 103,
        "GDELT_DOC": 929,
        "DIRECT_FEED": 3,
        "USGS": 0,
        "GDACS": 0
      },
      "last7_score": 567.813,
      "prev7_score": 4.706,
      "trend": "up",
      "trend_arrow": "🔺",
      "change_pct": 11965.0,
      "place": "SO ORP Kralupy nad Vltavou, Czechia"
    },
    {
      "lon": 26.25,
      "lat": 44.25,
      "type": "hotspot_cell",
      "score": 537.258,
      "count": 901,
      "cell_deg": 0.5,
      "sources": {
        "GDELT": 123,
        "GDELT_DOC": 774,
        "DIRECT_FEED": 4,
        "USGS": 0,
        "GDACS": 0
      },
      "last7_score": 531.898,
      "prev7_score": 5.36,
      "trend": "up",
      "trend_arrow": "🔺",
      "change_pct": 9823.3,
      "place": "Giurgiu, Romania"
    },
    {
      "lon": 25.25,
      "lat": 54.75,
      "type": "hotspot_cell",
      "score": 477.807,
      "count": 784,
      "cell_deg": 0.5,
      "sources": {
        "GDELT": 81,
        "GDELT_DOC": 703,
        "DIRECT_FEED": 0,
        "USGS": 0,
        "GDACS": 0
      },
      "last7_score": 472.491,
      "prev7_score": 5.316,
      "trend": "up",
      "trend_arrow": "🔺",
      "change_pct": 8788.3,
      "place": "Vilnius County, Lithuania"
    },
    {
      "lon": 25.25,
      "lat": 46.25,
      "type": "hotspot_cell",
      "score": 192.235,
      "count": 451,
      "cell_deg": 0.5,
      "sources": {
        "GDELT": 451,
        "GDELT_DOC": 0,
        "DIRECT_FEED": 0,
        "USGS": 0,
        "GDACS": 0
      },
      "last7_score": 170.367,
      "prev7_score": 21.868,
      "trend": "up",
      "trend_arrow": "🔺",
      "change_pct": 679.1,
      "place": "Harghita, Romania"
    },
    {
      "lon": 19.25,
      "lat": 47.75,
      "type": "hotspot_cell",
      "score": 181.909,
      "count": 369,
      "cell_deg": 0.5,
      "sources": {
        "GDELT": 183,
        "GDELT_DOC": 0,
        "DIRECT_FEED": 186,
        "USGS": 0,
        "GDACS": 0
      },
      "last7_score": 169.8,
      "prev7_score": 12.109,
      "trend": "up",
      "trend_arrow": "🔺",
      "change_pct": 1302.3,
      "place": "Pest, Hungary"
    },
    {
      "lon": 20.25,
      "lat": 52.25,
      "type": "hotspot_cell",
      "score": 143.731,
      "count": 459,
      "cell_deg": 0.5,
      "sources": {
        "GDELT": 459,
        "GDELT_DOC": 0,
        "DIRECT_FEED": 0,
        "USGS": 0,
        "GDACS": 0
      },
      "last7_score": 115.588,
      "prev7_score": 28.143,
      "trend": "up",
      "trend_arrow": "🔺",
      "change_pct": 310.7,
      "place": "Sochaczew County, Poland"
    },
    {
      "lon": 24.25,
      "lat": 56.75,
      "type": "hotspot_cell",
      "score": 106.11,
      "count": 157,
      "cell_deg": 0.5,
      "sources": {
        "GDELT": 21,
        "GDELT_DOC": 0,
        "DIRECT_FEED": 136,
        "USGS": 0,
        "GDACS": 0
      },
      "last7_score": 105.184,
      "prev7_score": 0.926,
      "trend": "up",
      "trend_arrow": "🔺",
      "change_pct": 11258.2,
      "place": "Ķekavas novads, Latvia"
    },
    {
      "lon": 20.25,
      "lat": 47.25,
      "type": "hotspot_cell",
      "score": 68.794,
      "count": 207,
      "cell_deg": 0.5,
      "sources": {
        "GDELT": 207,
        "GDELT_DOC": 0,
        "DIRECT_FEED": 0,
        "USGS": 0,
        "GDACS": 0
      },
      "last7_score": 56.873,
      "prev7_score": 11.92,
      "trend": "up",
      "trend_arrow": "🔺",
      "change_pct": 377.1,
      "place": "Jász-Nagykun-Szolnok, Hungary"
    },
    {
      "lon": 21.25,
      "lat": 52.25,
      "type": "hotspot_cell",
      "score": 64.401,
      "count": 219,
      "cell_deg": 0.5,
      "sources": {
        "GDELT": 219,
        "GDELT_DOC": 0,
        "DIRECT_FEED": 0,
        "USGS": 0,
        "GDACS": 0
      },
      "last7_score": 51.762,
      "prev7_score": 12.64,
      "trend": "up",
      "trend_arrow": "🔺",
      "change_pct": 309.5,
      "place": "Warsaw, Poland"
    },
    {
      "lon": 15.25,
      "lat": 49.75,
      "type": "hotspot_cell",
      "score": 48.489,
      "count": 156,
      "cell_deg": 0.5,
      "sources": {
        "GDELT": 156,
        "GDELT_DOC": 0,
        "DIRECT_FEED": 0,
        "USGS": 0,
        "GDACS": 0
      },
      "last7_score": 38.685,
      "prev7_score": 9.804,
      "trend": "up",
      "trend_arrow": "🔺",
      "change_pct": 294.6,
      "place": "Vysočina Region, Czechia"
    }
  ]
}