{
  "generated_utc": "2026-07-14T07:56:39Z",
  "top": [
    {
      "lon": 14.25,
      "lat": 50.25,
      "type": "hotspot_cell",
      "score": 730.529,
      "count": 1344,
      "cell_deg": 0.5,
      "sources": {
        "GDELT": 88,
        "GDELT_DOC": 1250,
        "DIRECT_FEED": 6,
        "USGS": 0,
        "GDACS": 0
      },
      "last7_score": 723.447,
      "prev7_score": 7.082,
      "trend": "up",
      "trend_arrow": "🔺",
      "change_pct": 10115.1,
      "place": "SO ORP Kralupy nad Vltavou, Czechia"
    },
    {
      "lon": 25.25,
      "lat": 54.75,
      "type": "hotspot_cell",
      "score": 473.575,
      "count": 887,
      "cell_deg": 0.5,
      "sources": {
        "GDELT": 72,
        "GDELT_DOC": 814,
        "DIRECT_FEED": 1,
        "USGS": 0,
        "GDACS": 0
      },
      "last7_score": 467.561,
      "prev7_score": 6.013,
      "trend": "up",
      "trend_arrow": "🔺",
      "change_pct": 7675.4,
      "place": "Vilnius County, Lithuania"
    },
    {
      "lon": 26.25,
      "lat": 44.25,
      "type": "hotspot_cell",
      "score": 469.375,
      "count": 819,
      "cell_deg": 0.5,
      "sources": {
        "GDELT": 105,
        "GDELT_DOC": 710,
        "DIRECT_FEED": 4,
        "USGS": 0,
        "GDACS": 0
      },
      "last7_score": 462.19,
      "prev7_score": 7.186,
      "trend": "up",
      "trend_arrow": "🔺",
      "change_pct": 6332.1,
      "place": "Giurgiu, Romania"
    },
    {
      "lon": 19.25,
      "lat": 47.75,
      "type": "hotspot_cell",
      "score": 178.767,
      "count": 329,
      "cell_deg": 0.5,
      "sources": {
        "GDELT": 151,
        "GDELT_DOC": 0,
        "DIRECT_FEED": 178,
        "USGS": 0,
        "GDACS": 0
      },
      "last7_score": 169.961,
      "prev7_score": 8.806,
      "trend": "up",
      "trend_arrow": "🔺",
      "change_pct": 1830.1,
      "place": "Pest, Hungary"
    },
    {
      "lon": 20.25,
      "lat": 52.25,
      "type": "hotspot_cell",
      "score": 163.455,
      "count": 480,
      "cell_deg": 0.5,
      "sources": {
        "GDELT": 480,
        "GDELT_DOC": 0,
        "DIRECT_FEED": 0,
        "USGS": 0,
        "GDACS": 0
      },
      "last7_score": 123.43,
      "prev7_score": 40.025,
      "trend": "up",
      "trend_arrow": "🔺",
      "change_pct": 208.4,
      "place": "Sochaczew County, Poland"
    },
    {
      "lon": 25.25,
      "lat": 46.25,
      "type": "hotspot_cell",
      "score": 130.28,
      "count": 350,
      "cell_deg": 0.5,
      "sources": {
        "GDELT": 350,
        "GDELT_DOC": 0,
        "DIRECT_FEED": 0,
        "USGS": 0,
        "GDACS": 0
      },
      "last7_score": 103.901,
      "prev7_score": 26.379,
      "trend": "up",
      "trend_arrow": "🔺",
      "change_pct": 293.9,
      "place": "Harghita, Romania"
    },
    {
      "lon": 24.25,
      "lat": 56.75,
      "type": "hotspot_cell",
      "score": 106.057,
      "count": 156,
      "cell_deg": 0.5,
      "sources": {
        "GDELT": 18,
        "GDELT_DOC": 0,
        "DIRECT_FEED": 138,
        "USGS": 0,
        "GDACS": 0
      },
      "last7_score": 104.127,
      "prev7_score": 1.93,
      "trend": "up",
      "trend_arrow": "🔺",
      "change_pct": 5294.3,
      "place": "Ķekavas novads, Latvia"
    },
    {
      "lon": 21.25,
      "lat": 52.25,
      "type": "hotspot_cell",
      "score": 80.04,
      "count": 239,
      "cell_deg": 0.5,
      "sources": {
        "GDELT": 239,
        "GDELT_DOC": 0,
        "DIRECT_FEED": 0,
        "USGS": 0,
        "GDACS": 0
      },
      "last7_score": 61.107,
      "prev7_score": 18.932,
      "trend": "up",
      "trend_arrow": "🔺",
      "change_pct": 222.8,
      "place": "Warsaw, Poland"
    },
    {
      "lon": 20.25,
      "lat": 47.25,
      "type": "hotspot_cell",
      "score": 67.718,
      "count": 176,
      "cell_deg": 0.5,
      "sources": {
        "GDELT": 176,
        "GDELT_DOC": 0,
        "DIRECT_FEED": 0,
        "USGS": 0,
        "GDACS": 0
      },
      "last7_score": 54.293,
      "prev7_score": 13.425,
      "trend": "up",
      "trend_arrow": "🔺",
      "change_pct": 304.4,
      "place": "Jász-Nagykun-Szolnok, Hungary"
    },
    {
      "lon": 26.25,
      "lat": 59.25,
      "type": "hotspot_cell",
      "score": 59.975,
      "count": 163,
      "cell_deg": 0.5,
      "sources": {
        "GDELT": 163,
        "GDELT_DOC": 0,
        "DIRECT_FEED": 0,
        "USGS": 0,
        "GDACS": 0
      },
      "last7_score": 48.471,
      "prev7_score": 11.504,
      "trend": "up",
      "trend_arrow": "🔺",
      "change_pct": 321.3,
      "place": "Lääne-Viru County, Estonia"
    }
  ]
}