{
  "generated_utc": "2026-04-09T07:26:47Z",
  "top": [
    {
      "lon": 26.25,
      "lat": 44.25,
      "type": "hotspot_cell",
      "score": 855.766,
      "count": 1357,
      "cell_deg": 0.5,
      "sources": {
        "GDELT": 153,
        "GDELT_DOC": 1197,
        "DIRECT_FEED": 7,
        "USGS": 0,
        "GDACS": 0
      },
      "last7_score": 840.43,
      "prev7_score": 15.337,
      "trend": "up",
      "trend_arrow": "🔺",
      "change_pct": 5379.9,
      "place": "Giurgiu, Romania"
    },
    {
      "lon": 14.25,
      "lat": 50.25,
      "type": "hotspot_cell",
      "score": 645.899,
      "count": 1048,
      "cell_deg": 0.5,
      "sources": {
        "GDELT": 96,
        "GDELT_DOC": 951,
        "DIRECT_FEED": 1,
        "USGS": 0,
        "GDACS": 0
      },
      "last7_score": 637.556,
      "prev7_score": 8.342,
      "trend": "up",
      "trend_arrow": "🔺",
      "change_pct": 7542.4,
      "place": "SO ORP Kralupy nad Vltavou, Czechia"
    },
    {
      "lon": 25.25,
      "lat": 54.75,
      "type": "hotspot_cell",
      "score": 518.849,
      "count": 814,
      "cell_deg": 0.5,
      "sources": {
        "GDELT": 78,
        "GDELT_DOC": 736,
        "DIRECT_FEED": 0,
        "USGS": 0,
        "GDACS": 0
      },
      "last7_score": 511.381,
      "prev7_score": 7.469,
      "trend": "up",
      "trend_arrow": "🔺",
      "change_pct": 6747.1,
      "place": "Vilnius County, Lithuania"
    },
    {
      "lon": 19.25,
      "lat": 47.75,
      "type": "hotspot_cell",
      "score": 473.176,
      "count": 691,
      "cell_deg": 0.5,
      "sources": {
        "GDELT": 464,
        "GDELT_DOC": 0,
        "DIRECT_FEED": 227,
        "USGS": 0,
        "GDACS": 0
      },
      "last7_score": 456.247,
      "prev7_score": 16.929,
      "trend": "up",
      "trend_arrow": "🔺",
      "change_pct": 2595.1,
      "place": "Pest, Hungary"
    },
    {
      "lon": 20.25,
      "lat": 47.25,
      "type": "hotspot_cell",
      "score": 179.086,
      "count": 356,
      "cell_deg": 0.5,
      "sources": {
        "GDELT": 356,
        "GDELT_DOC": 0,
        "DIRECT_FEED": 0,
        "USGS": 0,
        "GDACS": 0
      },
      "last7_score": 155.976,
      "prev7_score": 23.109,
      "trend": "up",
      "trend_arrow": "🔺",
      "change_pct": 574.9,
      "place": "Jász-Nagykun-Szolnok, Hungary"
    },
    {
      "lon": 20.25,
      "lat": 52.25,
      "type": "hotspot_cell",
      "score": 137.384,
      "count": 424,
      "cell_deg": 0.5,
      "sources": {
        "GDELT": 424,
        "GDELT_DOC": 0,
        "DIRECT_FEED": 0,
        "USGS": 0,
        "GDACS": 0
      },
      "last7_score": 98.511,
      "prev7_score": 38.873,
      "trend": "up",
      "trend_arrow": "🔺",
      "change_pct": 153.4,
      "place": "Sochaczew County, Poland"
    },
    {
      "lon": 24.25,
      "lat": 56.75,
      "type": "hotspot_cell",
      "score": 107.048,
      "count": 153,
      "cell_deg": 0.5,
      "sources": {
        "GDELT": 24,
        "GDELT_DOC": 0,
        "DIRECT_FEED": 129,
        "USGS": 0,
        "GDACS": 0
      },
      "last7_score": 104.092,
      "prev7_score": 2.956,
      "trend": "up",
      "trend_arrow": "🔺",
      "change_pct": 3421.5,
      "place": "Ķekavas novads, Latvia"
    },
    {
      "lon": 25.25,
      "lat": 46.25,
      "type": "hotspot_cell",
      "score": 102.973,
      "count": 255,
      "cell_deg": 0.5,
      "sources": {
        "GDELT": 255,
        "GDELT_DOC": 0,
        "DIRECT_FEED": 0,
        "USGS": 0,
        "GDACS": 0
      },
      "last7_score": 81.159,
      "prev7_score": 21.815,
      "trend": "up",
      "trend_arrow": "🔺",
      "change_pct": 272.0,
      "place": "Harghita, Romania"
    },
    {
      "lon": 15.25,
      "lat": 49.75,
      "type": "hotspot_cell",
      "score": 45.664,
      "count": 117,
      "cell_deg": 0.5,
      "sources": {
        "GDELT": 117,
        "GDELT_DOC": 0,
        "DIRECT_FEED": 0,
        "USGS": 0,
        "GDACS": 0
      },
      "last7_score": 35.833,
      "prev7_score": 9.831,
      "trend": "up",
      "trend_arrow": "🔺",
      "change_pct": 264.5,
      "place": "Vysočina Region, Czechia"
    },
    {
      "lon": 21.25,
      "lat": 52.25,
      "type": "hotspot_cell",
      "score": 41.859,
      "count": 112,
      "cell_deg": 0.5,
      "sources": {
        "GDELT": 112,
        "GDELT_DOC": 0,
        "DIRECT_FEED": 0,
        "USGS": 0,
        "GDACS": 0
      },
      "last7_score": 31.671,
      "prev7_score": 10.188,
      "trend": "up",
      "trend_arrow": "🔺",
      "change_pct": 210.9,
      "place": "Warsaw, Poland"
    }
  ]
}