{
  "generated_utc": "2026-06-01T17:26:57Z",
  "top": [
    {
      "lon": 25.25,
      "lat": 54.75,
      "type": "hotspot_cell",
      "score": 728.246,
      "count": 1219,
      "cell_deg": 0.5,
      "sources": {
        "GDELT": 110,
        "GDELT_DOC": 1109,
        "DIRECT_FEED": 0,
        "USGS": 0,
        "GDACS": 0
      },
      "last7_score": 720.564,
      "prev7_score": 7.682,
      "trend": "up",
      "trend_arrow": "🔺",
      "change_pct": 9279.9,
      "place": "Vilnius County, Lithuania"
    },
    {
      "lon": 14.25,
      "lat": 50.25,
      "type": "hotspot_cell",
      "score": 693.54,
      "count": 1315,
      "cell_deg": 0.5,
      "sources": {
        "GDELT": 155,
        "GDELT_DOC": 1149,
        "DIRECT_FEED": 11,
        "USGS": 0,
        "GDACS": 0
      },
      "last7_score": 683.443,
      "prev7_score": 10.097,
      "trend": "up",
      "trend_arrow": "🔺",
      "change_pct": 6668.5,
      "place": "SO ORP Kralupy nad Vltavou, Czechia"
    },
    {
      "lon": 26.25,
      "lat": 44.25,
      "type": "hotspot_cell",
      "score": 605.384,
      "count": 1151,
      "cell_deg": 0.5,
      "sources": {
        "GDELT": 216,
        "GDELT_DOC": 924,
        "DIRECT_FEED": 11,
        "USGS": 0,
        "GDACS": 0
      },
      "last7_score": 599.211,
      "prev7_score": 6.173,
      "trend": "up",
      "trend_arrow": "🔺",
      "change_pct": 9607.4,
      "place": "Giurgiu, Romania"
    },
    {
      "lon": 19.25,
      "lat": 47.75,
      "type": "hotspot_cell",
      "score": 231.425,
      "count": 445,
      "cell_deg": 0.5,
      "sources": {
        "GDELT": 232,
        "GDELT_DOC": 0,
        "DIRECT_FEED": 213,
        "USGS": 0,
        "GDACS": 0
      },
      "last7_score": 221.523,
      "prev7_score": 9.902,
      "trend": "up",
      "trend_arrow": "🔺",
      "change_pct": 2137.3,
      "place": "Pest, Hungary"
    },
    {
      "lon": 20.25,
      "lat": 52.25,
      "type": "hotspot_cell",
      "score": 228.242,
      "count": 787,
      "cell_deg": 0.5,
      "sources": {
        "GDELT": 787,
        "GDELT_DOC": 0,
        "DIRECT_FEED": 0,
        "USGS": 0,
        "GDACS": 0
      },
      "last7_score": 170.421,
      "prev7_score": 57.821,
      "trend": "up",
      "trend_arrow": "🔺",
      "change_pct": 194.7,
      "place": "Sochaczew County, Poland"
    },
    {
      "lon": 25.25,
      "lat": 46.25,
      "type": "hotspot_cell",
      "score": 190.227,
      "count": 458,
      "cell_deg": 0.5,
      "sources": {
        "GDELT": 458,
        "GDELT_DOC": 0,
        "DIRECT_FEED": 0,
        "USGS": 0,
        "GDACS": 0
      },
      "last7_score": 166.917,
      "prev7_score": 23.31,
      "trend": "up",
      "trend_arrow": "🔺",
      "change_pct": 616.1,
      "place": "Harghita, Romania"
    },
    {
      "lon": 24.25,
      "lat": 56.75,
      "type": "hotspot_cell",
      "score": 117.42,
      "count": 193,
      "cell_deg": 0.5,
      "sources": {
        "GDELT": 54,
        "GDELT_DOC": 0,
        "DIRECT_FEED": 139,
        "USGS": 0,
        "GDACS": 0
      },
      "last7_score": 114.517,
      "prev7_score": 2.903,
      "trend": "up",
      "trend_arrow": "🔺",
      "change_pct": 3844.8,
      "place": "Ķekavas novads, Latvia"
    },
    {
      "lon": 20.25,
      "lat": 47.25,
      "type": "hotspot_cell",
      "score": 102.284,
      "count": 269,
      "cell_deg": 0.5,
      "sources": {
        "GDELT": 269,
        "GDELT_DOC": 0,
        "DIRECT_FEED": 0,
        "USGS": 0,
        "GDACS": 0
      },
      "last7_score": 88.325,
      "prev7_score": 13.959,
      "trend": "up",
      "trend_arrow": "🔺",
      "change_pct": 532.8,
      "place": "Jász-Nagykun-Szolnok, Hungary"
    },
    {
      "lon": 21.25,
      "lat": 52.25,
      "type": "hotspot_cell",
      "score": 86.855,
      "count": 278,
      "cell_deg": 0.5,
      "sources": {
        "GDELT": 278,
        "GDELT_DOC": 0,
        "DIRECT_FEED": 0,
        "USGS": 0,
        "GDACS": 0
      },
      "last7_score": 70.541,
      "prev7_score": 16.314,
      "trend": "up",
      "trend_arrow": "🔺",
      "change_pct": 332.4,
      "place": "Warsaw, Poland"
    },
    {
      "lon": 22.25,
      "lat": 55.25,
      "type": "hotspot_cell",
      "score": 65.367,
      "count": 92,
      "cell_deg": 0.5,
      "sources": {
        "GDELT": 0,
        "GDELT_DOC": 92,
        "DIRECT_FEED": 0,
        "USGS": 0,
        "GDACS": 0
      },
      "last7_score": 65.367,
      "prev7_score": 0.0,
      "trend": "new",
      "trend_arrow": "🆕",
      "change_pct": null,
      "place": "Tauragės seniūnija, Lithuania"
    }
  ]
}