{
  "generated_utc": "2026-03-25T02:21:08Z",
  "top": [
    {
      "lon": 26.25,
      "lat": 44.25,
      "type": "hotspot_cell",
      "score": 745.738,
      "count": 1262,
      "cell_deg": 0.5,
      "sources": {
        "GDELT": 173,
        "GDELT_DOC": 1089,
        "DIRECT_FEED": 0,
        "USGS": 0,
        "GDACS": 0
      },
      "last7_score": 731.35,
      "prev7_score": 14.388,
      "trend": "up",
      "trend_arrow": "🔺",
      "change_pct": 4982.9,
      "place": "Giurgiu, Romania"
    },
    {
      "lon": 14.25,
      "lat": 50.25,
      "type": "hotspot_cell",
      "score": 715.11,
      "count": 1235,
      "cell_deg": 0.5,
      "sources": {
        "GDELT": 108,
        "GDELT_DOC": 1124,
        "DIRECT_FEED": 3,
        "USGS": 0,
        "GDACS": 0
      },
      "last7_score": 706.71,
      "prev7_score": 8.401,
      "trend": "up",
      "trend_arrow": "🔺",
      "change_pct": 8312.6,
      "place": "SO ORP Kralupy nad Vltavou, Czechia"
    },
    {
      "lon": 25.25,
      "lat": 54.75,
      "type": "hotspot_cell",
      "score": 577.311,
      "count": 931,
      "cell_deg": 0.5,
      "sources": {
        "GDELT": 89,
        "GDELT_DOC": 842,
        "DIRECT_FEED": 0,
        "USGS": 0,
        "GDACS": 0
      },
      "last7_score": 571.697,
      "prev7_score": 5.614,
      "trend": "up",
      "trend_arrow": "🔺",
      "change_pct": 10083.4,
      "place": "Vilnius County, Lithuania"
    },
    {
      "lon": 19.25,
      "lat": 47.75,
      "type": "hotspot_cell",
      "score": 271.107,
      "count": 556,
      "cell_deg": 0.5,
      "sources": {
        "GDELT": 327,
        "GDELT_DOC": 0,
        "DIRECT_FEED": 229,
        "USGS": 0,
        "GDACS": 0
      },
      "last7_score": 242.443,
      "prev7_score": 28.664,
      "trend": "up",
      "trend_arrow": "🔺",
      "change_pct": 745.8,
      "place": "Pest, Hungary"
    },
    {
      "lon": 20.25,
      "lat": 52.25,
      "type": "hotspot_cell",
      "score": 149.857,
      "count": 405,
      "cell_deg": 0.5,
      "sources": {
        "GDELT": 405,
        "GDELT_DOC": 0,
        "DIRECT_FEED": 0,
        "USGS": 0,
        "GDACS": 0
      },
      "last7_score": 113.439,
      "prev7_score": 36.418,
      "trend": "up",
      "trend_arrow": "🔺",
      "change_pct": 211.5,
      "place": "Sochaczew County, Poland"
    },
    {
      "lon": 20.25,
      "lat": 47.25,
      "type": "hotspot_cell",
      "score": 141.79,
      "count": 390,
      "cell_deg": 0.5,
      "sources": {
        "GDELT": 390,
        "GDELT_DOC": 0,
        "DIRECT_FEED": 0,
        "USGS": 0,
        "GDACS": 0
      },
      "last7_score": 113.309,
      "prev7_score": 28.481,
      "trend": "up",
      "trend_arrow": "🔺",
      "change_pct": 297.8,
      "place": "Jász-Nagykun-Szolnok, Hungary"
    },
    {
      "lon": 25.25,
      "lat": 46.25,
      "type": "hotspot_cell",
      "score": 121.944,
      "count": 304,
      "cell_deg": 0.5,
      "sources": {
        "GDELT": 304,
        "GDELT_DOC": 0,
        "DIRECT_FEED": 0,
        "USGS": 0,
        "GDACS": 0
      },
      "last7_score": 98.211,
      "prev7_score": 23.734,
      "trend": "up",
      "trend_arrow": "🔺",
      "change_pct": 313.8,
      "place": "Harghita, Romania"
    },
    {
      "lon": 24.25,
      "lat": 56.75,
      "type": "hotspot_cell",
      "score": 116.052,
      "count": 175,
      "cell_deg": 0.5,
      "sources": {
        "GDELT": 37,
        "GDELT_DOC": 0,
        "DIRECT_FEED": 138,
        "USGS": 0,
        "GDACS": 0
      },
      "last7_score": 113.327,
      "prev7_score": 2.724,
      "trend": "up",
      "trend_arrow": "🔺",
      "change_pct": 4059.9,
      "place": "Ķekavas novads, Latvia"
    },
    {
      "lon": 15.25,
      "lat": 49.75,
      "type": "hotspot_cell",
      "score": 69.092,
      "count": 165,
      "cell_deg": 0.5,
      "sources": {
        "GDELT": 165,
        "GDELT_DOC": 0,
        "DIRECT_FEED": 0,
        "USGS": 0,
        "GDACS": 0
      },
      "last7_score": 58.47,
      "prev7_score": 10.623,
      "trend": "up",
      "trend_arrow": "🔺",
      "change_pct": 450.4,
      "place": "Vysočina Region, Czechia"
    },
    {
      "lon": 27.75,
      "lat": 47.25,
      "type": "hotspot_cell",
      "score": 62.061,
      "count": 90,
      "cell_deg": 0.5,
      "sources": {
        "GDELT": 0,
        "GDELT_DOC": 90,
        "DIRECT_FEED": 0,
        "USGS": 0,
        "GDACS": 0
      },
      "last7_score": 62.061,
      "prev7_score": 0.0,
      "trend": "new",
      "trend_arrow": "🆕",
      "change_pct": null,
      "place": "Iași, Romania"
    }
  ]
}