{
  "generated_utc": "2026-04-12T13:08:43Z",
  "top": [
    {
      "lon": 26.25,
      "lat": 44.25,
      "type": "hotspot_cell",
      "score": 836.695,
      "count": 1482,
      "cell_deg": 0.5,
      "sources": {
        "GDELT": 157,
        "GDELT_DOC": 1319,
        "DIRECT_FEED": 6,
        "USGS": 0,
        "GDACS": 0
      },
      "last7_score": 825.51,
      "prev7_score": 11.185,
      "trend": "up",
      "trend_arrow": "🔺",
      "change_pct": 7280.2,
      "place": "Giurgiu, Romania"
    },
    {
      "lon": 14.25,
      "lat": 50.25,
      "type": "hotspot_cell",
      "score": 699.345,
      "count": 1156,
      "cell_deg": 0.5,
      "sources": {
        "GDELT": 86,
        "GDELT_DOC": 1070,
        "DIRECT_FEED": 0,
        "USGS": 0,
        "GDACS": 0
      },
      "last7_score": 693.473,
      "prev7_score": 5.872,
      "trend": "up",
      "trend_arrow": "🔺",
      "change_pct": 11710.5,
      "place": "SO ORP Kralupy nad Vltavou, Czechia"
    },
    {
      "lon": 25.25,
      "lat": 54.75,
      "type": "hotspot_cell",
      "score": 531.952,
      "count": 885,
      "cell_deg": 0.5,
      "sources": {
        "GDELT": 76,
        "GDELT_DOC": 807,
        "DIRECT_FEED": 2,
        "USGS": 0,
        "GDACS": 0
      },
      "last7_score": 526.932,
      "prev7_score": 5.02,
      "trend": "up",
      "trend_arrow": "🔺",
      "change_pct": 10395.9,
      "place": "Vilnius County, Lithuania"
    },
    {
      "lon": 19.25,
      "lat": 47.75,
      "type": "hotspot_cell",
      "score": 488.89,
      "count": 878,
      "cell_deg": 0.5,
      "sources": {
        "GDELT": 618,
        "GDELT_DOC": 0,
        "DIRECT_FEED": 260,
        "USGS": 0,
        "GDACS": 0
      },
      "last7_score": 473.417,
      "prev7_score": 15.474,
      "trend": "up",
      "trend_arrow": "🔺",
      "change_pct": 2959.5,
      "place": "Pest, Hungary"
    },
    {
      "lon": 20.25,
      "lat": 47.25,
      "type": "hotspot_cell",
      "score": 199.898,
      "count": 461,
      "cell_deg": 0.5,
      "sources": {
        "GDELT": 461,
        "GDELT_DOC": 0,
        "DIRECT_FEED": 0,
        "USGS": 0,
        "GDACS": 0
      },
      "last7_score": 178.087,
      "prev7_score": 21.811,
      "trend": "up",
      "trend_arrow": "🔺",
      "change_pct": 716.5,
      "place": "Jász-Nagykun-Szolnok, Hungary"
    },
    {
      "lon": 20.25,
      "lat": 52.25,
      "type": "hotspot_cell",
      "score": 133.488,
      "count": 417,
      "cell_deg": 0.5,
      "sources": {
        "GDELT": 417,
        "GDELT_DOC": 0,
        "DIRECT_FEED": 0,
        "USGS": 0,
        "GDACS": 0
      },
      "last7_score": 106.89,
      "prev7_score": 26.599,
      "trend": "up",
      "trend_arrow": "🔺",
      "change_pct": 301.9,
      "place": "Sochaczew County, Poland"
    },
    {
      "lon": 24.25,
      "lat": 56.75,
      "type": "hotspot_cell",
      "score": 95.469,
      "count": 158,
      "cell_deg": 0.5,
      "sources": {
        "GDELT": 26,
        "GDELT_DOC": 0,
        "DIRECT_FEED": 132,
        "USGS": 0,
        "GDACS": 0
      },
      "last7_score": 94.102,
      "prev7_score": 1.367,
      "trend": "up",
      "trend_arrow": "🔺",
      "change_pct": 6784.9,
      "place": "Ķekavas novads, Latvia"
    },
    {
      "lon": 25.25,
      "lat": 46.25,
      "type": "hotspot_cell",
      "score": 71.95,
      "count": 256,
      "cell_deg": 0.5,
      "sources": {
        "GDELT": 256,
        "GDELT_DOC": 0,
        "DIRECT_FEED": 0,
        "USGS": 0,
        "GDACS": 0
      },
      "last7_score": 56.519,
      "prev7_score": 15.431,
      "trend": "up",
      "trend_arrow": "🔺",
      "change_pct": 266.3,
      "place": "Harghita, Romania"
    },
    {
      "lon": 15.25,
      "lat": 49.75,
      "type": "hotspot_cell",
      "score": 45.899,
      "count": 127,
      "cell_deg": 0.5,
      "sources": {
        "GDELT": 127,
        "GDELT_DOC": 0,
        "DIRECT_FEED": 0,
        "USGS": 0,
        "GDACS": 0
      },
      "last7_score": 39.534,
      "prev7_score": 6.365,
      "trend": "up",
      "trend_arrow": "🔺",
      "change_pct": 521.1,
      "place": "Vysočina Region, Czechia"
    },
    {
      "lon": 24.25,
      "lat": 56.25,
      "type": "hotspot_cell",
      "score": 44.284,
      "count": 115,
      "cell_deg": 0.5,
      "sources": {
        "GDELT": 115,
        "GDELT_DOC": 0,
        "DIRECT_FEED": 0,
        "USGS": 0,
        "GDACS": 0
      },
      "last7_score": 39.442,
      "prev7_score": 4.842,
      "trend": "up",
      "trend_arrow": "🔺",
      "change_pct": 714.5,
      "place": "Namišių seniūnija, Lithuania"
    }
  ]
}