{
  "generated_utc": "2026-06-29T15:39:30Z",
  "top": [
    {
      "lon": 14.25,
      "lat": 50.25,
      "type": "hotspot_cell",
      "score": 651.332,
      "count": 1195,
      "cell_deg": 0.5,
      "sources": {
        "GDELT": 124,
        "GDELT_DOC": 1063,
        "DIRECT_FEED": 8,
        "USGS": 0,
        "GDACS": 0
      },
      "last7_score": 642.123,
      "prev7_score": 9.209,
      "trend": "up",
      "trend_arrow": "🔺",
      "change_pct": 6872.5,
      "place": "SO ORP Kralupy nad Vltavou, Czechia"
    },
    {
      "lon": 26.25,
      "lat": 44.25,
      "type": "hotspot_cell",
      "score": 574.579,
      "count": 1057,
      "cell_deg": 0.5,
      "sources": {
        "GDELT": 139,
        "GDELT_DOC": 910,
        "DIRECT_FEED": 8,
        "USGS": 0,
        "GDACS": 0
      },
      "last7_score": 566.326,
      "prev7_score": 8.253,
      "trend": "up",
      "trend_arrow": "🔺",
      "change_pct": 6762.3,
      "place": "Giurgiu, Romania"
    },
    {
      "lon": 25.25,
      "lat": 54.75,
      "type": "hotspot_cell",
      "score": 367.135,
      "count": 645,
      "cell_deg": 0.5,
      "sources": {
        "GDELT": 60,
        "GDELT_DOC": 585,
        "DIRECT_FEED": 0,
        "USGS": 0,
        "GDACS": 0
      },
      "last7_score": 363.234,
      "prev7_score": 3.901,
      "trend": "up",
      "trend_arrow": "🔺",
      "change_pct": 9211.4,
      "place": "Vilnius County, Lithuania"
    },
    {
      "lon": 20.25,
      "lat": 52.25,
      "type": "hotspot_cell",
      "score": 180.364,
      "count": 530,
      "cell_deg": 0.5,
      "sources": {
        "GDELT": 530,
        "GDELT_DOC": 0,
        "DIRECT_FEED": 0,
        "USGS": 0,
        "GDACS": 0
      },
      "last7_score": 148.293,
      "prev7_score": 32.071,
      "trend": "up",
      "trend_arrow": "🔺",
      "change_pct": 362.4,
      "place": "Sochaczew County, Poland"
    },
    {
      "lon": 19.25,
      "lat": 47.75,
      "type": "hotspot_cell",
      "score": 162.865,
      "count": 350,
      "cell_deg": 0.5,
      "sources": {
        "GDELT": 192,
        "GDELT_DOC": 0,
        "DIRECT_FEED": 158,
        "USGS": 0,
        "GDACS": 0
      },
      "last7_score": 152.65,
      "prev7_score": 10.215,
      "trend": "up",
      "trend_arrow": "🔺",
      "change_pct": 1394.4,
      "place": "Pest, Hungary"
    },
    {
      "lon": 25.25,
      "lat": 46.25,
      "type": "hotspot_cell",
      "score": 123.375,
      "count": 380,
      "cell_deg": 0.5,
      "sources": {
        "GDELT": 380,
        "GDELT_DOC": 0,
        "DIRECT_FEED": 0,
        "USGS": 0,
        "GDACS": 0
      },
      "last7_score": 99.874,
      "prev7_score": 23.502,
      "trend": "up",
      "trend_arrow": "🔺",
      "change_pct": 325.0,
      "place": "Harghita, Romania"
    },
    {
      "lon": 21.25,
      "lat": 52.25,
      "type": "hotspot_cell",
      "score": 112.518,
      "count": 359,
      "cell_deg": 0.5,
      "sources": {
        "GDELT": 359,
        "GDELT_DOC": 0,
        "DIRECT_FEED": 0,
        "USGS": 0,
        "GDACS": 0
      },
      "last7_score": 87.179,
      "prev7_score": 25.34,
      "trend": "up",
      "trend_arrow": "🔺",
      "change_pct": 244.0,
      "place": "Warsaw, Poland"
    },
    {
      "lon": 24.25,
      "lat": 56.75,
      "type": "hotspot_cell",
      "score": 110.252,
      "count": 179,
      "cell_deg": 0.5,
      "sources": {
        "GDELT": 29,
        "GDELT_DOC": 0,
        "DIRECT_FEED": 150,
        "USGS": 0,
        "GDACS": 0
      },
      "last7_score": 107.669,
      "prev7_score": 2.583,
      "trend": "up",
      "trend_arrow": "🔺",
      "change_pct": 4069.0,
      "place": "Ķekavas novads, Latvia"
    },
    {
      "lon": 20.25,
      "lat": 47.25,
      "type": "hotspot_cell",
      "score": 61.199,
      "count": 223,
      "cell_deg": 0.5,
      "sources": {
        "GDELT": 222,
        "GDELT_DOC": 0,
        "DIRECT_FEED": 0,
        "USGS": 0,
        "GDACS": 1
      },
      "last7_score": 45.893,
      "prev7_score": 15.306,
      "trend": "up",
      "trend_arrow": "🔺",
      "change_pct": 199.8,
      "place": "Jász-Nagykun-Szolnok, Hungary"
    },
    {
      "lon": 15.25,
      "lat": 49.75,
      "type": "hotspot_cell",
      "score": 60.032,
      "count": 156,
      "cell_deg": 0.5,
      "sources": {
        "GDELT": 156,
        "GDELT_DOC": 0,
        "DIRECT_FEED": 0,
        "USGS": 0,
        "GDACS": 0
      },
      "last7_score": 51.284,
      "prev7_score": 8.748,
      "trend": "up",
      "trend_arrow": "🔺",
      "change_pct": 486.3,
      "place": "Vysočina Region, Czechia"
    }
  ]
}