{
  "generated_utc": "2026-04-29T02:59:47Z",
  "top": [
    {
      "lon": 26.25,
      "lat": 44.25,
      "type": "hotspot_cell",
      "score": 968.17,
      "count": 1630,
      "cell_deg": 0.5,
      "sources": {
        "GDELT": 155,
        "GDELT_DOC": 1467,
        "DIRECT_FEED": 8,
        "USGS": 0,
        "GDACS": 0
      },
      "last7_score": 953.655,
      "prev7_score": 14.515,
      "trend": "up",
      "trend_arrow": "🔺",
      "change_pct": 6470.1,
      "place": "Giurgiu, Romania"
    },
    {
      "lon": 14.25,
      "lat": 50.25,
      "type": "hotspot_cell",
      "score": 908.974,
      "count": 1696,
      "cell_deg": 0.5,
      "sources": {
        "GDELT": 203,
        "GDELT_DOC": 1492,
        "DIRECT_FEED": 1,
        "USGS": 0,
        "GDACS": 0
      },
      "last7_score": 893.874,
      "prev7_score": 15.1,
      "trend": "up",
      "trend_arrow": "🔺",
      "change_pct": 5819.5,
      "place": "SO ORP Kralupy nad Vltavou, Czechia"
    },
    {
      "lon": 25.25,
      "lat": 54.75,
      "type": "hotspot_cell",
      "score": 671.609,
      "count": 1152,
      "cell_deg": 0.5,
      "sources": {
        "GDELT": 66,
        "GDELT_DOC": 1086,
        "DIRECT_FEED": 0,
        "USGS": 0,
        "GDACS": 0
      },
      "last7_score": 667.34,
      "prev7_score": 4.269,
      "trend": "up",
      "trend_arrow": "🔺",
      "change_pct": 15531.8,
      "place": "Vilnius County, Lithuania"
    },
    {
      "lon": 19.25,
      "lat": 47.75,
      "type": "hotspot_cell",
      "score": 254.115,
      "count": 623,
      "cell_deg": 0.5,
      "sources": {
        "GDELT": 396,
        "GDELT_DOC": 0,
        "DIRECT_FEED": 227,
        "USGS": 0,
        "GDACS": 0
      },
      "last7_score": 205.541,
      "prev7_score": 48.574,
      "trend": "up",
      "trend_arrow": "🔺",
      "change_pct": 323.1,
      "place": "Pest, Hungary"
    },
    {
      "lon": 20.25,
      "lat": 47.25,
      "type": "hotspot_cell",
      "score": 183.252,
      "count": 569,
      "cell_deg": 0.5,
      "sources": {
        "GDELT": 569,
        "GDELT_DOC": 0,
        "DIRECT_FEED": 0,
        "USGS": 0,
        "GDACS": 0
      },
      "last7_score": 127.637,
      "prev7_score": 55.615,
      "trend": "up",
      "trend_arrow": "🔺",
      "change_pct": 129.5,
      "place": "Jász-Nagykun-Szolnok, Hungary"
    },
    {
      "lon": 20.25,
      "lat": 52.25,
      "type": "hotspot_cell",
      "score": 165.308,
      "count": 449,
      "cell_deg": 0.5,
      "sources": {
        "GDELT": 449,
        "GDELT_DOC": 0,
        "DIRECT_FEED": 0,
        "USGS": 0,
        "GDACS": 0
      },
      "last7_score": 130.244,
      "prev7_score": 35.064,
      "trend": "up",
      "trend_arrow": "🔺",
      "change_pct": 271.5,
      "place": "Sochaczew County, Poland"
    },
    {
      "lon": 24.25,
      "lat": 56.75,
      "type": "hotspot_cell",
      "score": 115.532,
      "count": 169,
      "cell_deg": 0.5,
      "sources": {
        "GDELT": 29,
        "GDELT_DOC": 0,
        "DIRECT_FEED": 140,
        "USGS": 0,
        "GDACS": 0
      },
      "last7_score": 113.871,
      "prev7_score": 1.661,
      "trend": "up",
      "trend_arrow": "🔺",
      "change_pct": 6754.9,
      "place": "Ķekavas novads, Latvia"
    },
    {
      "lon": 25.25,
      "lat": 46.25,
      "type": "hotspot_cell",
      "score": 107.8,
      "count": 261,
      "cell_deg": 0.5,
      "sources": {
        "GDELT": 261,
        "GDELT_DOC": 0,
        "DIRECT_FEED": 0,
        "USGS": 0,
        "GDACS": 0
      },
      "last7_score": 88.947,
      "prev7_score": 18.853,
      "trend": "up",
      "trend_arrow": "🔺",
      "change_pct": 371.8,
      "place": "Harghita, Romania"
    },
    {
      "lon": 26.75,
      "lat": 47.75,
      "type": "hotspot_cell",
      "score": 94.0,
      "count": 157,
      "cell_deg": 0.5,
      "sources": {
        "GDELT": 2,
        "GDELT_DOC": 152,
        "DIRECT_FEED": 3,
        "USGS": 0,
        "GDACS": 0
      },
      "last7_score": 93.755,
      "prev7_score": 0.245,
      "trend": "up",
      "trend_arrow": "🔺",
      "change_pct": 38212.4,
      "place": "Botoșani, Romania"
    },
    {
      "lon": 21.25,
      "lat": 52.25,
      "type": "hotspot_cell",
      "score": 74.811,
      "count": 165,
      "cell_deg": 0.5,
      "sources": {
        "GDELT": 165,
        "GDELT_DOC": 0,
        "DIRECT_FEED": 0,
        "USGS": 0,
        "GDACS": 0
      },
      "last7_score": 64.032,
      "prev7_score": 10.779,
      "trend": "up",
      "trend_arrow": "🔺",
      "change_pct": 494.0,
      "place": "Warsaw, Poland"
    }
  ]
}