{
  "generated_utc": "2026-04-09T13:48:05Z",
  "top": [
    {
      "lon": 26.25,
      "lat": 44.25,
      "type": "hotspot_cell",
      "score": 868.717,
      "count": 1335,
      "cell_deg": 0.5,
      "sources": {
        "GDELT": 156,
        "GDELT_DOC": 1172,
        "DIRECT_FEED": 7,
        "USGS": 0,
        "GDACS": 0
      },
      "last7_score": 854.291,
      "prev7_score": 14.426,
      "trend": "up",
      "trend_arrow": "🔺",
      "change_pct": 5821.7,
      "place": "Giurgiu, Romania"
    },
    {
      "lon": 14.25,
      "lat": 50.25,
      "type": "hotspot_cell",
      "score": 678.268,
      "count": 1029,
      "cell_deg": 0.5,
      "sources": {
        "GDELT": 98,
        "GDELT_DOC": 930,
        "DIRECT_FEED": 1,
        "USGS": 0,
        "GDACS": 0
      },
      "last7_score": 670.42,
      "prev7_score": 7.847,
      "trend": "up",
      "trend_arrow": "🔺",
      "change_pct": 8443.4,
      "place": "SO ORP Kralupy nad Vltavou, Czechia"
    },
    {
      "lon": 25.25,
      "lat": 54.75,
      "type": "hotspot_cell",
      "score": 555.415,
      "count": 822,
      "cell_deg": 0.5,
      "sources": {
        "GDELT": 79,
        "GDELT_DOC": 743,
        "DIRECT_FEED": 0,
        "USGS": 0,
        "GDACS": 0
      },
      "last7_score": 548.39,
      "prev7_score": 7.025,
      "trend": "up",
      "trend_arrow": "🔺",
      "change_pct": 7705.9,
      "place": "Vilnius County, Lithuania"
    },
    {
      "lon": 19.25,
      "lat": 47.75,
      "type": "hotspot_cell",
      "score": 498.954,
      "count": 722,
      "cell_deg": 0.5,
      "sources": {
        "GDELT": 489,
        "GDELT_DOC": 0,
        "DIRECT_FEED": 233,
        "USGS": 0,
        "GDACS": 0
      },
      "last7_score": 483.029,
      "prev7_score": 15.924,
      "trend": "up",
      "trend_arrow": "🔺",
      "change_pct": 2933.3,
      "place": "Pest, Hungary"
    },
    {
      "lon": 20.25,
      "lat": 47.25,
      "type": "hotspot_cell",
      "score": 183.938,
      "count": 369,
      "cell_deg": 0.5,
      "sources": {
        "GDELT": 369,
        "GDELT_DOC": 0,
        "DIRECT_FEED": 0,
        "USGS": 0,
        "GDACS": 0
      },
      "last7_score": 162.2,
      "prev7_score": 21.738,
      "trend": "up",
      "trend_arrow": "🔺",
      "change_pct": 646.2,
      "place": "Jász-Nagykun-Szolnok, Hungary"
    },
    {
      "lon": 20.25,
      "lat": 52.25,
      "type": "hotspot_cell",
      "score": 148.163,
      "count": 440,
      "cell_deg": 0.5,
      "sources": {
        "GDELT": 440,
        "GDELT_DOC": 0,
        "DIRECT_FEED": 0,
        "USGS": 0,
        "GDACS": 0
      },
      "last7_score": 111.597,
      "prev7_score": 36.566,
      "trend": "up",
      "trend_arrow": "🔺",
      "change_pct": 205.2,
      "place": "Sochaczew County, Poland"
    },
    {
      "lon": 24.25,
      "lat": 56.75,
      "type": "hotspot_cell",
      "score": 111.73,
      "count": 155,
      "cell_deg": 0.5,
      "sources": {
        "GDELT": 26,
        "GDELT_DOC": 0,
        "DIRECT_FEED": 129,
        "USGS": 0,
        "GDACS": 0
      },
      "last7_score": 108.949,
      "prev7_score": 2.78,
      "trend": "up",
      "trend_arrow": "🔺",
      "change_pct": 3818.4,
      "place": "Ķekavas novads, Latvia"
    },
    {
      "lon": 25.25,
      "lat": 46.25,
      "type": "hotspot_cell",
      "score": 108.814,
      "count": 265,
      "cell_deg": 0.5,
      "sources": {
        "GDELT": 265,
        "GDELT_DOC": 0,
        "DIRECT_FEED": 0,
        "USGS": 0,
        "GDACS": 0
      },
      "last7_score": 88.294,
      "prev7_score": 20.52,
      "trend": "up",
      "trend_arrow": "🔺",
      "change_pct": 330.3,
      "place": "Harghita, Romania"
    },
    {
      "lon": 15.25,
      "lat": 49.75,
      "type": "hotspot_cell",
      "score": 47.621,
      "count": 121,
      "cell_deg": 0.5,
      "sources": {
        "GDELT": 121,
        "GDELT_DOC": 0,
        "DIRECT_FEED": 0,
        "USGS": 0,
        "GDACS": 0
      },
      "last7_score": 38.373,
      "prev7_score": 9.248,
      "trend": "up",
      "trend_arrow": "🔺",
      "change_pct": 314.9,
      "place": "Vysočina Region, Czechia"
    },
    {
      "lon": 24.25,
      "lat": 56.25,
      "type": "hotspot_cell",
      "score": 46.591,
      "count": 99,
      "cell_deg": 0.5,
      "sources": {
        "GDELT": 99,
        "GDELT_DOC": 0,
        "DIRECT_FEED": 0,
        "USGS": 0,
        "GDACS": 0
      },
      "last7_score": 39.629,
      "prev7_score": 6.963,
      "trend": "up",
      "trend_arrow": "🔺",
      "change_pct": 469.2,
      "place": "Namišių seniūnija, Lithuania"
    }
  ]
}