{
  "generated_utc": "2026-03-18T07:08:12Z",
  "top": [
    {
      "lon": 14.25,
      "lat": 50.25,
      "type": "hotspot_cell",
      "score": 879.699,
      "count": 1447,
      "cell_deg": 0.5,
      "sources": {
        "GDELT": 122,
        "GDELT_DOC": 1320,
        "DIRECT_FEED": 5,
        "USGS": 0,
        "GDACS": 0
      },
      "last7_score": 870.495,
      "prev7_score": 9.204,
      "trend": "up",
      "trend_arrow": "🔺",
      "change_pct": 9358.2,
      "place": "SO ORP Kralupy nad Vltavou, Czechia"
    },
    {
      "lon": 26.25,
      "lat": 44.25,
      "type": "hotspot_cell",
      "score": 819.766,
      "count": 1366,
      "cell_deg": 0.5,
      "sources": {
        "GDELT": 176,
        "GDELT_DOC": 1187,
        "DIRECT_FEED": 3,
        "USGS": 0,
        "GDACS": 0
      },
      "last7_score": 808.136,
      "prev7_score": 11.63,
      "trend": "up",
      "trend_arrow": "🔺",
      "change_pct": 6848.5,
      "place": "Giurgiu, Romania"
    },
    {
      "lon": 25.25,
      "lat": 54.75,
      "type": "hotspot_cell",
      "score": 550.565,
      "count": 952,
      "cell_deg": 0.5,
      "sources": {
        "GDELT": 68,
        "GDELT_DOC": 884,
        "DIRECT_FEED": 0,
        "USGS": 0,
        "GDACS": 0
      },
      "last7_score": 545.721,
      "prev7_score": 4.844,
      "trend": "up",
      "trend_arrow": "🔺",
      "change_pct": 11164.8,
      "place": "Vilnius County, Lithuania"
    },
    {
      "lon": 19.25,
      "lat": 47.75,
      "type": "hotspot_cell",
      "score": 275.834,
      "count": 615,
      "cell_deg": 0.5,
      "sources": {
        "GDELT": 422,
        "GDELT_DOC": 0,
        "DIRECT_FEED": 193,
        "USGS": 0,
        "GDACS": 0
      },
      "last7_score": 240.315,
      "prev7_score": 35.519,
      "trend": "up",
      "trend_arrow": "🔺",
      "change_pct": 576.6,
      "place": "Pest, Hungary"
    },
    {
      "lon": 20.25,
      "lat": 52.25,
      "type": "hotspot_cell",
      "score": 154.342,
      "count": 413,
      "cell_deg": 0.5,
      "sources": {
        "GDELT": 413,
        "GDELT_DOC": 0,
        "DIRECT_FEED": 0,
        "USGS": 0,
        "GDACS": 0
      },
      "last7_score": 125.798,
      "prev7_score": 28.544,
      "trend": "up",
      "trend_arrow": "🔺",
      "change_pct": 340.7,
      "place": "Sochaczew County, Poland"
    },
    {
      "lon": 20.25,
      "lat": 47.25,
      "type": "hotspot_cell",
      "score": 142.417,
      "count": 365,
      "cell_deg": 0.5,
      "sources": {
        "GDELT": 365,
        "GDELT_DOC": 0,
        "DIRECT_FEED": 0,
        "USGS": 0,
        "GDACS": 0
      },
      "last7_score": 116.189,
      "prev7_score": 26.228,
      "trend": "up",
      "trend_arrow": "🔺",
      "change_pct": 343.0,
      "place": "Jász-Nagykun-Szolnok, Hungary"
    },
    {
      "lon": 24.25,
      "lat": 56.75,
      "type": "hotspot_cell",
      "score": 117.046,
      "count": 175,
      "cell_deg": 0.5,
      "sources": {
        "GDELT": 34,
        "GDELT_DOC": 0,
        "DIRECT_FEED": 141,
        "USGS": 0,
        "GDACS": 0
      },
      "last7_score": 115.282,
      "prev7_score": 1.764,
      "trend": "up",
      "trend_arrow": "🔺",
      "change_pct": 6434.6,
      "place": "Ķekavas novads, Latvia"
    },
    {
      "lon": 25.25,
      "lat": 46.25,
      "type": "hotspot_cell",
      "score": 103.371,
      "count": 292,
      "cell_deg": 0.5,
      "sources": {
        "GDELT": 292,
        "GDELT_DOC": 0,
        "DIRECT_FEED": 0,
        "USGS": 0,
        "GDACS": 0
      },
      "last7_score": 78.99,
      "prev7_score": 24.381,
      "trend": "up",
      "trend_arrow": "🔺",
      "change_pct": 224.0,
      "place": "Harghita, Romania"
    },
    {
      "lon": 21.25,
      "lat": 52.25,
      "type": "hotspot_cell",
      "score": 63.529,
      "count": 193,
      "cell_deg": 0.5,
      "sources": {
        "GDELT": 193,
        "GDELT_DOC": 0,
        "DIRECT_FEED": 0,
        "USGS": 0,
        "GDACS": 0
      },
      "last7_score": 50.818,
      "prev7_score": 12.711,
      "trend": "up",
      "trend_arrow": "🔺",
      "change_pct": 299.8,
      "place": "Warsaw, Poland"
    },
    {
      "lon": 27.75,
      "lat": 47.25,
      "type": "hotspot_cell",
      "score": 59.783,
      "count": 104,
      "cell_deg": 0.5,
      "sources": {
        "GDELT": 0,
        "GDELT_DOC": 104,
        "DIRECT_FEED": 0,
        "USGS": 0,
        "GDACS": 0
      },
      "last7_score": 59.783,
      "prev7_score": 0.0,
      "trend": "new",
      "trend_arrow": "🆕",
      "change_pct": null,
      "place": "Iași, Romania"
    }
  ]
}