{
  "generated_utc": "2026-03-07T06:47:27Z",
  "top": [
    {
      "lon": 14.25,
      "lat": 50.25,
      "type": "hotspot_cell",
      "score": 321.8,
      "count": 392,
      "cell_deg": 0.5,
      "sources": {
        "GDELT": 162,
        "GDELT_DOC": 230,
        "DIRECT_FEED": 0,
        "USGS": 0,
        "GDACS": 0
      },
      "last7_score": 311.665,
      "prev7_score": 10.135,
      "trend": "up",
      "trend_arrow": "🔺",
      "change_pct": 2975.0,
      "place": "SO ORP Kralupy nad Vltavou, Czechia"
    },
    {
      "lon": 26.25,
      "lat": 44.25,
      "type": "hotspot_cell",
      "score": 250.712,
      "count": 346,
      "cell_deg": 0.5,
      "sources": {
        "GDELT": 184,
        "GDELT_DOC": 162,
        "DIRECT_FEED": 0,
        "USGS": 0,
        "GDACS": 0
      },
      "last7_score": 238.368,
      "prev7_score": 12.344,
      "trend": "up",
      "trend_arrow": "🔺",
      "change_pct": 1831.0,
      "place": "Giurgiu, Romania"
    },
    {
      "lon": 19.25,
      "lat": 47.75,
      "type": "hotspot_cell",
      "score": 245.996,
      "count": 500,
      "cell_deg": 0.5,
      "sources": {
        "GDELT": 465,
        "GDELT_DOC": 0,
        "DIRECT_FEED": 35,
        "USGS": 0,
        "GDACS": 0
      },
      "last7_score": 212.802,
      "prev7_score": 33.194,
      "trend": "up",
      "trend_arrow": "🔺",
      "change_pct": 541.1,
      "place": "Pest, Hungary"
    },
    {
      "lon": 20.25,
      "lat": 52.25,
      "type": "hotspot_cell",
      "score": 203.258,
      "count": 542,
      "cell_deg": 0.5,
      "sources": {
        "GDELT": 542,
        "GDELT_DOC": 0,
        "DIRECT_FEED": 0,
        "USGS": 0,
        "GDACS": 0
      },
      "last7_score": 161.8,
      "prev7_score": 41.458,
      "trend": "up",
      "trend_arrow": "🔺",
      "change_pct": 290.3,
      "place": "Sochaczew County, Poland"
    },
    {
      "lon": 25.25,
      "lat": 54.75,
      "type": "hotspot_cell",
      "score": 173.585,
      "count": 203,
      "cell_deg": 0.5,
      "sources": {
        "GDELT": 73,
        "GDELT_DOC": 130,
        "DIRECT_FEED": 0,
        "USGS": 0,
        "GDACS": 0
      },
      "last7_score": 167.745,
      "prev7_score": 5.84,
      "trend": "up",
      "trend_arrow": "🔺",
      "change_pct": 2772.4,
      "place": "Vilnius County, Lithuania"
    },
    {
      "lon": 20.25,
      "lat": 47.25,
      "type": "hotspot_cell",
      "score": 139.545,
      "count": 405,
      "cell_deg": 0.5,
      "sources": {
        "GDELT": 405,
        "GDELT_DOC": 0,
        "DIRECT_FEED": 0,
        "USGS": 0,
        "GDACS": 0
      },
      "last7_score": 108.174,
      "prev7_score": 31.371,
      "trend": "up",
      "trend_arrow": "🔺",
      "change_pct": 244.8,
      "place": "Jász-Nagykun-Szolnok, Hungary"
    },
    {
      "lon": 25.25,
      "lat": 46.25,
      "type": "hotspot_cell",
      "score": 120.414,
      "count": 324,
      "cell_deg": 0.5,
      "sources": {
        "GDELT": 324,
        "GDELT_DOC": 0,
        "DIRECT_FEED": 0,
        "USGS": 0,
        "GDACS": 0
      },
      "last7_score": 97.107,
      "prev7_score": 23.308,
      "trend": "up",
      "trend_arrow": "🔺",
      "change_pct": 316.6,
      "place": "Harghita, Romania"
    },
    {
      "lon": 21.25,
      "lat": 52.25,
      "type": "hotspot_cell",
      "score": 99.732,
      "count": 241,
      "cell_deg": 0.5,
      "sources": {
        "GDELT": 241,
        "GDELT_DOC": 0,
        "DIRECT_FEED": 0,
        "USGS": 0,
        "GDACS": 0
      },
      "last7_score": 80.281,
      "prev7_score": 19.45,
      "trend": "up",
      "trend_arrow": "🔺",
      "change_pct": 312.7,
      "place": "Warsaw, Poland"
    },
    {
      "lon": 15.25,
      "lat": 49.75,
      "type": "hotspot_cell",
      "score": 68.381,
      "count": 164,
      "cell_deg": 0.5,
      "sources": {
        "GDELT": 164,
        "GDELT_DOC": 0,
        "DIRECT_FEED": 0,
        "USGS": 0,
        "GDACS": 0
      },
      "last7_score": 58.264,
      "prev7_score": 10.117,
      "trend": "up",
      "trend_arrow": "🔺",
      "change_pct": 475.9,
      "place": "Vysočina Region, Czechia"
    },
    {
      "lon": 24.25,
      "lat": 56.25,
      "type": "hotspot_cell",
      "score": 62.608,
      "count": 151,
      "cell_deg": 0.5,
      "sources": {
        "GDELT": 151,
        "GDELT_DOC": 0,
        "DIRECT_FEED": 0,
        "USGS": 0,
        "GDACS": 0
      },
      "last7_score": 51.961,
      "prev7_score": 10.647,
      "trend": "up",
      "trend_arrow": "🔺",
      "change_pct": 388.0,
      "place": "Namišių seniūnija, Lithuania"
    }
  ]
}