{
  "generated_utc": "2026-04-04T02:14:53Z",
  "top": [
    {
      "lon": 26.25,
      "lat": 44.25,
      "type": "hotspot_cell",
      "score": 851.255,
      "count": 1417,
      "cell_deg": 0.5,
      "sources": {
        "GDELT": 165,
        "GDELT_DOC": 1248,
        "DIRECT_FEED": 4,
        "USGS": 0,
        "GDACS": 0
      },
      "last7_score": 842.87,
      "prev7_score": 8.385,
      "trend": "up",
      "trend_arrow": "🔺",
      "change_pct": 9952.4,
      "place": "Giurgiu, Romania"
    },
    {
      "lon": 14.25,
      "lat": 50.25,
      "type": "hotspot_cell",
      "score": 845.544,
      "count": 1418,
      "cell_deg": 0.5,
      "sources": {
        "GDELT": 106,
        "GDELT_DOC": 1310,
        "DIRECT_FEED": 2,
        "USGS": 0,
        "GDACS": 0
      },
      "last7_score": 835.488,
      "prev7_score": 10.056,
      "trend": "up",
      "trend_arrow": "🔺",
      "change_pct": 8208.3,
      "place": "SO ORP Kralupy nad Vltavou, Czechia"
    },
    {
      "lon": 25.25,
      "lat": 54.75,
      "type": "hotspot_cell",
      "score": 577.323,
      "count": 1051,
      "cell_deg": 0.5,
      "sources": {
        "GDELT": 88,
        "GDELT_DOC": 963,
        "DIRECT_FEED": 0,
        "USGS": 0,
        "GDACS": 0
      },
      "last7_score": 570.411,
      "prev7_score": 6.913,
      "trend": "up",
      "trend_arrow": "🔺",
      "change_pct": 8151.5,
      "place": "Vilnius County, Lithuania"
    },
    {
      "lon": 19.25,
      "lat": 47.75,
      "type": "hotspot_cell",
      "score": 241.035,
      "count": 480,
      "cell_deg": 0.5,
      "sources": {
        "GDELT": 265,
        "GDELT_DOC": 0,
        "DIRECT_FEED": 215,
        "USGS": 0,
        "GDACS": 0
      },
      "last7_score": 217.66,
      "prev7_score": 23.375,
      "trend": "up",
      "trend_arrow": "🔺",
      "change_pct": 831.2,
      "place": "Pest, Hungary"
    },
    {
      "lon": 20.25,
      "lat": 52.25,
      "type": "hotspot_cell",
      "score": 182.775,
      "count": 454,
      "cell_deg": 0.5,
      "sources": {
        "GDELT": 454,
        "GDELT_DOC": 0,
        "DIRECT_FEED": 0,
        "USGS": 0,
        "GDACS": 0
      },
      "last7_score": 145.65,
      "prev7_score": 37.124,
      "trend": "up",
      "trend_arrow": "🔺",
      "change_pct": 292.3,
      "place": "Sochaczew County, Poland"
    },
    {
      "lon": 20.25,
      "lat": 47.25,
      "type": "hotspot_cell",
      "score": 114.21,
      "count": 307,
      "cell_deg": 0.5,
      "sources": {
        "GDELT": 307,
        "GDELT_DOC": 0,
        "DIRECT_FEED": 0,
        "USGS": 0,
        "GDACS": 0
      },
      "last7_score": 91.383,
      "prev7_score": 22.827,
      "trend": "up",
      "trend_arrow": "🔺",
      "change_pct": 300.3,
      "place": "Jász-Nagykun-Szolnok, Hungary"
    },
    {
      "lon": 25.25,
      "lat": 46.25,
      "type": "hotspot_cell",
      "score": 107.425,
      "count": 298,
      "cell_deg": 0.5,
      "sources": {
        "GDELT": 298,
        "GDELT_DOC": 0,
        "DIRECT_FEED": 0,
        "USGS": 0,
        "GDACS": 0
      },
      "last7_score": 84.676,
      "prev7_score": 22.749,
      "trend": "up",
      "trend_arrow": "🔺",
      "change_pct": 272.2,
      "place": "Harghita, Romania"
    },
    {
      "lon": 24.25,
      "lat": 56.75,
      "type": "hotspot_cell",
      "score": 104.412,
      "count": 170,
      "cell_deg": 0.5,
      "sources": {
        "GDELT": 42,
        "GDELT_DOC": 0,
        "DIRECT_FEED": 128,
        "USGS": 0,
        "GDACS": 0
      },
      "last7_score": 101.053,
      "prev7_score": 3.358,
      "trend": "up",
      "trend_arrow": "🔺",
      "change_pct": 2908.9,
      "place": "Ķekavas novads, Latvia"
    },
    {
      "lon": 27.75,
      "lat": 47.25,
      "type": "hotspot_cell",
      "score": 56.408,
      "count": 90,
      "cell_deg": 0.5,
      "sources": {
        "GDELT": 0,
        "GDELT_DOC": 90,
        "DIRECT_FEED": 0,
        "USGS": 0,
        "GDACS": 0
      },
      "last7_score": 56.408,
      "prev7_score": 0.0,
      "trend": "new",
      "trend_arrow": "🆕",
      "change_pct": null,
      "place": "Iași, Romania"
    },
    {
      "lon": 21.25,
      "lat": 52.25,
      "type": "hotspot_cell",
      "score": 50.259,
      "count": 128,
      "cell_deg": 0.5,
      "sources": {
        "GDELT": 128,
        "GDELT_DOC": 0,
        "DIRECT_FEED": 0,
        "USGS": 0,
        "GDACS": 0
      },
      "last7_score": 41.048,
      "prev7_score": 9.21,
      "trend": "up",
      "trend_arrow": "🔺",
      "change_pct": 345.7,
      "place": "Warsaw, Poland"
    }
  ]
}