{
  "generated_utc": "2026-07-01T09:38:41Z",
  "top": [
    {
      "lon": 26.25,
      "lat": 44.25,
      "type": "hotspot_cell",
      "score": 486.442,
      "count": 919,
      "cell_deg": 0.5,
      "sources": {
        "GDELT": 133,
        "GDELT_DOC": 779,
        "DIRECT_FEED": 7,
        "USGS": 0,
        "GDACS": 0
      },
      "last7_score": 477.994,
      "prev7_score": 8.448,
      "trend": "up",
      "trend_arrow": "🔺",
      "change_pct": 5557.8,
      "place": "Giurgiu, Romania"
    },
    {
      "lon": 14.25,
      "lat": 50.25,
      "type": "hotspot_cell",
      "score": 469.895,
      "count": 935,
      "cell_deg": 0.5,
      "sources": {
        "GDELT": 132,
        "GDELT_DOC": 795,
        "DIRECT_FEED": 8,
        "USGS": 0,
        "GDACS": 0
      },
      "last7_score": 459.644,
      "prev7_score": 10.251,
      "trend": "up",
      "trend_arrow": "🔺",
      "change_pct": 4383.9,
      "place": "SO ORP Kralupy nad Vltavou, Czechia"
    },
    {
      "lon": 25.25,
      "lat": 54.75,
      "type": "hotspot_cell",
      "score": 377.74,
      "count": 615,
      "cell_deg": 0.5,
      "sources": {
        "GDELT": 58,
        "GDELT_DOC": 557,
        "DIRECT_FEED": 0,
        "USGS": 0,
        "GDACS": 0
      },
      "last7_score": 373.158,
      "prev7_score": 4.582,
      "trend": "up",
      "trend_arrow": "🔺",
      "change_pct": 8044.0,
      "place": "Vilnius County, Lithuania"
    },
    {
      "lon": 20.25,
      "lat": 52.25,
      "type": "hotspot_cell",
      "score": 195.616,
      "count": 516,
      "cell_deg": 0.5,
      "sources": {
        "GDELT": 516,
        "GDELT_DOC": 0,
        "DIRECT_FEED": 0,
        "USGS": 0,
        "GDACS": 0
      },
      "last7_score": 160.207,
      "prev7_score": 35.409,
      "trend": "up",
      "trend_arrow": "🔺",
      "change_pct": 352.4,
      "place": "Sochaczew County, Poland"
    },
    {
      "lon": 19.25,
      "lat": 47.75,
      "type": "hotspot_cell",
      "score": 188.686,
      "count": 351,
      "cell_deg": 0.5,
      "sources": {
        "GDELT": 187,
        "GDELT_DOC": 0,
        "DIRECT_FEED": 164,
        "USGS": 0,
        "GDACS": 0
      },
      "last7_score": 173.796,
      "prev7_score": 14.89,
      "trend": "up",
      "trend_arrow": "🔺",
      "change_pct": 1067.2,
      "place": "Pest, Hungary"
    },
    {
      "lon": 24.25,
      "lat": 56.75,
      "type": "hotspot_cell",
      "score": 122.087,
      "count": 183,
      "cell_deg": 0.5,
      "sources": {
        "GDELT": 29,
        "GDELT_DOC": 0,
        "DIRECT_FEED": 154,
        "USGS": 0,
        "GDACS": 0
      },
      "last7_score": 119.694,
      "prev7_score": 2.393,
      "trend": "up",
      "trend_arrow": "🔺",
      "change_pct": 4901.9,
      "place": "Ķekavas novads, Latvia"
    },
    {
      "lon": 25.25,
      "lat": 46.25,
      "type": "hotspot_cell",
      "score": 120.274,
      "count": 348,
      "cell_deg": 0.5,
      "sources": {
        "GDELT": 348,
        "GDELT_DOC": 0,
        "DIRECT_FEED": 0,
        "USGS": 0,
        "GDACS": 0
      },
      "last7_score": 93.948,
      "prev7_score": 26.325,
      "trend": "up",
      "trend_arrow": "🔺",
      "change_pct": 256.9,
      "place": "Harghita, Romania"
    },
    {
      "lon": 21.25,
      "lat": 52.25,
      "type": "hotspot_cell",
      "score": 103.825,
      "count": 338,
      "cell_deg": 0.5,
      "sources": {
        "GDELT": 338,
        "GDELT_DOC": 0,
        "DIRECT_FEED": 0,
        "USGS": 0,
        "GDACS": 0
      },
      "last7_score": 76.211,
      "prev7_score": 27.614,
      "trend": "up",
      "trend_arrow": "🔺",
      "change_pct": 176.0,
      "place": "Warsaw, Poland"
    },
    {
      "lon": 15.25,
      "lat": 49.75,
      "type": "hotspot_cell",
      "score": 61.608,
      "count": 157,
      "cell_deg": 0.5,
      "sources": {
        "GDELT": 157,
        "GDELT_DOC": 0,
        "DIRECT_FEED": 0,
        "USGS": 0,
        "GDACS": 0
      },
      "last7_score": 51.005,
      "prev7_score": 10.603,
      "trend": "up",
      "trend_arrow": "🔺",
      "change_pct": 381.0,
      "place": "Vysočina Region, Czechia"
    },
    {
      "lon": 20.25,
      "lat": 47.25,
      "type": "hotspot_cell",
      "score": 58.782,
      "count": 190,
      "cell_deg": 0.5,
      "sources": {
        "GDELT": 190,
        "GDELT_DOC": 0,
        "DIRECT_FEED": 0,
        "USGS": 0,
        "GDACS": 0
      },
      "last7_score": 41.561,
      "prev7_score": 17.221,
      "trend": "up",
      "trend_arrow": "🔺",
      "change_pct": 141.3,
      "place": "Jász-Nagykun-Szolnok, Hungary"
    }
  ]
}