{
  "generated_utc": "2026-03-23T13:15:48Z",
  "top": [
    {
      "lon": 14.25,
      "lat": 50.25,
      "type": "hotspot_cell",
      "score": 770.526,
      "count": 1374,
      "cell_deg": 0.5,
      "sources": {
        "GDELT": 118,
        "GDELT_DOC": 1253,
        "DIRECT_FEED": 3,
        "USGS": 0,
        "GDACS": 0
      },
      "last7_score": 762.926,
      "prev7_score": 7.601,
      "trend": "up",
      "trend_arrow": "🔺",
      "change_pct": 9937.8,
      "place": "SO ORP Kralupy nad Vltavou, Czechia"
    },
    {
      "lon": 26.25,
      "lat": 44.25,
      "type": "hotspot_cell",
      "score": 659.268,
      "count": 1251,
      "cell_deg": 0.5,
      "sources": {
        "GDELT": 187,
        "GDELT_DOC": 1064,
        "DIRECT_FEED": 0,
        "USGS": 0,
        "GDACS": 0
      },
      "last7_score": 645.696,
      "prev7_score": 13.572,
      "trend": "up",
      "trend_arrow": "🔺",
      "change_pct": 4657.5,
      "place": "Giurgiu, Romania"
    },
    {
      "lon": 25.25,
      "lat": 54.75,
      "type": "hotspot_cell",
      "score": 523.115,
      "count": 928,
      "cell_deg": 0.5,
      "sources": {
        "GDELT": 88,
        "GDELT_DOC": 840,
        "DIRECT_FEED": 0,
        "USGS": 0,
        "GDACS": 0
      },
      "last7_score": 518.322,
      "prev7_score": 4.793,
      "trend": "up",
      "trend_arrow": "🔺",
      "change_pct": 10714.4,
      "place": "Vilnius County, Lithuania"
    },
    {
      "lon": 19.25,
      "lat": 47.75,
      "type": "hotspot_cell",
      "score": 246.229,
      "count": 566,
      "cell_deg": 0.5,
      "sources": {
        "GDELT": 351,
        "GDELT_DOC": 0,
        "DIRECT_FEED": 215,
        "USGS": 0,
        "GDACS": 0
      },
      "last7_score": 220.69,
      "prev7_score": 25.539,
      "trend": "up",
      "trend_arrow": "🔺",
      "change_pct": 764.1,
      "place": "Pest, Hungary"
    },
    {
      "lon": 20.25,
      "lat": 47.25,
      "type": "hotspot_cell",
      "score": 140.723,
      "count": 399,
      "cell_deg": 0.5,
      "sources": {
        "GDELT": 399,
        "GDELT_DOC": 0,
        "DIRECT_FEED": 0,
        "USGS": 0,
        "GDACS": 0
      },
      "last7_score": 112.756,
      "prev7_score": 27.967,
      "trend": "up",
      "trend_arrow": "🔺",
      "change_pct": 303.2,
      "place": "Jász-Nagykun-Szolnok, Hungary"
    },
    {
      "lon": 20.25,
      "lat": 52.25,
      "type": "hotspot_cell",
      "score": 131.061,
      "count": 402,
      "cell_deg": 0.5,
      "sources": {
        "GDELT": 402,
        "GDELT_DOC": 0,
        "DIRECT_FEED": 0,
        "USGS": 0,
        "GDACS": 0
      },
      "last7_score": 104.307,
      "prev7_score": 26.754,
      "trend": "up",
      "trend_arrow": "🔺",
      "change_pct": 289.9,
      "place": "Sochaczew County, Poland"
    },
    {
      "lon": 25.25,
      "lat": 46.25,
      "type": "hotspot_cell",
      "score": 103.955,
      "count": 321,
      "cell_deg": 0.5,
      "sources": {
        "GDELT": 321,
        "GDELT_DOC": 0,
        "DIRECT_FEED": 0,
        "USGS": 0,
        "GDACS": 0
      },
      "last7_score": 82.84,
      "prev7_score": 21.115,
      "trend": "up",
      "trend_arrow": "🔺",
      "change_pct": 292.3,
      "place": "Harghita, Romania"
    },
    {
      "lon": 24.25,
      "lat": 56.75,
      "type": "hotspot_cell",
      "score": 99.662,
      "count": 166,
      "cell_deg": 0.5,
      "sources": {
        "GDELT": 36,
        "GDELT_DOC": 0,
        "DIRECT_FEED": 130,
        "USGS": 0,
        "GDACS": 0
      },
      "last7_score": 97.076,
      "prev7_score": 2.586,
      "trend": "up",
      "trend_arrow": "🔺",
      "change_pct": 3653.7,
      "place": "Ķekavas novads, Latvia"
    },
    {
      "lon": 15.25,
      "lat": 49.75,
      "type": "hotspot_cell",
      "score": 63.927,
      "count": 171,
      "cell_deg": 0.5,
      "sources": {
        "GDELT": 171,
        "GDELT_DOC": 0,
        "DIRECT_FEED": 0,
        "USGS": 0,
        "GDACS": 0
      },
      "last7_score": 55.268,
      "prev7_score": 8.658,
      "trend": "up",
      "trend_arrow": "🔺",
      "change_pct": 538.3,
      "place": "Vysočina Region, Czechia"
    },
    {
      "lon": 21.25,
      "lat": 52.25,
      "type": "hotspot_cell",
      "score": 47.599,
      "count": 175,
      "cell_deg": 0.5,
      "sources": {
        "GDELT": 175,
        "GDELT_DOC": 0,
        "DIRECT_FEED": 0,
        "USGS": 0,
        "GDACS": 0
      },
      "last7_score": 35.257,
      "prev7_score": 12.342,
      "trend": "up",
      "trend_arrow": "🔺",
      "change_pct": 185.7,
      "place": "Warsaw, Poland"
    }
  ]
}