{
  "generated_utc": "2026-03-08T02:13:55Z",
  "top": [
    {
      "lon": 14.25,
      "lat": 50.25,
      "type": "hotspot_cell",
      "score": 421.109,
      "count": 519,
      "cell_deg": 0.5,
      "sources": {
        "GDELT": 158,
        "GDELT_DOC": 361,
        "DIRECT_FEED": 0,
        "USGS": 0,
        "GDACS": 0
      },
      "last7_score": 411.922,
      "prev7_score": 9.187,
      "trend": "up",
      "trend_arrow": "🔺",
      "change_pct": 4383.6,
      "place": "SO ORP Kralupy nad Vltavou, Czechia"
    },
    {
      "lon": 26.25,
      "lat": 44.25,
      "type": "hotspot_cell",
      "score": 336.916,
      "count": 452,
      "cell_deg": 0.5,
      "sources": {
        "GDELT": 178,
        "GDELT_DOC": 274,
        "DIRECT_FEED": 0,
        "USGS": 0,
        "GDACS": 0
      },
      "last7_score": 326.554,
      "prev7_score": 10.362,
      "trend": "up",
      "trend_arrow": "🔺",
      "change_pct": 3051.6,
      "place": "Giurgiu, Romania"
    },
    {
      "lon": 19.25,
      "lat": 47.75,
      "type": "hotspot_cell",
      "score": 235.125,
      "count": 509,
      "cell_deg": 0.5,
      "sources": {
        "GDELT": 461,
        "GDELT_DOC": 0,
        "DIRECT_FEED": 48,
        "USGS": 0,
        "GDACS": 0
      },
      "last7_score": 208.184,
      "prev7_score": 26.94,
      "trend": "up",
      "trend_arrow": "🔺",
      "change_pct": 672.8,
      "place": "Pest, Hungary"
    },
    {
      "lon": 25.25,
      "lat": 54.75,
      "type": "hotspot_cell",
      "score": 212.456,
      "count": 266,
      "cell_deg": 0.5,
      "sources": {
        "GDELT": 74,
        "GDELT_DOC": 192,
        "DIRECT_FEED": 0,
        "USGS": 0,
        "GDACS": 0
      },
      "last7_score": 207.36,
      "prev7_score": 5.096,
      "trend": "up",
      "trend_arrow": "🔺",
      "change_pct": 3969.4,
      "place": "Vilnius County, Lithuania"
    },
    {
      "lon": 20.25,
      "lat": 52.25,
      "type": "hotspot_cell",
      "score": 192.699,
      "count": 543,
      "cell_deg": 0.5,
      "sources": {
        "GDELT": 543,
        "GDELT_DOC": 0,
        "DIRECT_FEED": 0,
        "USGS": 0,
        "GDACS": 0
      },
      "last7_score": 153.676,
      "prev7_score": 39.023,
      "trend": "up",
      "trend_arrow": "🔺",
      "change_pct": 293.8,
      "place": "Sochaczew County, Poland"
    },
    {
      "lon": 20.25,
      "lat": 47.25,
      "type": "hotspot_cell",
      "score": 132.607,
      "count": 401,
      "cell_deg": 0.5,
      "sources": {
        "GDELT": 401,
        "GDELT_DOC": 0,
        "DIRECT_FEED": 0,
        "USGS": 0,
        "GDACS": 0
      },
      "last7_score": 104.057,
      "prev7_score": 28.55,
      "trend": "up",
      "trend_arrow": "🔺",
      "change_pct": 264.5,
      "place": "Jász-Nagykun-Szolnok, Hungary"
    },
    {
      "lon": 25.25,
      "lat": 46.25,
      "type": "hotspot_cell",
      "score": 107.442,
      "count": 324,
      "cell_deg": 0.5,
      "sources": {
        "GDELT": 324,
        "GDELT_DOC": 0,
        "DIRECT_FEED": 0,
        "USGS": 0,
        "GDACS": 0
      },
      "last7_score": 86.353,
      "prev7_score": 21.089,
      "trend": "up",
      "trend_arrow": "🔺",
      "change_pct": 309.5,
      "place": "Harghita, Romania"
    },
    {
      "lon": 21.25,
      "lat": 52.25,
      "type": "hotspot_cell",
      "score": 94.129,
      "count": 245,
      "cell_deg": 0.5,
      "sources": {
        "GDELT": 245,
        "GDELT_DOC": 0,
        "DIRECT_FEED": 0,
        "USGS": 0,
        "GDACS": 0
      },
      "last7_score": 76.612,
      "prev7_score": 17.517,
      "trend": "up",
      "trend_arrow": "🔺",
      "change_pct": 337.4,
      "place": "Warsaw, Poland"
    },
    {
      "lon": 15.25,
      "lat": 49.75,
      "type": "hotspot_cell",
      "score": 66.537,
      "count": 167,
      "cell_deg": 0.5,
      "sources": {
        "GDELT": 167,
        "GDELT_DOC": 0,
        "DIRECT_FEED": 0,
        "USGS": 0,
        "GDACS": 0
      },
      "last7_score": 55.611,
      "prev7_score": 10.926,
      "trend": "up",
      "trend_arrow": "🔺",
      "change_pct": 409.0,
      "place": "Vysočina Region, Czechia"
    },
    {
      "lon": 24.25,
      "lat": 56.25,
      "type": "hotspot_cell",
      "score": 56.214,
      "count": 154,
      "cell_deg": 0.5,
      "sources": {
        "GDELT": 154,
        "GDELT_DOC": 0,
        "DIRECT_FEED": 0,
        "USGS": 0,
        "GDACS": 0
      },
      "last7_score": 46.374,
      "prev7_score": 9.84,
      "trend": "up",
      "trend_arrow": "🔺",
      "change_pct": 371.3,
      "place": "Namišių seniūnija, Lithuania"
    }
  ]
}