{
  "generated_utc": "2026-03-30T02:41:58Z",
  "top": [
    {
      "lon": 14.25,
      "lat": 50.25,
      "type": "hotspot_cell",
      "score": 821.813,
      "count": 1431,
      "cell_deg": 0.5,
      "sources": {
        "GDELT": 118,
        "GDELT_DOC": 1311,
        "DIRECT_FEED": 2,
        "USGS": 0,
        "GDACS": 0
      },
      "last7_score": 814.135,
      "prev7_score": 7.677,
      "trend": "up",
      "trend_arrow": "🔺",
      "change_pct": 10504.2,
      "place": "SO ORP Kralupy nad Vltavou, Czechia"
    },
    {
      "lon": 26.25,
      "lat": 44.25,
      "type": "hotspot_cell",
      "score": 664.587,
      "count": 1159,
      "cell_deg": 0.5,
      "sources": {
        "GDELT": 127,
        "GDELT_DOC": 1030,
        "DIRECT_FEED": 2,
        "USGS": 0,
        "GDACS": 0
      },
      "last7_score": 654.081,
      "prev7_score": 10.506,
      "trend": "up",
      "trend_arrow": "🔺",
      "change_pct": 6125.9,
      "place": "Giurgiu, Romania"
    },
    {
      "lon": 25.25,
      "lat": 54.75,
      "type": "hotspot_cell",
      "score": 655.554,
      "count": 1036,
      "cell_deg": 0.5,
      "sources": {
        "GDELT": 86,
        "GDELT_DOC": 950,
        "DIRECT_FEED": 0,
        "USGS": 0,
        "GDACS": 0
      },
      "last7_score": 648.439,
      "prev7_score": 7.115,
      "trend": "up",
      "trend_arrow": "🔺",
      "change_pct": 9013.7,
      "place": "Vilnius County, Lithuania"
    },
    {
      "lon": 19.25,
      "lat": 47.75,
      "type": "hotspot_cell",
      "score": 222.716,
      "count": 518,
      "cell_deg": 0.5,
      "sources": {
        "GDELT": 307,
        "GDELT_DOC": 0,
        "DIRECT_FEED": 211,
        "USGS": 0,
        "GDACS": 0
      },
      "last7_score": 198.77,
      "prev7_score": 23.946,
      "trend": "up",
      "trend_arrow": "🔺",
      "change_pct": 730.1,
      "place": "Pest, Hungary"
    },
    {
      "lon": 20.25,
      "lat": 52.25,
      "type": "hotspot_cell",
      "score": 159.064,
      "count": 431,
      "cell_deg": 0.5,
      "sources": {
        "GDELT": 431,
        "GDELT_DOC": 0,
        "DIRECT_FEED": 0,
        "USGS": 0,
        "GDACS": 0
      },
      "last7_score": 130.941,
      "prev7_score": 28.123,
      "trend": "up",
      "trend_arrow": "🔺",
      "change_pct": 365.6,
      "place": "Sochaczew County, Poland"
    },
    {
      "lon": 24.25,
      "lat": 56.75,
      "type": "hotspot_cell",
      "score": 110.061,
      "count": 193,
      "cell_deg": 0.5,
      "sources": {
        "GDELT": 40,
        "GDELT_DOC": 0,
        "DIRECT_FEED": 153,
        "USGS": 0,
        "GDACS": 0
      },
      "last7_score": 107.678,
      "prev7_score": 2.382,
      "trend": "up",
      "trend_arrow": "🔺",
      "change_pct": 4419.6,
      "place": "Ķekavas novads, Latvia"
    },
    {
      "lon": 20.25,
      "lat": 47.25,
      "type": "hotspot_cell",
      "score": 96.019,
      "count": 335,
      "cell_deg": 0.5,
      "sources": {
        "GDELT": 335,
        "GDELT_DOC": 0,
        "DIRECT_FEED": 0,
        "USGS": 0,
        "GDACS": 0
      },
      "last7_score": 66.694,
      "prev7_score": 29.326,
      "trend": "up",
      "trend_arrow": "🔺",
      "change_pct": 127.4,
      "place": "Jász-Nagykun-Szolnok, Hungary"
    },
    {
      "lon": 25.25,
      "lat": 46.25,
      "type": "hotspot_cell",
      "score": 90.892,
      "count": 297,
      "cell_deg": 0.5,
      "sources": {
        "GDELT": 297,
        "GDELT_DOC": 0,
        "DIRECT_FEED": 0,
        "USGS": 0,
        "GDACS": 0
      },
      "last7_score": 69.124,
      "prev7_score": 21.767,
      "trend": "up",
      "trend_arrow": "🔺",
      "change_pct": 217.6,
      "place": "Harghita, Romania"
    },
    {
      "lon": 27.75,
      "lat": 47.25,
      "type": "hotspot_cell",
      "score": 51.817,
      "count": 96,
      "cell_deg": 0.5,
      "sources": {
        "GDELT": 0,
        "GDELT_DOC": 96,
        "DIRECT_FEED": 0,
        "USGS": 0,
        "GDACS": 0
      },
      "last7_score": 51.817,
      "prev7_score": 0.0,
      "trend": "new",
      "trend_arrow": "🆕",
      "change_pct": null,
      "place": "Iași, Romania"
    },
    {
      "lon": 15.25,
      "lat": 49.75,
      "type": "hotspot_cell",
      "score": 48.085,
      "count": 167,
      "cell_deg": 0.5,
      "sources": {
        "GDELT": 167,
        "GDELT_DOC": 0,
        "DIRECT_FEED": 0,
        "USGS": 0,
        "GDACS": 0
      },
      "last7_score": 34.16,
      "prev7_score": 13.925,
      "trend": "up",
      "trend_arrow": "🔺",
      "change_pct": 145.3,
      "place": "Vysočina Region, Czechia"
    }
  ]
}