{
  "generated_utc": "2026-07-18T13:04:08Z",
  "top": [
    {
      "lon": 14.25,
      "lat": 50.25,
      "type": "hotspot_cell",
      "score": 639.793,
      "count": 1054,
      "cell_deg": 0.5,
      "sources": {
        "GDELT": 106,
        "GDELT_DOC": 943,
        "DIRECT_FEED": 5,
        "USGS": 0,
        "GDACS": 0
      },
      "last7_score": 633.383,
      "prev7_score": 6.411,
      "trend": "up",
      "trend_arrow": "🔺",
      "change_pct": 9780.1,
      "place": "SO ORP Kralupy nad Vltavou, Czechia"
    },
    {
      "lon": 26.25,
      "lat": 44.25,
      "type": "hotspot_cell",
      "score": 571.524,
      "count": 865,
      "cell_deg": 0.5,
      "sources": {
        "GDELT": 100,
        "GDELT_DOC": 762,
        "DIRECT_FEED": 3,
        "USGS": 0,
        "GDACS": 0
      },
      "last7_score": 564.529,
      "prev7_score": 6.995,
      "trend": "up",
      "trend_arrow": "🔺",
      "change_pct": 7970.2,
      "place": "Giurgiu, Romania"
    },
    {
      "lon": 25.25,
      "lat": 54.75,
      "type": "hotspot_cell",
      "score": 423.222,
      "count": 659,
      "cell_deg": 0.5,
      "sources": {
        "GDELT": 79,
        "GDELT_DOC": 580,
        "DIRECT_FEED": 0,
        "USGS": 0,
        "GDACS": 0
      },
      "last7_score": 418.812,
      "prev7_score": 4.41,
      "trend": "up",
      "trend_arrow": "🔺",
      "change_pct": 9396.1,
      "place": "Vilnius County, Lithuania"
    },
    {
      "lon": 19.25,
      "lat": 47.75,
      "type": "hotspot_cell",
      "score": 185.32,
      "count": 347,
      "cell_deg": 0.5,
      "sources": {
        "GDELT": 162,
        "GDELT_DOC": 0,
        "DIRECT_FEED": 185,
        "USGS": 0,
        "GDACS": 0
      },
      "last7_score": 174.757,
      "prev7_score": 10.563,
      "trend": "up",
      "trend_arrow": "🔺",
      "change_pct": 1554.4,
      "place": "Pest, Hungary"
    },
    {
      "lon": 20.25,
      "lat": 52.25,
      "type": "hotspot_cell",
      "score": 173.674,
      "count": 470,
      "cell_deg": 0.5,
      "sources": {
        "GDELT": 470,
        "GDELT_DOC": 0,
        "DIRECT_FEED": 0,
        "USGS": 0,
        "GDACS": 0
      },
      "last7_score": 145.897,
      "prev7_score": 27.777,
      "trend": "up",
      "trend_arrow": "🔺",
      "change_pct": 425.2,
      "place": "Sochaczew County, Poland"
    },
    {
      "lon": 25.25,
      "lat": 46.25,
      "type": "hotspot_cell",
      "score": 142.082,
      "count": 390,
      "cell_deg": 0.5,
      "sources": {
        "GDELT": 390,
        "GDELT_DOC": 0,
        "DIRECT_FEED": 0,
        "USGS": 0,
        "GDACS": 0
      },
      "last7_score": 115.401,
      "prev7_score": 26.681,
      "trend": "up",
      "trend_arrow": "🔺",
      "change_pct": 332.5,
      "place": "Harghita, Romania"
    },
    {
      "lon": 24.25,
      "lat": 56.75,
      "type": "hotspot_cell",
      "score": 95.728,
      "count": 148,
      "cell_deg": 0.5,
      "sources": {
        "GDELT": 18,
        "GDELT_DOC": 0,
        "DIRECT_FEED": 130,
        "USGS": 0,
        "GDACS": 0
      },
      "last7_score": 94.71,
      "prev7_score": 1.017,
      "trend": "up",
      "trend_arrow": "🔺",
      "change_pct": 9210.0,
      "place": "Ķekavas novads, Latvia"
    },
    {
      "lon": 21.25,
      "lat": 52.25,
      "type": "hotspot_cell",
      "score": 90.219,
      "count": 228,
      "cell_deg": 0.5,
      "sources": {
        "GDELT": 228,
        "GDELT_DOC": 0,
        "DIRECT_FEED": 0,
        "USGS": 0,
        "GDACS": 0
      },
      "last7_score": 75.671,
      "prev7_score": 14.548,
      "trend": "up",
      "trend_arrow": "🔺",
      "change_pct": 420.2,
      "place": "Warsaw, Poland"
    },
    {
      "lon": 20.25,
      "lat": 47.25,
      "type": "hotspot_cell",
      "score": 76.976,
      "count": 204,
      "cell_deg": 0.5,
      "sources": {
        "GDELT": 204,
        "GDELT_DOC": 0,
        "DIRECT_FEED": 0,
        "USGS": 0,
        "GDACS": 0
      },
      "last7_score": 64.014,
      "prev7_score": 12.962,
      "trend": "up",
      "trend_arrow": "🔺",
      "change_pct": 393.8,
      "place": "Jász-Nagykun-Szolnok, Hungary"
    },
    {
      "lon": 22.25,
      "lat": 55.25,
      "type": "hotspot_cell",
      "score": 61.779,
      "count": 63,
      "cell_deg": 0.5,
      "sources": {
        "GDELT": 0,
        "GDELT_DOC": 62,
        "DIRECT_FEED": 1,
        "USGS": 0,
        "GDACS": 0
      },
      "last7_score": 61.779,
      "prev7_score": 0.0,
      "trend": "new",
      "trend_arrow": "🆕",
      "change_pct": null,
      "place": "Tauragės seniūnija, Lithuania"
    }
  ]
}