{
  "generated_utc": "2026-07-24T08:19:17Z",
  "top": [
    {
      "lon": 26.25,
      "lat": 44.25,
      "type": "hotspot_cell",
      "score": 751.48,
      "count": 1140,
      "cell_deg": 0.5,
      "sources": {
        "GDELT": 135,
        "GDELT_DOC": 1000,
        "DIRECT_FEED": 5,
        "USGS": 0,
        "GDACS": 0
      },
      "last7_score": 744.323,
      "prev7_score": 7.157,
      "trend": "up",
      "trend_arrow": "🔺",
      "change_pct": 10300.1,
      "place": "Giurgiu, Romania"
    },
    {
      "lon": 14.25,
      "lat": 50.25,
      "type": "hotspot_cell",
      "score": 690.504,
      "count": 1091,
      "cell_deg": 0.5,
      "sources": {
        "GDELT": 100,
        "GDELT_DOC": 989,
        "DIRECT_FEED": 2,
        "USGS": 0,
        "GDACS": 0
      },
      "last7_score": 680.777,
      "prev7_score": 9.727,
      "trend": "up",
      "trend_arrow": "🔺",
      "change_pct": 6898.9,
      "place": "SO ORP Kralupy nad Vltavou, Czechia"
    },
    {
      "lon": 25.25,
      "lat": 54.75,
      "type": "hotspot_cell",
      "score": 391.71,
      "count": 687,
      "cell_deg": 0.5,
      "sources": {
        "GDELT": 68,
        "GDELT_DOC": 619,
        "DIRECT_FEED": 0,
        "USGS": 0,
        "GDACS": 0
      },
      "last7_score": 385.088,
      "prev7_score": 6.622,
      "trend": "up",
      "trend_arrow": "🔺",
      "change_pct": 5715.5,
      "place": "Vilnius County, Lithuania"
    },
    {
      "lon": 19.25,
      "lat": 47.75,
      "type": "hotspot_cell",
      "score": 203.677,
      "count": 359,
      "cell_deg": 0.5,
      "sources": {
        "GDELT": 178,
        "GDELT_DOC": 0,
        "DIRECT_FEED": 181,
        "USGS": 0,
        "GDACS": 0
      },
      "last7_score": 190.669,
      "prev7_score": 13.008,
      "trend": "up",
      "trend_arrow": "🔺",
      "change_pct": 1365.8,
      "place": "Pest, Hungary"
    },
    {
      "lon": 25.25,
      "lat": 46.25,
      "type": "hotspot_cell",
      "score": 171.661,
      "count": 423,
      "cell_deg": 0.5,
      "sources": {
        "GDELT": 423,
        "GDELT_DOC": 0,
        "DIRECT_FEED": 0,
        "USGS": 0,
        "GDACS": 0
      },
      "last7_score": 141.568,
      "prev7_score": 30.093,
      "trend": "up",
      "trend_arrow": "🔺",
      "change_pct": 370.4,
      "place": "Harghita, Romania"
    },
    {
      "lon": 20.25,
      "lat": 52.25,
      "type": "hotspot_cell",
      "score": 140.584,
      "count": 404,
      "cell_deg": 0.5,
      "sources": {
        "GDELT": 404,
        "GDELT_DOC": 0,
        "DIRECT_FEED": 0,
        "USGS": 0,
        "GDACS": 0
      },
      "last7_score": 104.229,
      "prev7_score": 36.355,
      "trend": "up",
      "trend_arrow": "🔺",
      "change_pct": 186.7,
      "place": "Sochaczew County, Poland"
    },
    {
      "lon": 24.25,
      "lat": 56.75,
      "type": "hotspot_cell",
      "score": 109.109,
      "count": 151,
      "cell_deg": 0.5,
      "sources": {
        "GDELT": 23,
        "GDELT_DOC": 0,
        "DIRECT_FEED": 128,
        "USGS": 0,
        "GDACS": 0
      },
      "last7_score": 107.621,
      "prev7_score": 1.488,
      "trend": "up",
      "trend_arrow": "🔺",
      "change_pct": 7133.2,
      "place": "Ķekavas novads, Latvia"
    },
    {
      "lon": 21.25,
      "lat": 52.25,
      "type": "hotspot_cell",
      "score": 61.327,
      "count": 191,
      "cell_deg": 0.5,
      "sources": {
        "GDELT": 191,
        "GDELT_DOC": 0,
        "DIRECT_FEED": 0,
        "USGS": 0,
        "GDACS": 0
      },
      "last7_score": 42.186,
      "prev7_score": 19.141,
      "trend": "up",
      "trend_arrow": "🔺",
      "change_pct": 120.4,
      "place": "Warsaw, Poland"
    },
    {
      "lon": 20.25,
      "lat": 47.25,
      "type": "hotspot_cell",
      "score": 59.962,
      "count": 173,
      "cell_deg": 0.5,
      "sources": {
        "GDELT": 173,
        "GDELT_DOC": 0,
        "DIRECT_FEED": 0,
        "USGS": 0,
        "GDACS": 0
      },
      "last7_score": 43.501,
      "prev7_score": 16.461,
      "trend": "up",
      "trend_arrow": "🔺",
      "change_pct": 164.3,
      "place": "Jász-Nagykun-Szolnok, Hungary"
    },
    {
      "lon": 15.25,
      "lat": 49.75,
      "type": "hotspot_cell",
      "score": 47.662,
      "count": 127,
      "cell_deg": 0.5,
      "sources": {
        "GDELT": 127,
        "GDELT_DOC": 0,
        "DIRECT_FEED": 0,
        "USGS": 0,
        "GDACS": 0
      },
      "last7_score": 37.451,
      "prev7_score": 10.211,
      "trend": "up",
      "trend_arrow": "🔺",
      "change_pct": 266.8,
      "place": "Vysočina Region, Czechia"
    }
  ]
}