{
  "generated_utc": "2026-05-23T03:03:51Z",
  "top": [
    {
      "lon": 26.25,
      "lat": 44.25,
      "type": "hotspot_cell",
      "score": 950.497,
      "count": 1610,
      "cell_deg": 0.5,
      "sources": {
        "GDELT": 191,
        "GDELT_DOC": 1417,
        "DIRECT_FEED": 2,
        "USGS": 0,
        "GDACS": 0
      },
      "last7_score": 931.558,
      "prev7_score": 18.938,
      "trend": "up",
      "trend_arrow": "🔺",
      "change_pct": 4818.9,
      "place": "Giurgiu, Romania"
    },
    {
      "lon": 14.25,
      "lat": 50.25,
      "type": "hotspot_cell",
      "score": 912.015,
      "count": 1395,
      "cell_deg": 0.5,
      "sources": {
        "GDELT": 129,
        "GDELT_DOC": 1252,
        "DIRECT_FEED": 14,
        "USGS": 0,
        "GDACS": 0
      },
      "last7_score": 902.833,
      "prev7_score": 9.182,
      "trend": "up",
      "trend_arrow": "🔺",
      "change_pct": 9732.4,
      "place": "SO ORP Kralupy nad Vltavou, Czechia"
    },
    {
      "lon": 25.25,
      "lat": 54.75,
      "type": "hotspot_cell",
      "score": 697.405,
      "count": 1060,
      "cell_deg": 0.5,
      "sources": {
        "GDELT": 101,
        "GDELT_DOC": 958,
        "DIRECT_FEED": 1,
        "USGS": 0,
        "GDACS": 0
      },
      "last7_score": 692.094,
      "prev7_score": 5.31,
      "trend": "up",
      "trend_arrow": "🔺",
      "change_pct": 12933.2,
      "place": "Vilnius County, Lithuania"
    },
    {
      "lon": 20.25,
      "lat": 52.25,
      "type": "hotspot_cell",
      "score": 415.132,
      "count": 773,
      "cell_deg": 0.5,
      "sources": {
        "GDELT": 773,
        "GDELT_DOC": 0,
        "DIRECT_FEED": 0,
        "USGS": 0,
        "GDACS": 0
      },
      "last7_score": 362.722,
      "prev7_score": 52.41,
      "trend": "up",
      "trend_arrow": "🔺",
      "change_pct": 592.1,
      "place": "Sochaczew County, Poland"
    },
    {
      "lon": 19.25,
      "lat": 47.75,
      "type": "hotspot_cell",
      "score": 259.191,
      "count": 496,
      "cell_deg": 0.5,
      "sources": {
        "GDELT": 255,
        "GDELT_DOC": 0,
        "DIRECT_FEED": 241,
        "USGS": 0,
        "GDACS": 0
      },
      "last7_score": 239.098,
      "prev7_score": 20.093,
      "trend": "up",
      "trend_arrow": "🔺",
      "change_pct": 1089.9,
      "place": "Pest, Hungary"
    },
    {
      "lon": 25.25,
      "lat": 46.25,
      "type": "hotspot_cell",
      "score": 131.317,
      "count": 310,
      "cell_deg": 0.5,
      "sources": {
        "GDELT": 310,
        "GDELT_DOC": 0,
        "DIRECT_FEED": 0,
        "USGS": 0,
        "GDACS": 0
      },
      "last7_score": 109.858,
      "prev7_score": 21.459,
      "trend": "up",
      "trend_arrow": "🔺",
      "change_pct": 412.0,
      "place": "Harghita, Romania"
    },
    {
      "lon": 21.25,
      "lat": 52.25,
      "type": "hotspot_cell",
      "score": 130.53,
      "count": 264,
      "cell_deg": 0.5,
      "sources": {
        "GDELT": 264,
        "GDELT_DOC": 0,
        "DIRECT_FEED": 0,
        "USGS": 0,
        "GDACS": 0
      },
      "last7_score": 111.2,
      "prev7_score": 19.329,
      "trend": "up",
      "trend_arrow": "🔺",
      "change_pct": 475.3,
      "place": "Warsaw, Poland"
    },
    {
      "lon": 24.25,
      "lat": 56.75,
      "type": "hotspot_cell",
      "score": 118.114,
      "count": 174,
      "cell_deg": 0.5,
      "sources": {
        "GDELT": 51,
        "GDELT_DOC": 0,
        "DIRECT_FEED": 123,
        "USGS": 0,
        "GDACS": 0
      },
      "last7_score": 114.238,
      "prev7_score": 3.876,
      "trend": "up",
      "trend_arrow": "🔺",
      "change_pct": 2847.1,
      "place": "Ķekavas novads, Latvia"
    },
    {
      "lon": 20.25,
      "lat": 47.25,
      "type": "hotspot_cell",
      "score": 105.94,
      "count": 282,
      "cell_deg": 0.5,
      "sources": {
        "GDELT": 282,
        "GDELT_DOC": 0,
        "DIRECT_FEED": 0,
        "USGS": 0,
        "GDACS": 0
      },
      "last7_score": 84.266,
      "prev7_score": 21.675,
      "trend": "up",
      "trend_arrow": "🔺",
      "change_pct": 288.8,
      "place": "Jász-Nagykun-Szolnok, Hungary"
    },
    {
      "lon": 24.25,
      "lat": 56.25,
      "type": "hotspot_cell",
      "score": 79.366,
      "count": 174,
      "cell_deg": 0.5,
      "sources": {
        "GDELT": 174,
        "GDELT_DOC": 0,
        "DIRECT_FEED": 0,
        "USGS": 0,
        "GDACS": 0
      },
      "last7_score": 69.114,
      "prev7_score": 10.252,
      "trend": "up",
      "trend_arrow": "🔺",
      "change_pct": 574.2,
      "place": "Namišių seniūnija, Lithuania"
    }
  ]
}