{
  "generated_utc": "2026-03-18T19:07:18Z",
  "top": [
    {
      "lon": 14.25,
      "lat": 50.25,
      "type": "hotspot_cell",
      "score": 934.421,
      "count": 1511,
      "cell_deg": 0.5,
      "sources": {
        "GDELT": 125,
        "GDELT_DOC": 1382,
        "DIRECT_FEED": 4,
        "USGS": 0,
        "GDACS": 0
      },
      "last7_score": 926.22,
      "prev7_score": 8.201,
      "trend": "up",
      "trend_arrow": "🔺",
      "change_pct": 11194.5,
      "place": "SO ORP Kralupy nad Vltavou, Czechia"
    },
    {
      "lon": 26.25,
      "lat": 44.25,
      "type": "hotspot_cell",
      "score": 842.946,
      "count": 1353,
      "cell_deg": 0.5,
      "sources": {
        "GDELT": 183,
        "GDELT_DOC": 1168,
        "DIRECT_FEED": 2,
        "USGS": 0,
        "GDACS": 0
      },
      "last7_score": 832.583,
      "prev7_score": 10.363,
      "trend": "up",
      "trend_arrow": "🔺",
      "change_pct": 7934.2,
      "place": "Giurgiu, Romania"
    },
    {
      "lon": 25.25,
      "lat": 54.75,
      "type": "hotspot_cell",
      "score": 558.506,
      "count": 933,
      "cell_deg": 0.5,
      "sources": {
        "GDELT": 71,
        "GDELT_DOC": 862,
        "DIRECT_FEED": 0,
        "USGS": 0,
        "GDACS": 0
      },
      "last7_score": 554.19,
      "prev7_score": 4.317,
      "trend": "up",
      "trend_arrow": "🔺",
      "change_pct": 12738.7,
      "place": "Vilnius County, Lithuania"
    },
    {
      "lon": 19.25,
      "lat": 47.75,
      "type": "hotspot_cell",
      "score": 300.136,
      "count": 643,
      "cell_deg": 0.5,
      "sources": {
        "GDELT": 438,
        "GDELT_DOC": 0,
        "DIRECT_FEED": 205,
        "USGS": 0,
        "GDACS": 0
      },
      "last7_score": 268.488,
      "prev7_score": 31.648,
      "trend": "up",
      "trend_arrow": "🔺",
      "change_pct": 748.3,
      "place": "Pest, Hungary"
    },
    {
      "lon": 20.25,
      "lat": 52.25,
      "type": "hotspot_cell",
      "score": 171.551,
      "count": 443,
      "cell_deg": 0.5,
      "sources": {
        "GDELT": 443,
        "GDELT_DOC": 0,
        "DIRECT_FEED": 0,
        "USGS": 0,
        "GDACS": 0
      },
      "last7_score": 146.117,
      "prev7_score": 25.434,
      "trend": "up",
      "trend_arrow": "🔺",
      "change_pct": 474.5,
      "place": "Sochaczew County, Poland"
    },
    {
      "lon": 20.25,
      "lat": 47.25,
      "type": "hotspot_cell",
      "score": 143.045,
      "count": 379,
      "cell_deg": 0.5,
      "sources": {
        "GDELT": 379,
        "GDELT_DOC": 0,
        "DIRECT_FEED": 0,
        "USGS": 0,
        "GDACS": 0
      },
      "last7_score": 119.675,
      "prev7_score": 23.369,
      "trend": "up",
      "trend_arrow": "🔺",
      "change_pct": 412.1,
      "place": "Jász-Nagykun-Szolnok, Hungary"
    },
    {
      "lon": 25.25,
      "lat": 46.25,
      "type": "hotspot_cell",
      "score": 116.906,
      "count": 314,
      "cell_deg": 0.5,
      "sources": {
        "GDELT": 314,
        "GDELT_DOC": 0,
        "DIRECT_FEED": 0,
        "USGS": 0,
        "GDACS": 0
      },
      "last7_score": 95.182,
      "prev7_score": 21.724,
      "trend": "up",
      "trend_arrow": "🔺",
      "change_pct": 338.1,
      "place": "Harghita, Romania"
    },
    {
      "lon": 24.25,
      "lat": 56.75,
      "type": "hotspot_cell",
      "score": 116.368,
      "count": 171,
      "cell_deg": 0.5,
      "sources": {
        "GDELT": 35,
        "GDELT_DOC": 0,
        "DIRECT_FEED": 136,
        "USGS": 0,
        "GDACS": 0
      },
      "last7_score": 114.796,
      "prev7_score": 1.572,
      "trend": "up",
      "trend_arrow": "🔺",
      "change_pct": 7202.9,
      "place": "Ķekavas novads, Latvia"
    },
    {
      "lon": 21.25,
      "lat": 52.25,
      "type": "hotspot_cell",
      "score": 74.558,
      "count": 209,
      "cell_deg": 0.5,
      "sources": {
        "GDELT": 209,
        "GDELT_DOC": 0,
        "DIRECT_FEED": 0,
        "USGS": 0,
        "GDACS": 0
      },
      "last7_score": 63.232,
      "prev7_score": 11.326,
      "trend": "up",
      "trend_arrow": "🔺",
      "change_pct": 458.3,
      "place": "Warsaw, Poland"
    },
    {
      "lon": 27.75,
      "lat": 47.25,
      "type": "hotspot_cell",
      "score": 62.206,
      "count": 101,
      "cell_deg": 0.5,
      "sources": {
        "GDELT": 0,
        "GDELT_DOC": 101,
        "DIRECT_FEED": 0,
        "USGS": 0,
        "GDACS": 0
      },
      "last7_score": 62.206,
      "prev7_score": 0.0,
      "trend": "new",
      "trend_arrow": "🆕",
      "change_pct": null,
      "place": "Iași, Romania"
    }
  ]
}