{
  "generated_utc": "2026-03-20T07:04:17Z",
  "top": [
    {
      "lon": 26.25,
      "lat": 44.25,
      "type": "hotspot_cell",
      "score": 868.114,
      "count": 1393,
      "cell_deg": 0.5,
      "sources": {
        "GDELT": 173,
        "GDELT_DOC": 1219,
        "DIRECT_FEED": 1,
        "USGS": 0,
        "GDACS": 0
      },
      "last7_score": 850.286,
      "prev7_score": 17.828,
      "trend": "up",
      "trend_arrow": "🔺",
      "change_pct": 4669.3,
      "place": "Giurgiu, Romania"
    },
    {
      "lon": 14.25,
      "lat": 50.25,
      "type": "hotspot_cell",
      "score": 824.135,
      "count": 1360,
      "cell_deg": 0.5,
      "sources": {
        "GDELT": 105,
        "GDELT_DOC": 1253,
        "DIRECT_FEED": 2,
        "USGS": 0,
        "GDACS": 0
      },
      "last7_score": 816.451,
      "prev7_score": 7.684,
      "trend": "up",
      "trend_arrow": "🔺",
      "change_pct": 10525.8,
      "place": "SO ORP Kralupy nad Vltavou, Czechia"
    },
    {
      "lon": 25.25,
      "lat": 54.75,
      "type": "hotspot_cell",
      "score": 510.669,
      "count": 851,
      "cell_deg": 0.5,
      "sources": {
        "GDELT": 72,
        "GDELT_DOC": 779,
        "DIRECT_FEED": 0,
        "USGS": 0,
        "GDACS": 0
      },
      "last7_score": 503.928,
      "prev7_score": 6.741,
      "trend": "up",
      "trend_arrow": "🔺",
      "change_pct": 7375.8,
      "place": "Vilnius County, Lithuania"
    },
    {
      "lon": 19.25,
      "lat": 47.75,
      "type": "hotspot_cell",
      "score": 311.599,
      "count": 589,
      "cell_deg": 0.5,
      "sources": {
        "GDELT": 375,
        "GDELT_DOC": 0,
        "DIRECT_FEED": 214,
        "USGS": 0,
        "GDACS": 0
      },
      "last7_score": 283.265,
      "prev7_score": 28.334,
      "trend": "up",
      "trend_arrow": "🔺",
      "change_pct": 899.7,
      "place": "Pest, Hungary"
    },
    {
      "lon": 20.25,
      "lat": 52.25,
      "type": "hotspot_cell",
      "score": 171.671,
      "count": 409,
      "cell_deg": 0.5,
      "sources": {
        "GDELT": 409,
        "GDELT_DOC": 0,
        "DIRECT_FEED": 0,
        "USGS": 0,
        "GDACS": 0
      },
      "last7_score": 139.832,
      "prev7_score": 31.839,
      "trend": "up",
      "trend_arrow": "🔺",
      "change_pct": 339.2,
      "place": "Sochaczew County, Poland"
    },
    {
      "lon": 20.25,
      "lat": 47.25,
      "type": "hotspot_cell",
      "score": 171.162,
      "count": 391,
      "cell_deg": 0.5,
      "sources": {
        "GDELT": 391,
        "GDELT_DOC": 0,
        "DIRECT_FEED": 0,
        "USGS": 0,
        "GDACS": 0
      },
      "last7_score": 141.288,
      "prev7_score": 29.874,
      "trend": "up",
      "trend_arrow": "🔺",
      "change_pct": 372.9,
      "place": "Jász-Nagykun-Szolnok, Hungary"
    },
    {
      "lon": 25.25,
      "lat": 46.25,
      "type": "hotspot_cell",
      "score": 117.446,
      "count": 296,
      "cell_deg": 0.5,
      "sources": {
        "GDELT": 296,
        "GDELT_DOC": 0,
        "DIRECT_FEED": 0,
        "USGS": 0,
        "GDACS": 0
      },
      "last7_score": 91.011,
      "prev7_score": 26.434,
      "trend": "up",
      "trend_arrow": "🔺",
      "change_pct": 244.3,
      "place": "Harghita, Romania"
    },
    {
      "lon": 24.25,
      "lat": 56.75,
      "type": "hotspot_cell",
      "score": 113.497,
      "count": 162,
      "cell_deg": 0.5,
      "sources": {
        "GDELT": 31,
        "GDELT_DOC": 0,
        "DIRECT_FEED": 131,
        "USGS": 0,
        "GDACS": 0
      },
      "last7_score": 110.625,
      "prev7_score": 2.872,
      "trend": "up",
      "trend_arrow": "🔺",
      "change_pct": 3751.3,
      "place": "Ķekavas novads, Latvia"
    },
    {
      "lon": 15.25,
      "lat": 49.75,
      "type": "hotspot_cell",
      "score": 77.652,
      "count": 162,
      "cell_deg": 0.5,
      "sources": {
        "GDELT": 162,
        "GDELT_DOC": 0,
        "DIRECT_FEED": 0,
        "USGS": 0,
        "GDACS": 0
      },
      "last7_score": 66.648,
      "prev7_score": 11.005,
      "trend": "up",
      "trend_arrow": "🔺",
      "change_pct": 505.6,
      "place": "Vysočina Region, Czechia"
    },
    {
      "lon": 21.25,
      "lat": 52.25,
      "type": "hotspot_cell",
      "score": 68.261,
      "count": 181,
      "cell_deg": 0.5,
      "sources": {
        "GDELT": 181,
        "GDELT_DOC": 0,
        "DIRECT_FEED": 0,
        "USGS": 0,
        "GDACS": 0
      },
      "last7_score": 52.375,
      "prev7_score": 15.887,
      "trend": "up",
      "trend_arrow": "🔺",
      "change_pct": 229.7,
      "place": "Warsaw, Poland"
    }
  ]
}