{
  "generated_utc": "2026-03-11T02:07:54Z",
  "top": [
    {
      "lon": 26.25,
      "lat": 44.25,
      "type": "hotspot_cell",
      "score": 671.39,
      "count": 964,
      "cell_deg": 0.5,
      "sources": {
        "GDELT": 165,
        "GDELT_DOC": 798,
        "DIRECT_FEED": 1,
        "USGS": 0,
        "GDACS": 0
      },
      "last7_score": 653.846,
      "prev7_score": 17.544,
      "trend": "up",
      "trend_arrow": "🔺",
      "change_pct": 3626.9,
      "place": "Giurgiu, Romania"
    },
    {
      "lon": 14.25,
      "lat": 50.25,
      "type": "hotspot_cell",
      "score": 567.039,
      "count": 884,
      "cell_deg": 0.5,
      "sources": {
        "GDELT": 138,
        "GDELT_DOC": 745,
        "DIRECT_FEED": 1,
        "USGS": 0,
        "GDACS": 0
      },
      "last7_score": 554.623,
      "prev7_score": 12.415,
      "trend": "up",
      "trend_arrow": "🔺",
      "change_pct": 4367.2,
      "place": "SO ORP Kralupy nad Vltavou, Czechia"
    },
    {
      "lon": 25.25,
      "lat": 54.75,
      "type": "hotspot_cell",
      "score": 373.313,
      "count": 552,
      "cell_deg": 0.5,
      "sources": {
        "GDELT": 68,
        "GDELT_DOC": 484,
        "DIRECT_FEED": 0,
        "USGS": 0,
        "GDACS": 0
      },
      "last7_score": 367.93,
      "prev7_score": 5.383,
      "trend": "up",
      "trend_arrow": "🔺",
      "change_pct": 6735.6,
      "place": "Vilnius County, Lithuania"
    },
    {
      "lon": 19.25,
      "lat": 47.75,
      "type": "hotspot_cell",
      "score": 251.093,
      "count": 492,
      "cell_deg": 0.5,
      "sources": {
        "GDELT": 373,
        "GDELT_DOC": 0,
        "DIRECT_FEED": 119,
        "USGS": 0,
        "GDACS": 0
      },
      "last7_score": 227.683,
      "prev7_score": 23.41,
      "trend": "up",
      "trend_arrow": "🔺",
      "change_pct": 872.6,
      "place": "Pest, Hungary"
    },
    {
      "lon": 20.25,
      "lat": 52.25,
      "type": "hotspot_cell",
      "score": 158.664,
      "count": 483,
      "cell_deg": 0.5,
      "sources": {
        "GDELT": 483,
        "GDELT_DOC": 0,
        "DIRECT_FEED": 0,
        "USGS": 0,
        "GDACS": 0
      },
      "last7_score": 117.625,
      "prev7_score": 41.039,
      "trend": "up",
      "trend_arrow": "🔺",
      "change_pct": 186.6,
      "place": "Sochaczew County, Poland"
    },
    {
      "lon": 20.25,
      "lat": 47.25,
      "type": "hotspot_cell",
      "score": 124.616,
      "count": 315,
      "cell_deg": 0.5,
      "sources": {
        "GDELT": 315,
        "GDELT_DOC": 0,
        "DIRECT_FEED": 0,
        "USGS": 0,
        "GDACS": 0
      },
      "last7_score": 99.114,
      "prev7_score": 25.502,
      "trend": "up",
      "trend_arrow": "🔺",
      "change_pct": 288.7,
      "place": "Jász-Nagykun-Szolnok, Hungary"
    },
    {
      "lon": 24.25,
      "lat": 56.75,
      "type": "hotspot_cell",
      "score": 116.013,
      "count": 132,
      "cell_deg": 0.5,
      "sources": {
        "GDELT": 24,
        "GDELT_DOC": 0,
        "DIRECT_FEED": 108,
        "USGS": 0,
        "GDACS": 0
      },
      "last7_score": 114.543,
      "prev7_score": 1.469,
      "trend": "up",
      "trend_arrow": "🔺",
      "change_pct": 7695.1,
      "place": "Ķekavas novads, Latvia"
    },
    {
      "lon": 25.25,
      "lat": 46.25,
      "type": "hotspot_cell",
      "score": 105.506,
      "count": 289,
      "cell_deg": 0.5,
      "sources": {
        "GDELT": 289,
        "GDELT_DOC": 0,
        "DIRECT_FEED": 0,
        "USGS": 0,
        "GDACS": 0
      },
      "last7_score": 81.432,
      "prev7_score": 24.074,
      "trend": "up",
      "trend_arrow": "🔺",
      "change_pct": 238.3,
      "place": "Harghita, Romania"
    },
    {
      "lon": 21.25,
      "lat": 52.25,
      "type": "hotspot_cell",
      "score": 68.531,
      "count": 223,
      "cell_deg": 0.5,
      "sources": {
        "GDELT": 223,
        "GDELT_DOC": 0,
        "DIRECT_FEED": 0,
        "USGS": 0,
        "GDACS": 0
      },
      "last7_score": 48.881,
      "prev7_score": 19.65,
      "trend": "up",
      "trend_arrow": "🔺",
      "change_pct": 148.8,
      "place": "Warsaw, Poland"
    },
    {
      "lon": 15.25,
      "lat": 49.75,
      "type": "hotspot_cell",
      "score": 61.813,
      "count": 162,
      "cell_deg": 0.5,
      "sources": {
        "GDELT": 162,
        "GDELT_DOC": 0,
        "DIRECT_FEED": 0,
        "USGS": 0,
        "GDACS": 0
      },
      "last7_score": 49.515,
      "prev7_score": 12.298,
      "trend": "up",
      "trend_arrow": "🔺",
      "change_pct": 302.6,
      "place": "Vysočina Region, Czechia"
    }
  ]
}