{
  "generated_utc": "2026-05-29T02:37:13Z",
  "top": [
    {
      "lon": 14.25,
      "lat": 50.25,
      "type": "hotspot_cell",
      "score": 883.476,
      "count": 1524,
      "cell_deg": 0.5,
      "sources": {
        "GDELT": 143,
        "GDELT_DOC": 1365,
        "DIRECT_FEED": 16,
        "USGS": 0,
        "GDACS": 0
      },
      "last7_score": 870.133,
      "prev7_score": 13.343,
      "trend": "up",
      "trend_arrow": "🔺",
      "change_pct": 6421.2,
      "place": "SO ORP Kralupy nad Vltavou, Czechia"
    },
    {
      "lon": 25.25,
      "lat": 54.75,
      "type": "hotspot_cell",
      "score": 792.263,
      "count": 1222,
      "cell_deg": 0.5,
      "sources": {
        "GDELT": 100,
        "GDELT_DOC": 1120,
        "DIRECT_FEED": 2,
        "USGS": 0,
        "GDACS": 0
      },
      "last7_score": 779.147,
      "prev7_score": 13.116,
      "trend": "up",
      "trend_arrow": "🔺",
      "change_pct": 5840.6,
      "place": "Vilnius County, Lithuania"
    },
    {
      "lon": 26.25,
      "lat": 44.25,
      "type": "hotspot_cell",
      "score": 776.97,
      "count": 1229,
      "cell_deg": 0.5,
      "sources": {
        "GDELT": 107,
        "GDELT_DOC": 1121,
        "DIRECT_FEED": 1,
        "USGS": 0,
        "GDACS": 0
      },
      "last7_score": 767.801,
      "prev7_score": 9.17,
      "trend": "up",
      "trend_arrow": "🔺",
      "change_pct": 8273.4,
      "place": "Giurgiu, Romania"
    },
    {
      "lon": 20.25,
      "lat": 52.25,
      "type": "hotspot_cell",
      "score": 275.738,
      "count": 751,
      "cell_deg": 0.5,
      "sources": {
        "GDELT": 751,
        "GDELT_DOC": 0,
        "DIRECT_FEED": 0,
        "USGS": 0,
        "GDACS": 0
      },
      "last7_score": 186.064,
      "prev7_score": 89.674,
      "trend": "up",
      "trend_arrow": "🔺",
      "change_pct": 107.5,
      "place": "Sochaczew County, Poland"
    },
    {
      "lon": 19.25,
      "lat": 47.75,
      "type": "hotspot_cell",
      "score": 209.303,
      "count": 383,
      "cell_deg": 0.5,
      "sources": {
        "GDELT": 180,
        "GDELT_DOC": 0,
        "DIRECT_FEED": 203,
        "USGS": 0,
        "GDACS": 0
      },
      "last7_score": 192.54,
      "prev7_score": 16.764,
      "trend": "up",
      "trend_arrow": "🔺",
      "change_pct": 1048.6,
      "place": "Pest, Hungary"
    },
    {
      "lon": 25.25,
      "lat": 46.25,
      "type": "hotspot_cell",
      "score": 124.992,
      "count": 309,
      "cell_deg": 0.5,
      "sources": {
        "GDELT": 309,
        "GDELT_DOC": 0,
        "DIRECT_FEED": 0,
        "USGS": 0,
        "GDACS": 0
      },
      "last7_score": 97.77,
      "prev7_score": 27.222,
      "trend": "up",
      "trend_arrow": "🔺",
      "change_pct": 259.2,
      "place": "Harghita, Romania"
    },
    {
      "lon": 24.25,
      "lat": 56.75,
      "type": "hotspot_cell",
      "score": 115.509,
      "count": 173,
      "cell_deg": 0.5,
      "sources": {
        "GDELT": 53,
        "GDELT_DOC": 0,
        "DIRECT_FEED": 120,
        "USGS": 0,
        "GDACS": 0
      },
      "last7_score": 109.827,
      "prev7_score": 5.681,
      "trend": "up",
      "trend_arrow": "🔺",
      "change_pct": 1833.1,
      "place": "Ķekavas novads, Latvia"
    },
    {
      "lon": 20.25,
      "lat": 47.25,
      "type": "hotspot_cell",
      "score": 97.673,
      "count": 237,
      "cell_deg": 0.5,
      "sources": {
        "GDELT": 237,
        "GDELT_DOC": 0,
        "DIRECT_FEED": 0,
        "USGS": 0,
        "GDACS": 0
      },
      "last7_score": 76.383,
      "prev7_score": 21.29,
      "trend": "up",
      "trend_arrow": "🔺",
      "change_pct": 258.8,
      "place": "Jász-Nagykun-Szolnok, Hungary"
    },
    {
      "lon": 21.25,
      "lat": 52.25,
      "type": "hotspot_cell",
      "score": 87.803,
      "count": 238,
      "cell_deg": 0.5,
      "sources": {
        "GDELT": 238,
        "GDELT_DOC": 0,
        "DIRECT_FEED": 0,
        "USGS": 0,
        "GDACS": 0
      },
      "last7_score": 59.751,
      "prev7_score": 28.052,
      "trend": "up",
      "trend_arrow": "🔺",
      "change_pct": 113.0,
      "place": "Warsaw, Poland"
    },
    {
      "lon": 15.25,
      "lat": 49.75,
      "type": "hotspot_cell",
      "score": 70.933,
      "count": 159,
      "cell_deg": 0.5,
      "sources": {
        "GDELT": 159,
        "GDELT_DOC": 0,
        "DIRECT_FEED": 0,
        "USGS": 0,
        "GDACS": 0
      },
      "last7_score": 58.541,
      "prev7_score": 12.391,
      "trend": "up",
      "trend_arrow": "🔺",
      "change_pct": 372.4,
      "place": "Vysočina Region, Czechia"
    }
  ]
}