{
  "generated_utc": "2026-03-24T13:19:03Z",
  "top": [
    {
      "lon": 14.25,
      "lat": 50.25,
      "type": "hotspot_cell",
      "score": 737.572,
      "count": 1296,
      "cell_deg": 0.5,
      "sources": {
        "GDELT": 114,
        "GDELT_DOC": 1179,
        "DIRECT_FEED": 3,
        "USGS": 0,
        "GDACS": 0
      },
      "last7_score": 729.598,
      "prev7_score": 7.974,
      "trend": "up",
      "trend_arrow": "🔺",
      "change_pct": 9050.1,
      "place": "SO ORP Kralupy nad Vltavou, Czechia"
    },
    {
      "lon": 26.25,
      "lat": 44.25,
      "type": "hotspot_cell",
      "score": 702.079,
      "count": 1269,
      "cell_deg": 0.5,
      "sources": {
        "GDELT": 181,
        "GDELT_DOC": 1088,
        "DIRECT_FEED": 0,
        "USGS": 0,
        "GDACS": 0
      },
      "last7_score": 687.954,
      "prev7_score": 14.125,
      "trend": "up",
      "trend_arrow": "🔺",
      "change_pct": 4770.4,
      "place": "Giurgiu, Romania"
    },
    {
      "lon": 25.25,
      "lat": 54.75,
      "type": "hotspot_cell",
      "score": 530.793,
      "count": 906,
      "cell_deg": 0.5,
      "sources": {
        "GDELT": 85,
        "GDELT_DOC": 821,
        "DIRECT_FEED": 0,
        "USGS": 0,
        "GDACS": 0
      },
      "last7_score": 526.025,
      "prev7_score": 4.768,
      "trend": "up",
      "trend_arrow": "🔺",
      "change_pct": 10932.6,
      "place": "Vilnius County, Lithuania"
    },
    {
      "lon": 19.25,
      "lat": 47.75,
      "type": "hotspot_cell",
      "score": 276.689,
      "count": 587,
      "cell_deg": 0.5,
      "sources": {
        "GDELT": 363,
        "GDELT_DOC": 0,
        "DIRECT_FEED": 224,
        "USGS": 0,
        "GDACS": 0
      },
      "last7_score": 250.583,
      "prev7_score": 26.105,
      "trend": "up",
      "trend_arrow": "🔺",
      "change_pct": 859.9,
      "place": "Pest, Hungary"
    },
    {
      "lon": 20.25,
      "lat": 52.25,
      "type": "hotspot_cell",
      "score": 145.505,
      "count": 410,
      "cell_deg": 0.5,
      "sources": {
        "GDELT": 410,
        "GDELT_DOC": 0,
        "DIRECT_FEED": 0,
        "USGS": 0,
        "GDACS": 0
      },
      "last7_score": 116.164,
      "prev7_score": 29.341,
      "trend": "up",
      "trend_arrow": "🔺",
      "change_pct": 295.9,
      "place": "Sochaczew County, Poland"
    },
    {
      "lon": 20.25,
      "lat": 47.25,
      "type": "hotspot_cell",
      "score": 142.765,
      "count": 404,
      "cell_deg": 0.5,
      "sources": {
        "GDELT": 404,
        "GDELT_DOC": 0,
        "DIRECT_FEED": 0,
        "USGS": 0,
        "GDACS": 0
      },
      "last7_score": 115.086,
      "prev7_score": 27.678,
      "trend": "up",
      "trend_arrow": "🔺",
      "change_pct": 315.8,
      "place": "Jász-Nagykun-Szolnok, Hungary"
    },
    {
      "lon": 25.25,
      "lat": 46.25,
      "type": "hotspot_cell",
      "score": 117.552,
      "count": 322,
      "cell_deg": 0.5,
      "sources": {
        "GDELT": 322,
        "GDELT_DOC": 0,
        "DIRECT_FEED": 0,
        "USGS": 0,
        "GDACS": 0
      },
      "last7_score": 96.83,
      "prev7_score": 20.723,
      "trend": "up",
      "trend_arrow": "🔺",
      "change_pct": 367.3,
      "place": "Harghita, Romania"
    },
    {
      "lon": 24.25,
      "lat": 56.75,
      "type": "hotspot_cell",
      "score": 111.599,
      "count": 174,
      "cell_deg": 0.5,
      "sources": {
        "GDELT": 36,
        "GDELT_DOC": 0,
        "DIRECT_FEED": 138,
        "USGS": 0,
        "GDACS": 0
      },
      "last7_score": 108.734,
      "prev7_score": 2.865,
      "trend": "up",
      "trend_arrow": "🔺",
      "change_pct": 3695.2,
      "place": "Ķekavas novads, Latvia"
    },
    {
      "lon": 15.25,
      "lat": 49.75,
      "type": "hotspot_cell",
      "score": 64.297,
      "count": 166,
      "cell_deg": 0.5,
      "sources": {
        "GDELT": 166,
        "GDELT_DOC": 0,
        "DIRECT_FEED": 0,
        "USGS": 0,
        "GDACS": 0
      },
      "last7_score": 55.971,
      "prev7_score": 8.326,
      "trend": "up",
      "trend_arrow": "🔺",
      "change_pct": 572.2,
      "place": "Vysočina Region, Czechia"
    },
    {
      "lon": 27.75,
      "lat": 47.25,
      "type": "hotspot_cell",
      "score": 55.325,
      "count": 81,
      "cell_deg": 0.5,
      "sources": {
        "GDELT": 0,
        "GDELT_DOC": 81,
        "DIRECT_FEED": 0,
        "USGS": 0,
        "GDACS": 0
      },
      "last7_score": 55.325,
      "prev7_score": 0.0,
      "trend": "new",
      "trend_arrow": "🆕",
      "change_pct": null,
      "place": "Iași, Romania"
    }
  ]
}