{
  "generated_utc": "2026-06-13T13:35:53Z",
  "top": [
    {
      "lon": 26.25,
      "lat": 44.25,
      "type": "hotspot_cell",
      "score": 589.612,
      "count": 967,
      "cell_deg": 0.5,
      "sources": {
        "GDELT": 176,
        "GDELT_DOC": 781,
        "DIRECT_FEED": 10,
        "USGS": 0,
        "GDACS": 0
      },
      "last7_score": 576.959,
      "prev7_score": 12.652,
      "trend": "up",
      "trend_arrow": "🔺",
      "change_pct": 4460.1,
      "place": "Giurgiu, Romania"
    },
    {
      "lon": 14.25,
      "lat": 50.25,
      "type": "hotspot_cell",
      "score": 504.941,
      "count": 803,
      "cell_deg": 0.5,
      "sources": {
        "GDELT": 98,
        "GDELT_DOC": 701,
        "DIRECT_FEED": 4,
        "USGS": 0,
        "GDACS": 0
      },
      "last7_score": 497.726,
      "prev7_score": 7.215,
      "trend": "up",
      "trend_arrow": "🔺",
      "change_pct": 6798.6,
      "place": "SO ORP Kralupy nad Vltavou, Czechia"
    },
    {
      "lon": 25.25,
      "lat": 54.75,
      "type": "hotspot_cell",
      "score": 446.98,
      "count": 761,
      "cell_deg": 0.5,
      "sources": {
        "GDELT": 75,
        "GDELT_DOC": 686,
        "DIRECT_FEED": 0,
        "USGS": 0,
        "GDACS": 0
      },
      "last7_score": 441.507,
      "prev7_score": 5.473,
      "trend": "up",
      "trend_arrow": "🔺",
      "change_pct": 7967.0,
      "place": "Vilnius County, Lithuania"
    },
    {
      "lon": 19.25,
      "lat": 47.75,
      "type": "hotspot_cell",
      "score": 186.555,
      "count": 378,
      "cell_deg": 0.5,
      "sources": {
        "GDELT": 211,
        "GDELT_DOC": 0,
        "DIRECT_FEED": 167,
        "USGS": 0,
        "GDACS": 0
      },
      "last7_score": 169.062,
      "prev7_score": 17.494,
      "trend": "up",
      "trend_arrow": "🔺",
      "change_pct": 866.4,
      "place": "Pest, Hungary"
    },
    {
      "lon": 20.25,
      "lat": 52.25,
      "type": "hotspot_cell",
      "score": 178.159,
      "count": 492,
      "cell_deg": 0.5,
      "sources": {
        "GDELT": 492,
        "GDELT_DOC": 0,
        "DIRECT_FEED": 0,
        "USGS": 0,
        "GDACS": 0
      },
      "last7_score": 143.348,
      "prev7_score": 34.812,
      "trend": "up",
      "trend_arrow": "🔺",
      "change_pct": 311.8,
      "place": "Sochaczew County, Poland"
    },
    {
      "lon": 25.25,
      "lat": 46.25,
      "type": "hotspot_cell",
      "score": 153.544,
      "count": 432,
      "cell_deg": 0.5,
      "sources": {
        "GDELT": 432,
        "GDELT_DOC": 0,
        "DIRECT_FEED": 0,
        "USGS": 0,
        "GDACS": 0
      },
      "last7_score": 120.175,
      "prev7_score": 33.369,
      "trend": "up",
      "trend_arrow": "🔺",
      "change_pct": 260.1,
      "place": "Harghita, Romania"
    },
    {
      "lon": 24.25,
      "lat": 56.75,
      "type": "hotspot_cell",
      "score": 107.066,
      "count": 169,
      "cell_deg": 0.5,
      "sources": {
        "GDELT": 46,
        "GDELT_DOC": 0,
        "DIRECT_FEED": 123,
        "USGS": 0,
        "GDACS": 0
      },
      "last7_score": 103.066,
      "prev7_score": 4.0,
      "trend": "up",
      "trend_arrow": "🔺",
      "change_pct": 2476.4,
      "place": "Ķekavas novads, Latvia"
    },
    {
      "lon": 20.25,
      "lat": 47.25,
      "type": "hotspot_cell",
      "score": 99.388,
      "count": 262,
      "cell_deg": 0.5,
      "sources": {
        "GDELT": 262,
        "GDELT_DOC": 0,
        "DIRECT_FEED": 0,
        "USGS": 0,
        "GDACS": 0
      },
      "last7_score": 82.312,
      "prev7_score": 17.077,
      "trend": "up",
      "trend_arrow": "🔺",
      "change_pct": 382.0,
      "place": "Jász-Nagykun-Szolnok, Hungary"
    },
    {
      "lon": 27.75,
      "lat": 47.25,
      "type": "hotspot_cell",
      "score": 68.222,
      "count": 80,
      "cell_deg": 0.5,
      "sources": {
        "GDELT": 0,
        "GDELT_DOC": 80,
        "DIRECT_FEED": 0,
        "USGS": 0,
        "GDACS": 0
      },
      "last7_score": 68.222,
      "prev7_score": 0.0,
      "trend": "new",
      "trend_arrow": "🆕",
      "change_pct": null,
      "place": "Iași, Romania"
    },
    {
      "lon": 21.25,
      "lat": 52.25,
      "type": "hotspot_cell",
      "score": 62.413,
      "count": 184,
      "cell_deg": 0.5,
      "sources": {
        "GDELT": 184,
        "GDELT_DOC": 0,
        "DIRECT_FEED": 0,
        "USGS": 0,
        "GDACS": 0
      },
      "last7_score": 49.255,
      "prev7_score": 13.158,
      "trend": "up",
      "trend_arrow": "🔺",
      "change_pct": 274.3,
      "place": "Warsaw, Poland"
    }
  ]
}