{
  "generated_utc": "2026-04-07T07:24:30Z",
  "top": [
    {
      "lon": 26.25,
      "lat": 44.25,
      "type": "hotspot_cell",
      "score": 781.111,
      "count": 1382,
      "cell_deg": 0.5,
      "sources": {
        "GDELT": 154,
        "GDELT_DOC": 1221,
        "DIRECT_FEED": 7,
        "USGS": 0,
        "GDACS": 0
      },
      "last7_score": 770.141,
      "prev7_score": 10.97,
      "trend": "up",
      "trend_arrow": "🔺",
      "change_pct": 6920.4,
      "place": "Giurgiu, Romania"
    },
    {
      "lon": 14.25,
      "lat": 50.25,
      "type": "hotspot_cell",
      "score": 616.355,
      "count": 1259,
      "cell_deg": 0.5,
      "sources": {
        "GDELT": 105,
        "GDELT_DOC": 1153,
        "DIRECT_FEED": 1,
        "USGS": 0,
        "GDACS": 0
      },
      "last7_score": 607.651,
      "prev7_score": 8.704,
      "trend": "up",
      "trend_arrow": "🔺",
      "change_pct": 6880.9,
      "place": "SO ORP Kralupy nad Vltavou, Czechia"
    },
    {
      "lon": 25.25,
      "lat": 54.75,
      "type": "hotspot_cell",
      "score": 433.254,
      "count": 863,
      "cell_deg": 0.5,
      "sources": {
        "GDELT": 74,
        "GDELT_DOC": 789,
        "DIRECT_FEED": 0,
        "USGS": 0,
        "GDACS": 0
      },
      "last7_score": 427.422,
      "prev7_score": 5.832,
      "trend": "up",
      "trend_arrow": "🔺",
      "change_pct": 7228.7,
      "place": "Vilnius County, Lithuania"
    },
    {
      "lon": 19.25,
      "lat": 47.75,
      "type": "hotspot_cell",
      "score": 228.162,
      "count": 465,
      "cell_deg": 0.5,
      "sources": {
        "GDELT": 266,
        "GDELT_DOC": 0,
        "DIRECT_FEED": 199,
        "USGS": 0,
        "GDACS": 0
      },
      "last7_score": 209.495,
      "prev7_score": 18.668,
      "trend": "up",
      "trend_arrow": "🔺",
      "change_pct": 1022.2,
      "place": "Pest, Hungary"
    },
    {
      "lon": 20.25,
      "lat": 52.25,
      "type": "hotspot_cell",
      "score": 133.705,
      "count": 434,
      "cell_deg": 0.5,
      "sources": {
        "GDELT": 434,
        "GDELT_DOC": 0,
        "DIRECT_FEED": 0,
        "USGS": 0,
        "GDACS": 0
      },
      "last7_score": 96.035,
      "prev7_score": 37.67,
      "trend": "up",
      "trend_arrow": "🔺",
      "change_pct": 154.9,
      "place": "Sochaczew County, Poland"
    },
    {
      "lon": 20.25,
      "lat": 47.25,
      "type": "hotspot_cell",
      "score": 122.884,
      "count": 307,
      "cell_deg": 0.5,
      "sources": {
        "GDELT": 307,
        "GDELT_DOC": 0,
        "DIRECT_FEED": 0,
        "USGS": 0,
        "GDACS": 0
      },
      "last7_score": 99.862,
      "prev7_score": 23.022,
      "trend": "up",
      "trend_arrow": "🔺",
      "change_pct": 333.8,
      "place": "Jász-Nagykun-Szolnok, Hungary"
    },
    {
      "lon": 24.25,
      "lat": 56.75,
      "type": "hotspot_cell",
      "score": 89.108,
      "count": 159,
      "cell_deg": 0.5,
      "sources": {
        "GDELT": 35,
        "GDELT_DOC": 0,
        "DIRECT_FEED": 124,
        "USGS": 0,
        "GDACS": 0
      },
      "last7_score": 85.816,
      "prev7_score": 3.292,
      "trend": "up",
      "trend_arrow": "🔺",
      "change_pct": 2506.8,
      "place": "Ķekavas novads, Latvia"
    },
    {
      "lon": 25.25,
      "lat": 46.25,
      "type": "hotspot_cell",
      "score": 83.017,
      "count": 266,
      "cell_deg": 0.5,
      "sources": {
        "GDELT": 266,
        "GDELT_DOC": 0,
        "DIRECT_FEED": 0,
        "USGS": 0,
        "GDACS": 0
      },
      "last7_score": 62.453,
      "prev7_score": 20.565,
      "trend": "up",
      "trend_arrow": "🔺",
      "change_pct": 203.7,
      "place": "Harghita, Romania"
    },
    {
      "lon": 27.75,
      "lat": 47.25,
      "type": "hotspot_cell",
      "score": 44.816,
      "count": 86,
      "cell_deg": 0.5,
      "sources": {
        "GDELT": 0,
        "GDELT_DOC": 86,
        "DIRECT_FEED": 0,
        "USGS": 0,
        "GDACS": 0
      },
      "last7_score": 44.816,
      "prev7_score": 0.0,
      "trend": "new",
      "trend_arrow": "🆕",
      "change_pct": null,
      "place": "Iași, Romania"
    },
    {
      "lon": 15.25,
      "lat": 49.75,
      "type": "hotspot_cell",
      "score": 38.551,
      "count": 115,
      "cell_deg": 0.5,
      "sources": {
        "GDELT": 115,
        "GDELT_DOC": 0,
        "DIRECT_FEED": 0,
        "USGS": 0,
        "GDACS": 0
      },
      "last7_score": 28.828,
      "prev7_score": 9.723,
      "trend": "up",
      "trend_arrow": "🔺",
      "change_pct": 196.5,
      "place": "Vysočina Region, Czechia"
    }
  ]
}