{
  "generated_utc": "2026-05-05T08:14:48Z",
  "top": [
    {
      "lon": 14.25,
      "lat": 50.25,
      "type": "hotspot_cell",
      "score": 865.514,
      "count": 1461,
      "cell_deg": 0.5,
      "sources": {
        "GDELT": 172,
        "GDELT_DOC": 1285,
        "DIRECT_FEED": 4,
        "USGS": 0,
        "GDACS": 0
      },
      "last7_score": 850.062,
      "prev7_score": 15.452,
      "trend": "up",
      "trend_arrow": "🔺",
      "change_pct": 5401.4,
      "place": "SO ORP Kralupy nad Vltavou, Czechia"
    },
    {
      "lon": 26.25,
      "lat": 44.25,
      "type": "hotspot_cell",
      "score": 729.372,
      "count": 1270,
      "cell_deg": 0.5,
      "sources": {
        "GDELT": 120,
        "GDELT_DOC": 1148,
        "DIRECT_FEED": 2,
        "USGS": 0,
        "GDACS": 0
      },
      "last7_score": 718.131,
      "prev7_score": 11.241,
      "trend": "up",
      "trend_arrow": "🔺",
      "change_pct": 6288.7,
      "place": "Giurgiu, Romania"
    },
    {
      "lon": 25.25,
      "lat": 54.75,
      "type": "hotspot_cell",
      "score": 639.161,
      "count": 1051,
      "cell_deg": 0.5,
      "sources": {
        "GDELT": 60,
        "GDELT_DOC": 991,
        "DIRECT_FEED": 0,
        "USGS": 0,
        "GDACS": 0
      },
      "last7_score": 633.742,
      "prev7_score": 5.419,
      "trend": "up",
      "trend_arrow": "🔺",
      "change_pct": 11593.9,
      "place": "Vilnius County, Lithuania"
    },
    {
      "lon": 20.25,
      "lat": 52.25,
      "type": "hotspot_cell",
      "score": 188.14,
      "count": 487,
      "cell_deg": 0.5,
      "sources": {
        "GDELT": 487,
        "GDELT_DOC": 0,
        "DIRECT_FEED": 0,
        "USGS": 0,
        "GDACS": 0
      },
      "last7_score": 155.371,
      "prev7_score": 32.77,
      "trend": "up",
      "trend_arrow": "🔺",
      "change_pct": 374.1,
      "place": "Sochaczew County, Poland"
    },
    {
      "lon": 19.25,
      "lat": 47.75,
      "type": "hotspot_cell",
      "score": 172.386,
      "count": 423,
      "cell_deg": 0.5,
      "sources": {
        "GDELT": 245,
        "GDELT_DOC": 0,
        "DIRECT_FEED": 178,
        "USGS": 0,
        "GDACS": 0
      },
      "last7_score": 154.325,
      "prev7_score": 18.062,
      "trend": "up",
      "trend_arrow": "🔺",
      "change_pct": 754.4,
      "place": "Pest, Hungary"
    },
    {
      "lon": 25.25,
      "lat": 46.25,
      "type": "hotspot_cell",
      "score": 120.476,
      "count": 325,
      "cell_deg": 0.5,
      "sources": {
        "GDELT": 325,
        "GDELT_DOC": 0,
        "DIRECT_FEED": 0,
        "USGS": 0,
        "GDACS": 0
      },
      "last7_score": 98.229,
      "prev7_score": 22.246,
      "trend": "up",
      "trend_arrow": "🔺",
      "change_pct": 341.6,
      "place": "Harghita, Romania"
    },
    {
      "lon": 20.25,
      "lat": 47.25,
      "type": "hotspot_cell",
      "score": 100.248,
      "count": 398,
      "cell_deg": 0.5,
      "sources": {
        "GDELT": 398,
        "GDELT_DOC": 0,
        "DIRECT_FEED": 0,
        "USGS": 0,
        "GDACS": 0
      },
      "last7_score": 66.507,
      "prev7_score": 33.741,
      "trend": "up",
      "trend_arrow": "🔺",
      "change_pct": 97.1,
      "place": "Jász-Nagykun-Szolnok, Hungary"
    },
    {
      "lon": 24.25,
      "lat": 56.75,
      "type": "hotspot_cell",
      "score": 99.718,
      "count": 160,
      "cell_deg": 0.5,
      "sources": {
        "GDELT": 25,
        "GDELT_DOC": 0,
        "DIRECT_FEED": 135,
        "USGS": 0,
        "GDACS": 0
      },
      "last7_score": 97.178,
      "prev7_score": 2.539,
      "trend": "up",
      "trend_arrow": "🔺",
      "change_pct": 3726.8,
      "place": "Ķekavas novads, Latvia"
    },
    {
      "lon": 15.25,
      "lat": 49.75,
      "type": "hotspot_cell",
      "score": 70.504,
      "count": 194,
      "cell_deg": 0.5,
      "sources": {
        "GDELT": 194,
        "GDELT_DOC": 0,
        "DIRECT_FEED": 0,
        "USGS": 0,
        "GDACS": 0
      },
      "last7_score": 57.081,
      "prev7_score": 13.424,
      "trend": "up",
      "trend_arrow": "🔺",
      "change_pct": 325.2,
      "place": "Vysočina Region, Czechia"
    },
    {
      "lon": 21.25,
      "lat": 52.25,
      "type": "hotspot_cell",
      "score": 50.237,
      "count": 152,
      "cell_deg": 0.5,
      "sources": {
        "GDELT": 152,
        "GDELT_DOC": 0,
        "DIRECT_FEED": 0,
        "USGS": 0,
        "GDACS": 0
      },
      "last7_score": 35.316,
      "prev7_score": 14.922,
      "trend": "up",
      "trend_arrow": "🔺",
      "change_pct": 136.7,
      "place": "Warsaw, Poland"
    }
  ]
}