{
  "generated_utc": "2026-05-14T14:18:21Z",
  "top": [
    {
      "lon": 14.25,
      "lat": 50.25,
      "type": "hotspot_cell",
      "score": 967.67,
      "count": 1494,
      "cell_deg": 0.5,
      "sources": {
        "GDELT": 127,
        "GDELT_DOC": 1365,
        "DIRECT_FEED": 2,
        "USGS": 0,
        "GDACS": 0
      },
      "last7_score": 958.499,
      "prev7_score": 9.171,
      "trend": "up",
      "trend_arrow": "🔺",
      "change_pct": 10350.9,
      "place": "SO ORP Kralupy nad Vltavou, Czechia"
    },
    {
      "lon": 26.25,
      "lat": 44.25,
      "type": "hotspot_cell",
      "score": 864.136,
      "count": 1407,
      "cell_deg": 0.5,
      "sources": {
        "GDELT": 207,
        "GDELT_DOC": 1195,
        "DIRECT_FEED": 5,
        "USGS": 0,
        "GDACS": 0
      },
      "last7_score": 851.039,
      "prev7_score": 13.097,
      "trend": "up",
      "trend_arrow": "🔺",
      "change_pct": 6398.0,
      "place": "Giurgiu, Romania"
    },
    {
      "lon": 25.25,
      "lat": 54.75,
      "type": "hotspot_cell",
      "score": 629.71,
      "count": 1046,
      "cell_deg": 0.5,
      "sources": {
        "GDELT": 66,
        "GDELT_DOC": 980,
        "DIRECT_FEED": 0,
        "USGS": 0,
        "GDACS": 0
      },
      "last7_score": 625.23,
      "prev7_score": 4.48,
      "trend": "up",
      "trend_arrow": "🔺",
      "change_pct": 13856.0,
      "place": "Vilnius County, Lithuania"
    },
    {
      "lon": 19.25,
      "lat": 47.75,
      "type": "hotspot_cell",
      "score": 293.341,
      "count": 509,
      "cell_deg": 0.5,
      "sources": {
        "GDELT": 282,
        "GDELT_DOC": 0,
        "DIRECT_FEED": 227,
        "USGS": 0,
        "GDACS": 0
      },
      "last7_score": 276.719,
      "prev7_score": 16.622,
      "trend": "up",
      "trend_arrow": "🔺",
      "change_pct": 1564.7,
      "place": "Pest, Hungary"
    },
    {
      "lon": 20.25,
      "lat": 52.25,
      "type": "hotspot_cell",
      "score": 202.216,
      "count": 537,
      "cell_deg": 0.5,
      "sources": {
        "GDELT": 537,
        "GDELT_DOC": 0,
        "DIRECT_FEED": 0,
        "USGS": 0,
        "GDACS": 0
      },
      "last7_score": 157.805,
      "prev7_score": 44.411,
      "trend": "up",
      "trend_arrow": "🔺",
      "change_pct": 255.3,
      "place": "Sochaczew County, Poland"
    },
    {
      "lon": 24.25,
      "lat": 56.75,
      "type": "hotspot_cell",
      "score": 125.205,
      "count": 177,
      "cell_deg": 0.5,
      "sources": {
        "GDELT": 33,
        "GDELT_DOC": 0,
        "DIRECT_FEED": 144,
        "USGS": 0,
        "GDACS": 0
      },
      "last7_score": 121.922,
      "prev7_score": 3.283,
      "trend": "up",
      "trend_arrow": "🔺",
      "change_pct": 3613.5,
      "place": "Ķekavas novads, Latvia"
    },
    {
      "lon": 20.25,
      "lat": 47.25,
      "type": "hotspot_cell",
      "score": 122.821,
      "count": 277,
      "cell_deg": 0.5,
      "sources": {
        "GDELT": 277,
        "GDELT_DOC": 0,
        "DIRECT_FEED": 0,
        "USGS": 0,
        "GDACS": 0
      },
      "last7_score": 105.399,
      "prev7_score": 17.422,
      "trend": "up",
      "trend_arrow": "🔺",
      "change_pct": 505.0,
      "place": "Jász-Nagykun-Szolnok, Hungary"
    },
    {
      "lon": 25.25,
      "lat": 46.25,
      "type": "hotspot_cell",
      "score": 117.431,
      "count": 307,
      "cell_deg": 0.5,
      "sources": {
        "GDELT": 307,
        "GDELT_DOC": 0,
        "DIRECT_FEED": 0,
        "USGS": 0,
        "GDACS": 0
      },
      "last7_score": 93.079,
      "prev7_score": 24.352,
      "trend": "up",
      "trend_arrow": "🔺",
      "change_pct": 282.2,
      "place": "Harghita, Romania"
    },
    {
      "lon": 25.25,
      "lat": 57.25,
      "type": "hotspot_cell",
      "score": 82.867,
      "count": 130,
      "cell_deg": 0.5,
      "sources": {
        "GDELT": 130,
        "GDELT_DOC": 0,
        "DIRECT_FEED": 0,
        "USGS": 0,
        "GDACS": 0
      },
      "last7_score": 76.996,
      "prev7_score": 5.871,
      "trend": "up",
      "trend_arrow": "🔺",
      "change_pct": 1211.5,
      "place": "Cēsu novads, Latvia"
    },
    {
      "lon": 21.25,
      "lat": 52.25,
      "type": "hotspot_cell",
      "score": 77.895,
      "count": 181,
      "cell_deg": 0.5,
      "sources": {
        "GDELT": 181,
        "GDELT_DOC": 0,
        "DIRECT_FEED": 0,
        "USGS": 0,
        "GDACS": 0
      },
      "last7_score": 66.844,
      "prev7_score": 11.051,
      "trend": "up",
      "trend_arrow": "🔺",
      "change_pct": 504.9,
      "place": "Warsaw, Poland"
    }
  ]
}