{
  "generated_utc": "2026-04-08T02:36:26Z",
  "top": [
    {
      "lon": 26.25,
      "lat": 44.25,
      "type": "hotspot_cell",
      "score": 825.99,
      "count": 1316,
      "cell_deg": 0.5,
      "sources": {
        "GDELT": 157,
        "GDELT_DOC": 1151,
        "DIRECT_FEED": 8,
        "USGS": 0,
        "GDACS": 0
      },
      "last7_score": 812.097,
      "prev7_score": 13.893,
      "trend": "up",
      "trend_arrow": "🔺",
      "change_pct": 5745.5,
      "place": "Giurgiu, Romania"
    },
    {
      "lon": 14.25,
      "lat": 50.25,
      "type": "hotspot_cell",
      "score": 626.326,
      "count": 1147,
      "cell_deg": 0.5,
      "sources": {
        "GDELT": 99,
        "GDELT_DOC": 1047,
        "DIRECT_FEED": 1,
        "USGS": 0,
        "GDACS": 0
      },
      "last7_score": 618.431,
      "prev7_score": 7.896,
      "trend": "up",
      "trend_arrow": "🔺",
      "change_pct": 7732.4,
      "place": "SO ORP Kralupy nad Vltavou, Czechia"
    },
    {
      "lon": 25.25,
      "lat": 54.75,
      "type": "hotspot_cell",
      "score": 461.259,
      "count": 812,
      "cell_deg": 0.5,
      "sources": {
        "GDELT": 76,
        "GDELT_DOC": 736,
        "DIRECT_FEED": 0,
        "USGS": 0,
        "GDACS": 0
      },
      "last7_score": 454.538,
      "prev7_score": 6.721,
      "trend": "up",
      "trend_arrow": "🔺",
      "change_pct": 6662.7,
      "place": "Vilnius County, Lithuania"
    },
    {
      "lon": 19.25,
      "lat": 47.75,
      "type": "hotspot_cell",
      "score": 384.806,
      "count": 590,
      "cell_deg": 0.5,
      "sources": {
        "GDELT": 375,
        "GDELT_DOC": 0,
        "DIRECT_FEED": 215,
        "USGS": 0,
        "GDACS": 0
      },
      "last7_score": 365.599,
      "prev7_score": 19.207,
      "trend": "up",
      "trend_arrow": "🔺",
      "change_pct": 1803.5,
      "place": "Pest, Hungary"
    },
    {
      "lon": 20.25,
      "lat": 47.25,
      "type": "hotspot_cell",
      "score": 154.41,
      "count": 323,
      "cell_deg": 0.5,
      "sources": {
        "GDELT": 323,
        "GDELT_DOC": 0,
        "DIRECT_FEED": 0,
        "USGS": 0,
        "GDACS": 0
      },
      "last7_score": 129.133,
      "prev7_score": 25.277,
      "trend": "up",
      "trend_arrow": "🔺",
      "change_pct": 410.9,
      "place": "Jász-Nagykun-Szolnok, Hungary"
    },
    {
      "lon": 20.25,
      "lat": 52.25,
      "type": "hotspot_cell",
      "score": 133.52,
      "count": 424,
      "cell_deg": 0.5,
      "sources": {
        "GDELT": 424,
        "GDELT_DOC": 0,
        "DIRECT_FEED": 0,
        "USGS": 0,
        "GDACS": 0
      },
      "last7_score": 92.685,
      "prev7_score": 40.835,
      "trend": "up",
      "trend_arrow": "🔺",
      "change_pct": 127.0,
      "place": "Sochaczew County, Poland"
    },
    {
      "lon": 25.25,
      "lat": 46.25,
      "type": "hotspot_cell",
      "score": 100.491,
      "count": 257,
      "cell_deg": 0.5,
      "sources": {
        "GDELT": 257,
        "GDELT_DOC": 0,
        "DIRECT_FEED": 0,
        "USGS": 0,
        "GDACS": 0
      },
      "last7_score": 78.757,
      "prev7_score": 21.734,
      "trend": "up",
      "trend_arrow": "🔺",
      "change_pct": 262.4,
      "place": "Harghita, Romania"
    },
    {
      "lon": 24.25,
      "lat": 56.75,
      "type": "hotspot_cell",
      "score": 97.042,
      "count": 156,
      "cell_deg": 0.5,
      "sources": {
        "GDELT": 28,
        "GDELT_DOC": 0,
        "DIRECT_FEED": 128,
        "USGS": 0,
        "GDACS": 0
      },
      "last7_score": 93.676,
      "prev7_score": 3.366,
      "trend": "up",
      "trend_arrow": "🔺",
      "change_pct": 2683.2,
      "place": "Ķekavas novads, Latvia"
    },
    {
      "lon": 27.75,
      "lat": 47.25,
      "type": "hotspot_cell",
      "score": 49.346,
      "count": 80,
      "cell_deg": 0.5,
      "sources": {
        "GDELT": 0,
        "GDELT_DOC": 80,
        "DIRECT_FEED": 0,
        "USGS": 0,
        "GDACS": 0
      },
      "last7_score": 49.346,
      "prev7_score": 0.0,
      "trend": "new",
      "trend_arrow": "🆕",
      "change_pct": null,
      "place": "Iași, Romania"
    },
    {
      "lon": 15.25,
      "lat": 49.75,
      "type": "hotspot_cell",
      "score": 46.543,
      "count": 117,
      "cell_deg": 0.5,
      "sources": {
        "GDELT": 117,
        "GDELT_DOC": 0,
        "DIRECT_FEED": 0,
        "USGS": 0,
        "GDACS": 0
      },
      "last7_score": 36.631,
      "prev7_score": 9.912,
      "trend": "up",
      "trend_arrow": "🔺",
      "change_pct": 269.6,
      "place": "Vysočina Region, Czechia"
    }
  ]
}