{
  "generated_utc": "2026-04-19T19:01:18Z",
  "top": [
    {
      "lon": 14.25,
      "lat": 50.25,
      "type": "hotspot_cell",
      "score": 836.094,
      "count": 1435,
      "cell_deg": 0.5,
      "sources": {
        "GDELT": 129,
        "GDELT_DOC": 1305,
        "DIRECT_FEED": 1,
        "USGS": 0,
        "GDACS": 0
      },
      "last7_score": 831.766,
      "prev7_score": 4.328,
      "trend": "up",
      "trend_arrow": "🔺",
      "change_pct": 19117.9,
      "place": "SO ORP Kralupy nad Vltavou, Czechia"
    },
    {
      "lon": 26.25,
      "lat": 44.25,
      "type": "hotspot_cell",
      "score": 736.87,
      "count": 1277,
      "cell_deg": 0.5,
      "sources": {
        "GDELT": 107,
        "GDELT_DOC": 1168,
        "DIRECT_FEED": 2,
        "USGS": 0,
        "GDACS": 0
      },
      "last7_score": 732.371,
      "prev7_score": 4.499,
      "trend": "up",
      "trend_arrow": "🔺",
      "change_pct": 16178.4,
      "place": "Giurgiu, Romania"
    },
    {
      "lon": 19.25,
      "lat": 47.75,
      "type": "hotspot_cell",
      "score": 503.871,
      "count": 1512,
      "cell_deg": 0.5,
      "sources": {
        "GDELT": 1197,
        "GDELT_DOC": 0,
        "DIRECT_FEED": 315,
        "USGS": 0,
        "GDACS": 0
      },
      "last7_score": 425.662,
      "prev7_score": 78.209,
      "trend": "up",
      "trend_arrow": "🔺",
      "change_pct": 444.3,
      "place": "Pest, Hungary"
    },
    {
      "lon": 25.25,
      "lat": 54.75,
      "type": "hotspot_cell",
      "score": 496.587,
      "count": 828,
      "cell_deg": 0.5,
      "sources": {
        "GDELT": 75,
        "GDELT_DOC": 753,
        "DIRECT_FEED": 0,
        "USGS": 0,
        "GDACS": 0
      },
      "last7_score": 492.944,
      "prev7_score": 3.643,
      "trend": "up",
      "trend_arrow": "🔺",
      "change_pct": 13432.5,
      "place": "Vilnius County, Lithuania"
    },
    {
      "lon": 20.25,
      "lat": 47.25,
      "type": "hotspot_cell",
      "score": 267.56,
      "count": 816,
      "cell_deg": 0.5,
      "sources": {
        "GDELT": 816,
        "GDELT_DOC": 0,
        "DIRECT_FEED": 0,
        "USGS": 0,
        "GDACS": 0
      },
      "last7_score": 221.635,
      "prev7_score": 45.925,
      "trend": "up",
      "trend_arrow": "🔺",
      "change_pct": 382.6,
      "place": "Jász-Nagykun-Szolnok, Hungary"
    },
    {
      "lon": 20.25,
      "lat": 52.25,
      "type": "hotspot_cell",
      "score": 153.091,
      "count": 413,
      "cell_deg": 0.5,
      "sources": {
        "GDELT": 413,
        "GDELT_DOC": 0,
        "DIRECT_FEED": 0,
        "USGS": 0,
        "GDACS": 0
      },
      "last7_score": 131.473,
      "prev7_score": 21.618,
      "trend": "up",
      "trend_arrow": "🔺",
      "change_pct": 508.2,
      "place": "Sochaczew County, Poland"
    },
    {
      "lon": 24.25,
      "lat": 56.75,
      "type": "hotspot_cell",
      "score": 91.576,
      "count": 158,
      "cell_deg": 0.5,
      "sources": {
        "GDELT": 32,
        "GDELT_DOC": 0,
        "DIRECT_FEED": 126,
        "USGS": 0,
        "GDACS": 0
      },
      "last7_score": 90.145,
      "prev7_score": 1.431,
      "trend": "up",
      "trend_arrow": "🔺",
      "change_pct": 6199.1,
      "place": "Ķekavas novads, Latvia"
    },
    {
      "lon": 25.25,
      "lat": 46.25,
      "type": "hotspot_cell",
      "score": 83.041,
      "count": 259,
      "cell_deg": 0.5,
      "sources": {
        "GDELT": 259,
        "GDELT_DOC": 0,
        "DIRECT_FEED": 0,
        "USGS": 0,
        "GDACS": 0
      },
      "last7_score": 72.133,
      "prev7_score": 10.909,
      "trend": "up",
      "trend_arrow": "🔺",
      "change_pct": 561.2,
      "place": "Harghita, Romania"
    },
    {
      "lon": 15.25,
      "lat": 49.75,
      "type": "hotspot_cell",
      "score": 73.323,
      "count": 185,
      "cell_deg": 0.5,
      "sources": {
        "GDELT": 185,
        "GDELT_DOC": 0,
        "DIRECT_FEED": 0,
        "USGS": 0,
        "GDACS": 0
      },
      "last7_score": 64.578,
      "prev7_score": 8.745,
      "trend": "up",
      "trend_arrow": "🔺",
      "change_pct": 638.5,
      "place": "Vysočina Region, Czechia"
    },
    {
      "lon": 21.25,
      "lat": 52.25,
      "type": "hotspot_cell",
      "score": 66.342,
      "count": 180,
      "cell_deg": 0.5,
      "sources": {
        "GDELT": 180,
        "GDELT_DOC": 0,
        "DIRECT_FEED": 0,
        "USGS": 0,
        "GDACS": 0
      },
      "last7_score": 60.72,
      "prev7_score": 5.622,
      "trend": "up",
      "trend_arrow": "🔺",
      "change_pct": 980.0,
      "place": "Warsaw, Poland"
    }
  ]
}