{
  "generated_utc": "2026-04-14T02:43:12Z",
  "top": [
    {
      "lon": 19.25,
      "lat": 47.75,
      "type": "hotspot_cell",
      "score": 834.313,
      "count": 1307,
      "cell_deg": 0.5,
      "sources": {
        "GDELT": 980,
        "GDELT_DOC": 0,
        "DIRECT_FEED": 327,
        "USGS": 0,
        "GDACS": 0
      },
      "last7_score": 782.761,
      "prev7_score": 51.552,
      "trend": "up",
      "trend_arrow": "🔺",
      "change_pct": 1418.4,
      "place": "Pest, Hungary"
    },
    {
      "lon": 26.25,
      "lat": 44.25,
      "type": "hotspot_cell",
      "score": 751.501,
      "count": 1393,
      "cell_deg": 0.5,
      "sources": {
        "GDELT": 125,
        "GDELT_DOC": 1264,
        "DIRECT_FEED": 4,
        "USGS": 0,
        "GDACS": 0
      },
      "last7_score": 736.952,
      "prev7_score": 14.549,
      "trend": "up",
      "trend_arrow": "🔺",
      "change_pct": 4965.4,
      "place": "Giurgiu, Romania"
    },
    {
      "lon": 14.25,
      "lat": 50.25,
      "type": "hotspot_cell",
      "score": 723.267,
      "count": 1230,
      "cell_deg": 0.5,
      "sources": {
        "GDELT": 73,
        "GDELT_DOC": 1157,
        "DIRECT_FEED": 0,
        "USGS": 0,
        "GDACS": 0
      },
      "last7_score": 717.762,
      "prev7_score": 5.505,
      "trend": "up",
      "trend_arrow": "🔺",
      "change_pct": 12937.3,
      "place": "SO ORP Kralupy nad Vltavou, Czechia"
    },
    {
      "lon": 25.25,
      "lat": 54.75,
      "type": "hotspot_cell",
      "score": 502.123,
      "count": 918,
      "cell_deg": 0.5,
      "sources": {
        "GDELT": 71,
        "GDELT_DOC": 845,
        "DIRECT_FEED": 2,
        "USGS": 0,
        "GDACS": 0
      },
      "last7_score": 496.768,
      "prev7_score": 5.354,
      "trend": "up",
      "trend_arrow": "🔺",
      "change_pct": 9178.2,
      "place": "Vilnius County, Lithuania"
    },
    {
      "lon": 20.25,
      "lat": 47.25,
      "type": "hotspot_cell",
      "score": 339.436,
      "count": 603,
      "cell_deg": 0.5,
      "sources": {
        "GDELT": 603,
        "GDELT_DOC": 0,
        "DIRECT_FEED": 0,
        "USGS": 0,
        "GDACS": 0
      },
      "last7_score": 307.228,
      "prev7_score": 32.208,
      "trend": "up",
      "trend_arrow": "🔺",
      "change_pct": 853.9,
      "place": "Jász-Nagykun-Szolnok, Hungary"
    },
    {
      "lon": 20.25,
      "lat": 52.25,
      "type": "hotspot_cell",
      "score": 139.23,
      "count": 374,
      "cell_deg": 0.5,
      "sources": {
        "GDELT": 374,
        "GDELT_DOC": 0,
        "DIRECT_FEED": 0,
        "USGS": 0,
        "GDACS": 0
      },
      "last7_score": 113.909,
      "prev7_score": 25.321,
      "trend": "up",
      "trend_arrow": "🔺",
      "change_pct": 349.9,
      "place": "Sochaczew County, Poland"
    },
    {
      "lon": 24.25,
      "lat": 56.75,
      "type": "hotspot_cell",
      "score": 97.974,
      "count": 157,
      "cell_deg": 0.5,
      "sources": {
        "GDELT": 23,
        "GDELT_DOC": 0,
        "DIRECT_FEED": 134,
        "USGS": 0,
        "GDACS": 0
      },
      "last7_score": 97.378,
      "prev7_score": 0.596,
      "trend": "up",
      "trend_arrow": "🔺",
      "change_pct": 16228.3,
      "place": "Ķekavas novads, Latvia"
    },
    {
      "lon": 25.25,
      "lat": 46.25,
      "type": "hotspot_cell",
      "score": 66.31,
      "count": 220,
      "cell_deg": 0.5,
      "sources": {
        "GDELT": 220,
        "GDELT_DOC": 0,
        "DIRECT_FEED": 0,
        "USGS": 0,
        "GDACS": 0
      },
      "last7_score": 45.254,
      "prev7_score": 21.056,
      "trend": "up",
      "trend_arrow": "🔺",
      "change_pct": 114.9,
      "place": "Harghita, Romania"
    },
    {
      "lon": 15.25,
      "lat": 49.75,
      "type": "hotspot_cell",
      "score": 58.31,
      "count": 128,
      "cell_deg": 0.5,
      "sources": {
        "GDELT": 128,
        "GDELT_DOC": 0,
        "DIRECT_FEED": 0,
        "USGS": 0,
        "GDACS": 0
      },
      "last7_score": 49.179,
      "prev7_score": 9.13,
      "trend": "up",
      "trend_arrow": "🔺",
      "change_pct": 438.6,
      "place": "Vysočina Region, Czechia"
    },
    {
      "lon": 21.25,
      "lat": 52.25,
      "type": "hotspot_cell",
      "score": 54.89,
      "count": 128,
      "cell_deg": 0.5,
      "sources": {
        "GDELT": 128,
        "GDELT_DOC": 0,
        "DIRECT_FEED": 0,
        "USGS": 0,
        "GDACS": 0
      },
      "last7_score": 46.251,
      "prev7_score": 8.639,
      "trend": "up",
      "trend_arrow": "🔺",
      "change_pct": 435.4,
      "place": "Warsaw, Poland"
    }
  ]
}