{
  "generated_utc": "2026-05-04T19:47:54Z",
  "top": [
    {
      "lon": 14.25,
      "lat": 50.25,
      "type": "hotspot_cell",
      "score": 906.298,
      "count": 1497,
      "cell_deg": 0.5,
      "sources": {
        "GDELT": 182,
        "GDELT_DOC": 1311,
        "DIRECT_FEED": 4,
        "USGS": 0,
        "GDACS": 0
      },
      "last7_score": 895.884,
      "prev7_score": 10.414,
      "trend": "up",
      "trend_arrow": "🔺",
      "change_pct": 8502.6,
      "place": "SO ORP Kralupy nad Vltavou, Czechia"
    },
    {
      "lon": 26.25,
      "lat": 44.25,
      "type": "hotspot_cell",
      "score": 759.512,
      "count": 1296,
      "cell_deg": 0.5,
      "sources": {
        "GDELT": 132,
        "GDELT_DOC": 1163,
        "DIRECT_FEED": 1,
        "USGS": 0,
        "GDACS": 0
      },
      "last7_score": 751.017,
      "prev7_score": 8.495,
      "trend": "up",
      "trend_arrow": "🔺",
      "change_pct": 8740.2,
      "place": "Giurgiu, Romania"
    },
    {
      "lon": 25.25,
      "lat": 54.75,
      "type": "hotspot_cell",
      "score": 651.34,
      "count": 1047,
      "cell_deg": 0.5,
      "sources": {
        "GDELT": 63,
        "GDELT_DOC": 984,
        "DIRECT_FEED": 0,
        "USGS": 0,
        "GDACS": 0
      },
      "last7_score": 647.083,
      "prev7_score": 4.257,
      "trend": "up",
      "trend_arrow": "🔺",
      "change_pct": 15100.9,
      "place": "Vilnius County, Lithuania"
    },
    {
      "lon": 20.25,
      "lat": 52.25,
      "type": "hotspot_cell",
      "score": 193.859,
      "count": 514,
      "cell_deg": 0.5,
      "sources": {
        "GDELT": 514,
        "GDELT_DOC": 0,
        "DIRECT_FEED": 0,
        "USGS": 0,
        "GDACS": 0
      },
      "last7_score": 165.862,
      "prev7_score": 27.998,
      "trend": "up",
      "trend_arrow": "🔺",
      "change_pct": 492.4,
      "place": "Sochaczew County, Poland"
    },
    {
      "lon": 19.25,
      "lat": 47.75,
      "type": "hotspot_cell",
      "score": 180.168,
      "count": 480,
      "cell_deg": 0.5,
      "sources": {
        "GDELT": 302,
        "GDELT_DOC": 0,
        "DIRECT_FEED": 178,
        "USGS": 0,
        "GDACS": 0
      },
      "last7_score": 160.155,
      "prev7_score": 20.012,
      "trend": "up",
      "trend_arrow": "🔺",
      "change_pct": 700.3,
      "place": "Pest, Hungary"
    },
    {
      "lon": 25.25,
      "lat": 46.25,
      "type": "hotspot_cell",
      "score": 124.935,
      "count": 337,
      "cell_deg": 0.5,
      "sources": {
        "GDELT": 337,
        "GDELT_DOC": 0,
        "DIRECT_FEED": 0,
        "USGS": 0,
        "GDACS": 0
      },
      "last7_score": 107.273,
      "prev7_score": 17.662,
      "trend": "up",
      "trend_arrow": "🔺",
      "change_pct": 507.4,
      "place": "Harghita, Romania"
    },
    {
      "lon": 20.25,
      "lat": 47.25,
      "type": "hotspot_cell",
      "score": 112.866,
      "count": 461,
      "cell_deg": 0.5,
      "sources": {
        "GDELT": 461,
        "GDELT_DOC": 0,
        "DIRECT_FEED": 0,
        "USGS": 0,
        "GDACS": 0
      },
      "last7_score": 80.922,
      "prev7_score": 31.944,
      "trend": "up",
      "trend_arrow": "🔺",
      "change_pct": 153.3,
      "place": "Jász-Nagykun-Szolnok, Hungary"
    },
    {
      "lon": 24.25,
      "lat": 56.75,
      "type": "hotspot_cell",
      "score": 100.789,
      "count": 165,
      "cell_deg": 0.5,
      "sources": {
        "GDELT": 28,
        "GDELT_DOC": 0,
        "DIRECT_FEED": 137,
        "USGS": 0,
        "GDACS": 0
      },
      "last7_score": 98.325,
      "prev7_score": 2.464,
      "trend": "up",
      "trend_arrow": "🔺",
      "change_pct": 3890.6,
      "place": "Ķekavas novads, Latvia"
    },
    {
      "lon": 15.25,
      "lat": 49.75,
      "type": "hotspot_cell",
      "score": 78.333,
      "count": 212,
      "cell_deg": 0.5,
      "sources": {
        "GDELT": 212,
        "GDELT_DOC": 0,
        "DIRECT_FEED": 0,
        "USGS": 0,
        "GDACS": 0
      },
      "last7_score": 67.893,
      "prev7_score": 10.44,
      "trend": "up",
      "trend_arrow": "🔺",
      "change_pct": 550.3,
      "place": "Vysočina Region, Czechia"
    },
    {
      "lon": 21.25,
      "lat": 52.25,
      "type": "hotspot_cell",
      "score": 50.566,
      "count": 159,
      "cell_deg": 0.5,
      "sources": {
        "GDELT": 159,
        "GDELT_DOC": 0,
        "DIRECT_FEED": 0,
        "USGS": 0,
        "GDACS": 0
      },
      "last7_score": 41.068,
      "prev7_score": 9.498,
      "trend": "up",
      "trend_arrow": "🔺",
      "change_pct": 332.4,
      "place": "Warsaw, Poland"
    }
  ]
}