{
  "generated_utc": "2026-06-27T08:33:10Z",
  "top": [
    {
      "lon": 14.25,
      "lat": 50.25,
      "type": "hotspot_cell",
      "score": 636.01,
      "count": 1105,
      "cell_deg": 0.5,
      "sources": {
        "GDELT": 125,
        "GDELT_DOC": 968,
        "DIRECT_FEED": 12,
        "USGS": 0,
        "GDACS": 0
      },
      "last7_score": 628.841,
      "prev7_score": 7.17,
      "trend": "up",
      "trend_arrow": "🔺",
      "change_pct": 8670.8,
      "place": "SO ORP Kralupy nad Vltavou, Czechia"
    },
    {
      "lon": 26.25,
      "lat": 44.25,
      "type": "hotspot_cell",
      "score": 593.973,
      "count": 1049,
      "cell_deg": 0.5,
      "sources": {
        "GDELT": 142,
        "GDELT_DOC": 897,
        "DIRECT_FEED": 10,
        "USGS": 0,
        "GDACS": 0
      },
      "last7_score": 584.703,
      "prev7_score": 9.27,
      "trend": "up",
      "trend_arrow": "🔺",
      "change_pct": 6207.6,
      "place": "Giurgiu, Romania"
    },
    {
      "lon": 25.25,
      "lat": 54.75,
      "type": "hotspot_cell",
      "score": 378.907,
      "count": 613,
      "cell_deg": 0.5,
      "sources": {
        "GDELT": 55,
        "GDELT_DOC": 558,
        "DIRECT_FEED": 0,
        "USGS": 0,
        "GDACS": 0
      },
      "last7_score": 375.506,
      "prev7_score": 3.401,
      "trend": "up",
      "trend_arrow": "🔺",
      "change_pct": 10939.8,
      "place": "Vilnius County, Lithuania"
    },
    {
      "lon": 20.25,
      "lat": 52.25,
      "type": "hotspot_cell",
      "score": 203.669,
      "count": 505,
      "cell_deg": 0.5,
      "sources": {
        "GDELT": 505,
        "GDELT_DOC": 0,
        "DIRECT_FEED": 0,
        "USGS": 0,
        "GDACS": 0
      },
      "last7_score": 166.985,
      "prev7_score": 36.684,
      "trend": "up",
      "trend_arrow": "🔺",
      "change_pct": 355.2,
      "place": "Sochaczew County, Poland"
    },
    {
      "lon": 19.25,
      "lat": 47.75,
      "type": "hotspot_cell",
      "score": 186.667,
      "count": 350,
      "cell_deg": 0.5,
      "sources": {
        "GDELT": 188,
        "GDELT_DOC": 0,
        "DIRECT_FEED": 162,
        "USGS": 0,
        "GDACS": 0
      },
      "last7_score": 174.733,
      "prev7_score": 11.935,
      "trend": "up",
      "trend_arrow": "🔺",
      "change_pct": 1364.1,
      "place": "Pest, Hungary"
    },
    {
      "lon": 25.25,
      "lat": 46.25,
      "type": "hotspot_cell",
      "score": 141.942,
      "count": 401,
      "cell_deg": 0.5,
      "sources": {
        "GDELT": 401,
        "GDELT_DOC": 0,
        "DIRECT_FEED": 0,
        "USGS": 0,
        "GDACS": 0
      },
      "last7_score": 112.943,
      "prev7_score": 28.999,
      "trend": "up",
      "trend_arrow": "🔺",
      "change_pct": 289.5,
      "place": "Harghita, Romania"
    },
    {
      "lon": 21.25,
      "lat": 52.25,
      "type": "hotspot_cell",
      "score": 130.04,
      "count": 341,
      "cell_deg": 0.5,
      "sources": {
        "GDELT": 341,
        "GDELT_DOC": 0,
        "DIRECT_FEED": 0,
        "USGS": 0,
        "GDACS": 0
      },
      "last7_score": 101.841,
      "prev7_score": 28.199,
      "trend": "up",
      "trend_arrow": "🔺",
      "change_pct": 261.2,
      "place": "Warsaw, Poland"
    },
    {
      "lon": 24.25,
      "lat": 56.75,
      "type": "hotspot_cell",
      "score": 118.595,
      "count": 173,
      "cell_deg": 0.5,
      "sources": {
        "GDELT": 31,
        "GDELT_DOC": 0,
        "DIRECT_FEED": 142,
        "USGS": 0,
        "GDACS": 0
      },
      "last7_score": 116.327,
      "prev7_score": 2.268,
      "trend": "up",
      "trend_arrow": "🔺",
      "change_pct": 5029.4,
      "place": "Ķekavas novads, Latvia"
    },
    {
      "lon": 20.25,
      "lat": 47.25,
      "type": "hotspot_cell",
      "score": 82.311,
      "count": 230,
      "cell_deg": 0.5,
      "sources": {
        "GDELT": 229,
        "GDELT_DOC": 0,
        "DIRECT_FEED": 0,
        "USGS": 0,
        "GDACS": 1
      },
      "last7_score": 66.202,
      "prev7_score": 16.109,
      "trend": "up",
      "trend_arrow": "🔺",
      "change_pct": 311.0,
      "place": "Jász-Nagykun-Szolnok, Hungary"
    },
    {
      "lon": 15.25,
      "lat": 49.75,
      "type": "hotspot_cell",
      "score": 58.138,
      "count": 151,
      "cell_deg": 0.5,
      "sources": {
        "GDELT": 151,
        "GDELT_DOC": 0,
        "DIRECT_FEED": 0,
        "USGS": 0,
        "GDACS": 0
      },
      "last7_score": 46.893,
      "prev7_score": 11.245,
      "trend": "up",
      "trend_arrow": "🔺",
      "change_pct": 317.0,
      "place": "Vysočina Region, Czechia"
    }
  ]
}