{
  "generated_utc": "2026-03-23T19:00:31Z",
  "top": [
    {
      "lon": 14.25,
      "lat": 50.25,
      "type": "hotspot_cell",
      "score": 802.476,
      "count": 1373,
      "cell_deg": 0.5,
      "sources": {
        "GDELT": 118,
        "GDELT_DOC": 1252,
        "DIRECT_FEED": 3,
        "USGS": 0,
        "GDACS": 0
      },
      "last7_score": 795.284,
      "prev7_score": 7.192,
      "trend": "up",
      "trend_arrow": "🔺",
      "change_pct": 10958.5,
      "place": "SO ORP Kralupy nad Vltavou, Czechia"
    },
    {
      "lon": 26.25,
      "lat": 44.25,
      "type": "hotspot_cell",
      "score": 696.629,
      "count": 1300,
      "cell_deg": 0.5,
      "sources": {
        "GDELT": 189,
        "GDELT_DOC": 1111,
        "DIRECT_FEED": 0,
        "USGS": 0,
        "GDACS": 0
      },
      "last7_score": 683.787,
      "prev7_score": 12.842,
      "trend": "up",
      "trend_arrow": "🔺",
      "change_pct": 5224.7,
      "place": "Giurgiu, Romania"
    },
    {
      "lon": 25.25,
      "lat": 54.75,
      "type": "hotspot_cell",
      "score": 562.238,
      "count": 950,
      "cell_deg": 0.5,
      "sources": {
        "GDELT": 91,
        "GDELT_DOC": 859,
        "DIRECT_FEED": 0,
        "USGS": 0,
        "GDACS": 0
      },
      "last7_score": 557.703,
      "prev7_score": 4.535,
      "trend": "up",
      "trend_arrow": "🔺",
      "change_pct": 12197.8,
      "place": "Vilnius County, Lithuania"
    },
    {
      "lon": 19.25,
      "lat": 47.75,
      "type": "hotspot_cell",
      "score": 268.4,
      "count": 587,
      "cell_deg": 0.5,
      "sources": {
        "GDELT": 368,
        "GDELT_DOC": 0,
        "DIRECT_FEED": 219,
        "USGS": 0,
        "GDACS": 0
      },
      "last7_score": 244.236,
      "prev7_score": 24.165,
      "trend": "up",
      "trend_arrow": "🔺",
      "change_pct": 910.7,
      "place": "Pest, Hungary"
    },
    {
      "lon": 20.25,
      "lat": 47.25,
      "type": "hotspot_cell",
      "score": 152.781,
      "count": 416,
      "cell_deg": 0.5,
      "sources": {
        "GDELT": 416,
        "GDELT_DOC": 0,
        "DIRECT_FEED": 0,
        "USGS": 0,
        "GDACS": 0
      },
      "last7_score": 126.318,
      "prev7_score": 26.463,
      "trend": "up",
      "trend_arrow": "🔺",
      "change_pct": 377.3,
      "place": "Jász-Nagykun-Szolnok, Hungary"
    },
    {
      "lon": 20.25,
      "lat": 52.25,
      "type": "hotspot_cell",
      "score": 139.707,
      "count": 416,
      "cell_deg": 0.5,
      "sources": {
        "GDELT": 416,
        "GDELT_DOC": 0,
        "DIRECT_FEED": 0,
        "USGS": 0,
        "GDACS": 0
      },
      "last7_score": 114.392,
      "prev7_score": 25.315,
      "trend": "up",
      "trend_arrow": "🔺",
      "change_pct": 351.9,
      "place": "Sochaczew County, Poland"
    },
    {
      "lon": 25.25,
      "lat": 46.25,
      "type": "hotspot_cell",
      "score": 107.715,
      "count": 329,
      "cell_deg": 0.5,
      "sources": {
        "GDELT": 329,
        "GDELT_DOC": 0,
        "DIRECT_FEED": 0,
        "USGS": 0,
        "GDACS": 0
      },
      "last7_score": 87.736,
      "prev7_score": 19.979,
      "trend": "up",
      "trend_arrow": "🔺",
      "change_pct": 339.1,
      "place": "Harghita, Romania"
    },
    {
      "lon": 24.25,
      "lat": 56.75,
      "type": "hotspot_cell",
      "score": 103.753,
      "count": 171,
      "cell_deg": 0.5,
      "sources": {
        "GDELT": 37,
        "GDELT_DOC": 0,
        "DIRECT_FEED": 134,
        "USGS": 0,
        "GDACS": 0
      },
      "last7_score": 101.306,
      "prev7_score": 2.447,
      "trend": "up",
      "trend_arrow": "🔺",
      "change_pct": 4040.0,
      "place": "Ķekavas novads, Latvia"
    },
    {
      "lon": 15.25,
      "lat": 49.75,
      "type": "hotspot_cell",
      "score": 68.173,
      "count": 178,
      "cell_deg": 0.5,
      "sources": {
        "GDELT": 178,
        "GDELT_DOC": 0,
        "DIRECT_FEED": 0,
        "USGS": 0,
        "GDACS": 0
      },
      "last7_score": 59.981,
      "prev7_score": 8.193,
      "trend": "up",
      "trend_arrow": "🔺",
      "change_pct": 632.1,
      "place": "Vysočina Region, Czechia"
    },
    {
      "lon": 21.25,
      "lat": 52.25,
      "type": "hotspot_cell",
      "score": 50.559,
      "count": 180,
      "cell_deg": 0.5,
      "sources": {
        "GDELT": 180,
        "GDELT_DOC": 0,
        "DIRECT_FEED": 0,
        "USGS": 0,
        "GDACS": 0
      },
      "last7_score": 38.881,
      "prev7_score": 11.678,
      "trend": "up",
      "trend_arrow": "🔺",
      "change_pct": 232.9,
      "place": "Warsaw, Poland"
    }
  ]
}