{
  "generated_utc": "2026-04-24T08:11:57Z",
  "top": [
    {
      "lon": 14.25,
      "lat": 50.25,
      "type": "hotspot_cell",
      "score": 1098.237,
      "count": 1576,
      "cell_deg": 0.5,
      "sources": {
        "GDELT": 171,
        "GDELT_DOC": 1401,
        "DIRECT_FEED": 4,
        "USGS": 0,
        "GDACS": 0
      },
      "last7_score": 1082.749,
      "prev7_score": 15.487,
      "trend": "up",
      "trend_arrow": "🔺",
      "change_pct": 6891.2,
      "place": "SO ORP Kralupy nad Vltavou, Czechia"
    },
    {
      "lon": 26.25,
      "lat": 44.25,
      "type": "hotspot_cell",
      "score": 899.774,
      "count": 1384,
      "cell_deg": 0.5,
      "sources": {
        "GDELT": 130,
        "GDELT_DOC": 1248,
        "DIRECT_FEED": 6,
        "USGS": 0,
        "GDACS": 0
      },
      "last7_score": 890.01,
      "prev7_score": 9.764,
      "trend": "up",
      "trend_arrow": "🔺",
      "change_pct": 9015.1,
      "place": "Giurgiu, Romania"
    },
    {
      "lon": 25.25,
      "lat": 54.75,
      "type": "hotspot_cell",
      "score": 749.029,
      "count": 1141,
      "cell_deg": 0.5,
      "sources": {
        "GDELT": 69,
        "GDELT_DOC": 1072,
        "DIRECT_FEED": 0,
        "USGS": 0,
        "GDACS": 0
      },
      "last7_score": 741.633,
      "prev7_score": 7.396,
      "trend": "up",
      "trend_arrow": "🔺",
      "change_pct": 9928.1,
      "place": "Vilnius County, Lithuania"
    },
    {
      "lon": 19.25,
      "lat": 47.75,
      "type": "hotspot_cell",
      "score": 436.237,
      "count": 1248,
      "cell_deg": 0.5,
      "sources": {
        "GDELT": 992,
        "GDELT_DOC": 0,
        "DIRECT_FEED": 256,
        "USGS": 0,
        "GDACS": 0
      },
      "last7_score": 351.217,
      "prev7_score": 85.02,
      "trend": "up",
      "trend_arrow": "🔺",
      "change_pct": 313.1,
      "place": "Pest, Hungary"
    },
    {
      "lon": 20.25,
      "lat": 47.25,
      "type": "hotspot_cell",
      "score": 293.231,
      "count": 852,
      "cell_deg": 0.5,
      "sources": {
        "GDELT": 852,
        "GDELT_DOC": 0,
        "DIRECT_FEED": 0,
        "USGS": 0,
        "GDACS": 0
      },
      "last7_score": 223.055,
      "prev7_score": 70.176,
      "trend": "up",
      "trend_arrow": "🔺",
      "change_pct": 217.9,
      "place": "Jász-Nagykun-Szolnok, Hungary"
    },
    {
      "lon": 20.25,
      "lat": 52.25,
      "type": "hotspot_cell",
      "score": 186.21,
      "count": 442,
      "cell_deg": 0.5,
      "sources": {
        "GDELT": 442,
        "GDELT_DOC": 0,
        "DIRECT_FEED": 0,
        "USGS": 0,
        "GDACS": 0
      },
      "last7_score": 152.499,
      "prev7_score": 33.712,
      "trend": "up",
      "trend_arrow": "🔺",
      "change_pct": 352.4,
      "place": "Sochaczew County, Poland"
    },
    {
      "lon": 24.25,
      "lat": 56.75,
      "type": "hotspot_cell",
      "score": 112.184,
      "count": 159,
      "cell_deg": 0.5,
      "sources": {
        "GDELT": 30,
        "GDELT_DOC": 0,
        "DIRECT_FEED": 129,
        "USGS": 0,
        "GDACS": 0
      },
      "last7_score": 108.808,
      "prev7_score": 3.376,
      "trend": "up",
      "trend_arrow": "🔺",
      "change_pct": 3122.6,
      "place": "Ķekavas novads, Latvia"
    },
    {
      "lon": 27.75,
      "lat": 47.25,
      "type": "hotspot_cell",
      "score": 98.158,
      "count": 121,
      "cell_deg": 0.5,
      "sources": {
        "GDELT": 0,
        "GDELT_DOC": 121,
        "DIRECT_FEED": 0,
        "USGS": 0,
        "GDACS": 0
      },
      "last7_score": 98.158,
      "prev7_score": 0.0,
      "trend": "new",
      "trend_arrow": "🆕",
      "change_pct": null,
      "place": "Iași, Romania"
    },
    {
      "lon": 25.25,
      "lat": 46.25,
      "type": "hotspot_cell",
      "score": 97.731,
      "count": 247,
      "cell_deg": 0.5,
      "sources": {
        "GDELT": 247,
        "GDELT_DOC": 0,
        "DIRECT_FEED": 0,
        "USGS": 0,
        "GDACS": 0
      },
      "last7_score": 75.001,
      "prev7_score": 22.73,
      "trend": "up",
      "trend_arrow": "🔺",
      "change_pct": 230.0,
      "place": "Harghita, Romania"
    },
    {
      "lon": 15.25,
      "lat": 49.75,
      "type": "hotspot_cell",
      "score": 73.062,
      "count": 198,
      "cell_deg": 0.5,
      "sources": {
        "GDELT": 198,
        "GDELT_DOC": 0,
        "DIRECT_FEED": 0,
        "USGS": 0,
        "GDACS": 0
      },
      "last7_score": 56.84,
      "prev7_score": 16.222,
      "trend": "up",
      "trend_arrow": "🔺",
      "change_pct": 250.4,
      "place": "Vysočina Region, Czechia"
    }
  ]
}