{
  "generated_utc": "2026-05-06T02:56:54Z",
  "top": [
    {
      "lon": 14.25,
      "lat": 50.25,
      "type": "hotspot_cell",
      "score": 825.287,
      "count": 1435,
      "cell_deg": 0.5,
      "sources": {
        "GDELT": 170,
        "GDELT_DOC": 1261,
        "DIRECT_FEED": 4,
        "USGS": 0,
        "GDACS": 0
      },
      "last7_score": 809.337,
      "prev7_score": 15.951,
      "trend": "up",
      "trend_arrow": "🔺",
      "change_pct": 4974.0,
      "place": "SO ORP Kralupy nad Vltavou, Czechia"
    },
    {
      "lon": 26.25,
      "lat": 44.25,
      "type": "hotspot_cell",
      "score": 719.952,
      "count": 1230,
      "cell_deg": 0.5,
      "sources": {
        "GDELT": 134,
        "GDELT_DOC": 1092,
        "DIRECT_FEED": 4,
        "USGS": 0,
        "GDACS": 0
      },
      "last7_score": 708.931,
      "prev7_score": 11.021,
      "trend": "up",
      "trend_arrow": "🔺",
      "change_pct": 6332.3,
      "place": "Giurgiu, Romania"
    },
    {
      "lon": 25.25,
      "lat": 54.75,
      "type": "hotspot_cell",
      "score": 606.999,
      "count": 1018,
      "cell_deg": 0.5,
      "sources": {
        "GDELT": 59,
        "GDELT_DOC": 959,
        "DIRECT_FEED": 0,
        "USGS": 0,
        "GDACS": 0
      },
      "last7_score": 600.757,
      "prev7_score": 6.242,
      "trend": "up",
      "trend_arrow": "🔺",
      "change_pct": 9524.7,
      "place": "Vilnius County, Lithuania"
    },
    {
      "lon": 20.25,
      "lat": 52.25,
      "type": "hotspot_cell",
      "score": 197.49,
      "count": 487,
      "cell_deg": 0.5,
      "sources": {
        "GDELT": 487,
        "GDELT_DOC": 0,
        "DIRECT_FEED": 0,
        "USGS": 0,
        "GDACS": 0
      },
      "last7_score": 161.129,
      "prev7_score": 36.36,
      "trend": "up",
      "trend_arrow": "🔺",
      "change_pct": 343.1,
      "place": "Sochaczew County, Poland"
    },
    {
      "lon": 19.25,
      "lat": 47.75,
      "type": "hotspot_cell",
      "score": 161.625,
      "count": 357,
      "cell_deg": 0.5,
      "sources": {
        "GDELT": 195,
        "GDELT_DOC": 0,
        "DIRECT_FEED": 162,
        "USGS": 0,
        "GDACS": 0
      },
      "last7_score": 141.859,
      "prev7_score": 19.766,
      "trend": "up",
      "trend_arrow": "🔺",
      "change_pct": 617.7,
      "place": "Pest, Hungary"
    },
    {
      "lon": 25.25,
      "lat": 46.25,
      "type": "hotspot_cell",
      "score": 136.255,
      "count": 338,
      "cell_deg": 0.5,
      "sources": {
        "GDELT": 338,
        "GDELT_DOC": 0,
        "DIRECT_FEED": 0,
        "USGS": 0,
        "GDACS": 0
      },
      "last7_score": 108.332,
      "prev7_score": 27.922,
      "trend": "up",
      "trend_arrow": "🔺",
      "change_pct": 288.0,
      "place": "Harghita, Romania"
    },
    {
      "lon": 24.25,
      "lat": 56.75,
      "type": "hotspot_cell",
      "score": 105.993,
      "count": 161,
      "cell_deg": 0.5,
      "sources": {
        "GDELT": 32,
        "GDELT_DOC": 0,
        "DIRECT_FEED": 129,
        "USGS": 0,
        "GDACS": 0
      },
      "last7_score": 103.395,
      "prev7_score": 2.598,
      "trend": "up",
      "trend_arrow": "🔺",
      "change_pct": 3880.1,
      "place": "Ķekavas novads, Latvia"
    },
    {
      "lon": 20.25,
      "lat": 47.25,
      "type": "hotspot_cell",
      "score": 89.462,
      "count": 340,
      "cell_deg": 0.5,
      "sources": {
        "GDELT": 340,
        "GDELT_DOC": 0,
        "DIRECT_FEED": 0,
        "USGS": 0,
        "GDACS": 0
      },
      "last7_score": 57.371,
      "prev7_score": 32.091,
      "trend": "up",
      "trend_arrow": "🔺",
      "change_pct": 78.8,
      "place": "Jász-Nagykun-Szolnok, Hungary"
    },
    {
      "lon": 15.25,
      "lat": 49.75,
      "type": "hotspot_cell",
      "score": 66.727,
      "count": 191,
      "cell_deg": 0.5,
      "sources": {
        "GDELT": 191,
        "GDELT_DOC": 0,
        "DIRECT_FEED": 0,
        "USGS": 0,
        "GDACS": 0
      },
      "last7_score": 47.735,
      "prev7_score": 18.992,
      "trend": "up",
      "trend_arrow": "🔺",
      "change_pct": 151.3,
      "place": "Vysočina Region, Czechia"
    },
    {
      "lon": 21.25,
      "lat": 52.25,
      "type": "hotspot_cell",
      "score": 49.787,
      "count": 150,
      "cell_deg": 0.5,
      "sources": {
        "GDELT": 150,
        "GDELT_DOC": 0,
        "DIRECT_FEED": 0,
        "USGS": 0,
        "GDACS": 0
      },
      "last7_score": 35.246,
      "prev7_score": 14.542,
      "trend": "up",
      "trend_arrow": "🔺",
      "change_pct": 142.4,
      "place": "Warsaw, Poland"
    }
  ]
}