{
  "generated_utc": "2026-03-19T19:06:06Z",
  "top": [
    {
      "lon": 26.25,
      "lat": 44.25,
      "type": "hotspot_cell",
      "score": 915.886,
      "count": 1441,
      "cell_deg": 0.5,
      "sources": {
        "GDELT": 185,
        "GDELT_DOC": 1255,
        "DIRECT_FEED": 1,
        "USGS": 0,
        "GDACS": 0
      },
      "last7_score": 901.295,
      "prev7_score": 14.591,
      "trend": "up",
      "trend_arrow": "🔺",
      "change_pct": 6077.2,
      "place": "Giurgiu, Romania"
    },
    {
      "lon": 14.25,
      "lat": 50.25,
      "type": "hotspot_cell",
      "score": 849.244,
      "count": 1399,
      "cell_deg": 0.5,
      "sources": {
        "GDELT": 120,
        "GDELT_DOC": 1276,
        "DIRECT_FEED": 3,
        "USGS": 0,
        "GDACS": 0
      },
      "last7_score": 841.959,
      "prev7_score": 7.285,
      "trend": "up",
      "trend_arrow": "🔺",
      "change_pct": 11457.8,
      "place": "SO ORP Kralupy nad Vltavou, Czechia"
    },
    {
      "lon": 25.25,
      "lat": 54.75,
      "type": "hotspot_cell",
      "score": 475.803,
      "count": 833,
      "cell_deg": 0.5,
      "sources": {
        "GDELT": 77,
        "GDELT_DOC": 756,
        "DIRECT_FEED": 0,
        "USGS": 0,
        "GDACS": 0
      },
      "last7_score": 469.392,
      "prev7_score": 6.411,
      "trend": "up",
      "trend_arrow": "🔺",
      "change_pct": 7221.7,
      "place": "Vilnius County, Lithuania"
    },
    {
      "lon": 19.25,
      "lat": 47.75,
      "type": "hotspot_cell",
      "score": 321.772,
      "count": 661,
      "cell_deg": 0.5,
      "sources": {
        "GDELT": 446,
        "GDELT_DOC": 0,
        "DIRECT_FEED": 215,
        "USGS": 0,
        "GDACS": 0
      },
      "last7_score": 290.009,
      "prev7_score": 31.763,
      "trend": "up",
      "trend_arrow": "🔺",
      "change_pct": 813.0,
      "place": "Pest, Hungary"
    },
    {
      "lon": 20.25,
      "lat": 52.25,
      "type": "hotspot_cell",
      "score": 175.532,
      "count": 443,
      "cell_deg": 0.5,
      "sources": {
        "GDELT": 443,
        "GDELT_DOC": 0,
        "DIRECT_FEED": 0,
        "USGS": 0,
        "GDACS": 0
      },
      "last7_score": 150.122,
      "prev7_score": 25.41,
      "trend": "up",
      "trend_arrow": "🔺",
      "change_pct": 490.8,
      "place": "Sochaczew County, Poland"
    },
    {
      "lon": 20.25,
      "lat": 47.25,
      "type": "hotspot_cell",
      "score": 171.009,
      "count": 399,
      "cell_deg": 0.5,
      "sources": {
        "GDELT": 399,
        "GDELT_DOC": 0,
        "DIRECT_FEED": 0,
        "USGS": 0,
        "GDACS": 0
      },
      "last7_score": 145.285,
      "prev7_score": 25.724,
      "trend": "up",
      "trend_arrow": "🔺",
      "change_pct": 464.8,
      "place": "Jász-Nagykun-Szolnok, Hungary"
    },
    {
      "lon": 25.25,
      "lat": 46.25,
      "type": "hotspot_cell",
      "score": 128.906,
      "count": 314,
      "cell_deg": 0.5,
      "sources": {
        "GDELT": 314,
        "GDELT_DOC": 0,
        "DIRECT_FEED": 0,
        "USGS": 0,
        "GDACS": 0
      },
      "last7_score": 104.805,
      "prev7_score": 24.102,
      "trend": "up",
      "trend_arrow": "🔺",
      "change_pct": 334.8,
      "place": "Harghita, Romania"
    },
    {
      "lon": 24.25,
      "lat": 56.75,
      "type": "hotspot_cell",
      "score": 113.805,
      "count": 167,
      "cell_deg": 0.5,
      "sources": {
        "GDELT": 35,
        "GDELT_DOC": 0,
        "DIRECT_FEED": 132,
        "USGS": 0,
        "GDACS": 0
      },
      "last7_score": 111.741,
      "prev7_score": 2.064,
      "trend": "up",
      "trend_arrow": "🔺",
      "change_pct": 5313.5,
      "place": "Ķekavas novads, Latvia"
    },
    {
      "lon": 15.25,
      "lat": 49.75,
      "type": "hotspot_cell",
      "score": 75.409,
      "count": 170,
      "cell_deg": 0.5,
      "sources": {
        "GDELT": 170,
        "GDELT_DOC": 0,
        "DIRECT_FEED": 0,
        "USGS": 0,
        "GDACS": 0
      },
      "last7_score": 64.545,
      "prev7_score": 10.864,
      "trend": "up",
      "trend_arrow": "🔺",
      "change_pct": 494.1,
      "place": "Vysočina Region, Czechia"
    },
    {
      "lon": 21.25,
      "lat": 52.25,
      "type": "hotspot_cell",
      "score": 72.207,
      "count": 199,
      "cell_deg": 0.5,
      "sources": {
        "GDELT": 199,
        "GDELT_DOC": 0,
        "DIRECT_FEED": 0,
        "USGS": 0,
        "GDACS": 0
      },
      "last7_score": 57.85,
      "prev7_score": 14.357,
      "trend": "up",
      "trend_arrow": "🔺",
      "change_pct": 302.9,
      "place": "Warsaw, Poland"
    }
  ]
}