{
  "generated_utc": "2026-06-12T10:05:35Z",
  "top": [
    {
      "lon": 14.25,
      "lat": 50.25,
      "type": "hotspot_cell",
      "score": 597.811,
      "count": 882,
      "cell_deg": 0.5,
      "sources": {
        "GDELT": 101,
        "GDELT_DOC": 778,
        "DIRECT_FEED": 3,
        "USGS": 0,
        "GDACS": 0
      },
      "last7_score": 588.814,
      "prev7_score": 8.997,
      "trend": "up",
      "trend_arrow": "🔺",
      "change_pct": 6444.4,
      "place": "SO ORP Kralupy nad Vltavou, Czechia"
    },
    {
      "lon": 26.25,
      "lat": 44.25,
      "type": "hotspot_cell",
      "score": 506.2,
      "count": 903,
      "cell_deg": 0.5,
      "sources": {
        "GDELT": 185,
        "GDELT_DOC": 708,
        "DIRECT_FEED": 10,
        "USGS": 0,
        "GDACS": 0
      },
      "last7_score": 488.912,
      "prev7_score": 17.288,
      "trend": "up",
      "trend_arrow": "🔺",
      "change_pct": 2728.0,
      "place": "Giurgiu, Romania"
    },
    {
      "lon": 25.25,
      "lat": 54.75,
      "type": "hotspot_cell",
      "score": 419.07,
      "count": 740,
      "cell_deg": 0.5,
      "sources": {
        "GDELT": 72,
        "GDELT_DOC": 668,
        "DIRECT_FEED": 0,
        "USGS": 0,
        "GDACS": 0
      },
      "last7_score": 412.145,
      "prev7_score": 6.925,
      "trend": "up",
      "trend_arrow": "🔺",
      "change_pct": 5851.7,
      "place": "Vilnius County, Lithuania"
    },
    {
      "lon": 20.25,
      "lat": 52.25,
      "type": "hotspot_cell",
      "score": 177.881,
      "count": 477,
      "cell_deg": 0.5,
      "sources": {
        "GDELT": 477,
        "GDELT_DOC": 0,
        "DIRECT_FEED": 0,
        "USGS": 0,
        "GDACS": 0
      },
      "last7_score": 137.17,
      "prev7_score": 40.712,
      "trend": "up",
      "trend_arrow": "🔺",
      "change_pct": 236.9,
      "place": "Sochaczew County, Poland"
    },
    {
      "lon": 19.25,
      "lat": 47.75,
      "type": "hotspot_cell",
      "score": 172.992,
      "count": 366,
      "cell_deg": 0.5,
      "sources": {
        "GDELT": 207,
        "GDELT_DOC": 0,
        "DIRECT_FEED": 159,
        "USGS": 0,
        "GDACS": 0
      },
      "last7_score": 151.78,
      "prev7_score": 21.212,
      "trend": "up",
      "trend_arrow": "🔺",
      "change_pct": 615.6,
      "place": "Pest, Hungary"
    },
    {
      "lon": 25.25,
      "lat": 46.25,
      "type": "hotspot_cell",
      "score": 166.454,
      "count": 435,
      "cell_deg": 0.5,
      "sources": {
        "GDELT": 435,
        "GDELT_DOC": 0,
        "DIRECT_FEED": 0,
        "USGS": 0,
        "GDACS": 0
      },
      "last7_score": 127.041,
      "prev7_score": 39.413,
      "trend": "up",
      "trend_arrow": "🔺",
      "change_pct": 222.3,
      "place": "Harghita, Romania"
    },
    {
      "lon": 24.25,
      "lat": 56.75,
      "type": "hotspot_cell",
      "score": 113.573,
      "count": 167,
      "cell_deg": 0.5,
      "sources": {
        "GDELT": 43,
        "GDELT_DOC": 0,
        "DIRECT_FEED": 124,
        "USGS": 0,
        "GDACS": 0
      },
      "last7_score": 110.042,
      "prev7_score": 3.531,
      "trend": "up",
      "trend_arrow": "🔺",
      "change_pct": 3016.3,
      "place": "Ķekavas novads, Latvia"
    },
    {
      "lon": 20.25,
      "lat": 47.25,
      "type": "hotspot_cell",
      "score": 94.331,
      "count": 249,
      "cell_deg": 0.5,
      "sources": {
        "GDELT": 249,
        "GDELT_DOC": 0,
        "DIRECT_FEED": 0,
        "USGS": 0,
        "GDACS": 0
      },
      "last7_score": 75.733,
      "prev7_score": 18.598,
      "trend": "up",
      "trend_arrow": "🔺",
      "change_pct": 307.2,
      "place": "Jász-Nagykun-Szolnok, Hungary"
    },
    {
      "lon": 21.25,
      "lat": 52.25,
      "type": "hotspot_cell",
      "score": 63.707,
      "count": 186,
      "cell_deg": 0.5,
      "sources": {
        "GDELT": 186,
        "GDELT_DOC": 0,
        "DIRECT_FEED": 0,
        "USGS": 0,
        "GDACS": 0
      },
      "last7_score": 48.674,
      "prev7_score": 15.033,
      "trend": "up",
      "trend_arrow": "🔺",
      "change_pct": 223.8,
      "place": "Warsaw, Poland"
    },
    {
      "lon": 15.25,
      "lat": 49.75,
      "type": "hotspot_cell",
      "score": 51.347,
      "count": 128,
      "cell_deg": 0.5,
      "sources": {
        "GDELT": 128,
        "GDELT_DOC": 0,
        "DIRECT_FEED": 0,
        "USGS": 0,
        "GDACS": 0
      },
      "last7_score": 41.56,
      "prev7_score": 9.786,
      "trend": "up",
      "trend_arrow": "🔺",
      "change_pct": 324.7,
      "place": "Vysočina Region, Czechia"
    }
  ]
}