{
  "generated_utc": "2026-04-15T02:38:05Z",
  "top": [
    {
      "lon": 19.25,
      "lat": 47.75,
      "type": "hotspot_cell",
      "score": 818.009,
      "count": 1386,
      "cell_deg": 0.5,
      "sources": {
        "GDELT": 1064,
        "GDELT_DOC": 0,
        "DIRECT_FEED": 322,
        "USGS": 0,
        "GDACS": 0
      },
      "last7_score": 751.101,
      "prev7_score": 66.908,
      "trend": "up",
      "trend_arrow": "🔺",
      "change_pct": 1022.6,
      "place": "Pest, Hungary"
    },
    {
      "lon": 14.25,
      "lat": 50.25,
      "type": "hotspot_cell",
      "score": 816.329,
      "count": 1312,
      "cell_deg": 0.5,
      "sources": {
        "GDELT": 79,
        "GDELT_DOC": 1233,
        "DIRECT_FEED": 0,
        "USGS": 0,
        "GDACS": 0
      },
      "last7_score": 810.382,
      "prev7_score": 5.948,
      "trend": "up",
      "trend_arrow": "🔺",
      "change_pct": 13525.2,
      "place": "SO ORP Kralupy nad Vltavou, Czechia"
    },
    {
      "lon": 26.25,
      "lat": 44.25,
      "type": "hotspot_cell",
      "score": 797.208,
      "count": 1377,
      "cell_deg": 0.5,
      "sources": {
        "GDELT": 114,
        "GDELT_DOC": 1261,
        "DIRECT_FEED": 2,
        "USGS": 0,
        "GDACS": 0
      },
      "last7_score": 785.447,
      "prev7_score": 11.761,
      "trend": "up",
      "trend_arrow": "🔺",
      "change_pct": 6578.7,
      "place": "Giurgiu, Romania"
    },
    {
      "lon": 25.25,
      "lat": 54.75,
      "type": "hotspot_cell",
      "score": 520.552,
      "count": 923,
      "cell_deg": 0.5,
      "sources": {
        "GDELT": 72,
        "GDELT_DOC": 849,
        "DIRECT_FEED": 2,
        "USGS": 0,
        "GDACS": 0
      },
      "last7_score": 515.142,
      "prev7_score": 5.41,
      "trend": "up",
      "trend_arrow": "🔺",
      "change_pct": 9421.9,
      "place": "Vilnius County, Lithuania"
    },
    {
      "lon": 20.25,
      "lat": 47.25,
      "type": "hotspot_cell",
      "score": 371.961,
      "count": 671,
      "cell_deg": 0.5,
      "sources": {
        "GDELT": 671,
        "GDELT_DOC": 0,
        "DIRECT_FEED": 0,
        "USGS": 0,
        "GDACS": 0
      },
      "last7_score": 334.041,
      "prev7_score": 37.92,
      "trend": "up",
      "trend_arrow": "🔺",
      "change_pct": 780.9,
      "place": "Jász-Nagykun-Szolnok, Hungary"
    },
    {
      "lon": 20.25,
      "lat": 52.25,
      "type": "hotspot_cell",
      "score": 154.114,
      "count": 374,
      "cell_deg": 0.5,
      "sources": {
        "GDELT": 374,
        "GDELT_DOC": 0,
        "DIRECT_FEED": 0,
        "USGS": 0,
        "GDACS": 0
      },
      "last7_score": 129.106,
      "prev7_score": 25.009,
      "trend": "up",
      "trend_arrow": "🔺",
      "change_pct": 416.2,
      "place": "Sochaczew County, Poland"
    },
    {
      "lon": 24.25,
      "lat": 56.75,
      "type": "hotspot_cell",
      "score": 108.544,
      "count": 161,
      "cell_deg": 0.5,
      "sources": {
        "GDELT": 25,
        "GDELT_DOC": 0,
        "DIRECT_FEED": 136,
        "USGS": 0,
        "GDACS": 0
      },
      "last7_score": 107.767,
      "prev7_score": 0.777,
      "trend": "up",
      "trend_arrow": "🔺",
      "change_pct": 13767.7,
      "place": "Ķekavas novads, Latvia"
    },
    {
      "lon": 25.25,
      "lat": 46.25,
      "type": "hotspot_cell",
      "score": 86.466,
      "count": 228,
      "cell_deg": 0.5,
      "sources": {
        "GDELT": 228,
        "GDELT_DOC": 0,
        "DIRECT_FEED": 0,
        "USGS": 0,
        "GDACS": 0
      },
      "last7_score": 64.932,
      "prev7_score": 21.535,
      "trend": "up",
      "trend_arrow": "🔺",
      "change_pct": 201.5,
      "place": "Harghita, Romania"
    },
    {
      "lon": 21.25,
      "lat": 52.25,
      "type": "hotspot_cell",
      "score": 70.93,
      "count": 134,
      "cell_deg": 0.5,
      "sources": {
        "GDELT": 134,
        "GDELT_DOC": 0,
        "DIRECT_FEED": 0,
        "USGS": 0,
        "GDACS": 0
      },
      "last7_score": 62.04,
      "prev7_score": 8.89,
      "trend": "up",
      "trend_arrow": "🔺",
      "change_pct": 597.9,
      "place": "Warsaw, Poland"
    },
    {
      "lon": 15.25,
      "lat": 49.75,
      "type": "hotspot_cell",
      "score": 62.327,
      "count": 135,
      "cell_deg": 0.5,
      "sources": {
        "GDELT": 135,
        "GDELT_DOC": 0,
        "DIRECT_FEED": 0,
        "USGS": 0,
        "GDACS": 0
      },
      "last7_score": 53.476,
      "prev7_score": 8.851,
      "trend": "up",
      "trend_arrow": "🔺",
      "change_pct": 504.2,
      "place": "Vysočina Region, Czechia"
    }
  ]
}