{
  "generated_utc": "2026-06-01T02:54:19Z",
  "top": [
    {
      "lon": 26.25,
      "lat": 44.25,
      "type": "hotspot_cell",
      "score": 713.459,
      "count": 1247,
      "cell_deg": 0.5,
      "sources": {
        "GDELT": 208,
        "GDELT_DOC": 1027,
        "DIRECT_FEED": 12,
        "USGS": 0,
        "GDACS": 0
      },
      "last7_score": 706.358,
      "prev7_score": 7.1,
      "trend": "up",
      "trend_arrow": "🔺",
      "change_pct": 9848.1,
      "place": "Giurgiu, Romania"
    },
    {
      "lon": 14.25,
      "lat": 50.25,
      "type": "hotspot_cell",
      "score": 713.284,
      "count": 1347,
      "cell_deg": 0.5,
      "sources": {
        "GDELT": 148,
        "GDELT_DOC": 1188,
        "DIRECT_FEED": 11,
        "USGS": 0,
        "GDACS": 0
      },
      "last7_score": 701.669,
      "prev7_score": 11.615,
      "trend": "up",
      "trend_arrow": "🔺",
      "change_pct": 5941.1,
      "place": "SO ORP Kralupy nad Vltavou, Czechia"
    },
    {
      "lon": 25.25,
      "lat": 54.75,
      "type": "hotspot_cell",
      "score": 677.301,
      "count": 1190,
      "cell_deg": 0.5,
      "sources": {
        "GDELT": 99,
        "GDELT_DOC": 1089,
        "DIRECT_FEED": 2,
        "USGS": 0,
        "GDACS": 0
      },
      "last7_score": 668.464,
      "prev7_score": 8.837,
      "trend": "up",
      "trend_arrow": "🔺",
      "change_pct": 7464.7,
      "place": "Vilnius County, Lithuania"
    },
    {
      "lon": 20.25,
      "lat": 52.25,
      "type": "hotspot_cell",
      "score": 216.656,
      "count": 752,
      "cell_deg": 0.5,
      "sources": {
        "GDELT": 752,
        "GDELT_DOC": 0,
        "DIRECT_FEED": 0,
        "USGS": 0,
        "GDACS": 0
      },
      "last7_score": 150.145,
      "prev7_score": 66.511,
      "trend": "up",
      "trend_arrow": "🔺",
      "change_pct": 125.7,
      "place": "Sochaczew County, Poland"
    },
    {
      "lon": 19.25,
      "lat": 47.75,
      "type": "hotspot_cell",
      "score": 216.337,
      "count": 419,
      "cell_deg": 0.5,
      "sources": {
        "GDELT": 215,
        "GDELT_DOC": 0,
        "DIRECT_FEED": 204,
        "USGS": 0,
        "GDACS": 0
      },
      "last7_score": 204.947,
      "prev7_score": 11.39,
      "trend": "up",
      "trend_arrow": "🔺",
      "change_pct": 1699.4,
      "place": "Pest, Hungary"
    },
    {
      "lon": 25.25,
      "lat": 46.25,
      "type": "hotspot_cell",
      "score": 181.327,
      "count": 431,
      "cell_deg": 0.5,
      "sources": {
        "GDELT": 431,
        "GDELT_DOC": 0,
        "DIRECT_FEED": 0,
        "USGS": 0,
        "GDACS": 0
      },
      "last7_score": 154.513,
      "prev7_score": 26.814,
      "trend": "up",
      "trend_arrow": "🔺",
      "change_pct": 476.3,
      "place": "Harghita, Romania"
    },
    {
      "lon": 24.25,
      "lat": 56.75,
      "type": "hotspot_cell",
      "score": 109.495,
      "count": 187,
      "cell_deg": 0.5,
      "sources": {
        "GDELT": 51,
        "GDELT_DOC": 0,
        "DIRECT_FEED": 136,
        "USGS": 0,
        "GDACS": 0
      },
      "last7_score": 106.155,
      "prev7_score": 3.339,
      "trend": "up",
      "trend_arrow": "🔺",
      "change_pct": 3079.0,
      "place": "Ķekavas novads, Latvia"
    },
    {
      "lon": 20.25,
      "lat": 47.25,
      "type": "hotspot_cell",
      "score": 91.21,
      "count": 249,
      "cell_deg": 0.5,
      "sources": {
        "GDELT": 249,
        "GDELT_DOC": 0,
        "DIRECT_FEED": 0,
        "USGS": 0,
        "GDACS": 0
      },
      "last7_score": 75.153,
      "prev7_score": 16.057,
      "trend": "up",
      "trend_arrow": "🔺",
      "change_pct": 368.1,
      "place": "Jász-Nagykun-Szolnok, Hungary"
    },
    {
      "lon": 21.25,
      "lat": 52.25,
      "type": "hotspot_cell",
      "score": 86.595,
      "count": 268,
      "cell_deg": 0.5,
      "sources": {
        "GDELT": 268,
        "GDELT_DOC": 0,
        "DIRECT_FEED": 0,
        "USGS": 0,
        "GDACS": 0
      },
      "last7_score": 67.828,
      "prev7_score": 18.766,
      "trend": "up",
      "trend_arrow": "🔺",
      "change_pct": 261.4,
      "place": "Warsaw, Poland"
    },
    {
      "lon": 22.25,
      "lat": 55.25,
      "type": "hotspot_cell",
      "score": 71.773,
      "count": 93,
      "cell_deg": 0.5,
      "sources": {
        "GDELT": 0,
        "GDELT_DOC": 93,
        "DIRECT_FEED": 0,
        "USGS": 0,
        "GDACS": 0
      },
      "last7_score": 71.773,
      "prev7_score": 0.0,
      "trend": "new",
      "trend_arrow": "🆕",
      "change_pct": null,
      "place": "Tauragės seniūnija, Lithuania"
    }
  ]
}