{
  "generated_utc": "2026-03-06T14:51:48Z",
  "top": [
    {
      "lon": 19.25,
      "lat": 47.75,
      "type": "hotspot_cell",
      "score": 211.935,
      "count": 457,
      "cell_deg": 0.5,
      "sources": {
        "GDELT": 439,
        "GDELT_DOC": 0,
        "DIRECT_FEED": 18,
        "USGS": 0,
        "GDACS": 0
      },
      "last7_score": 175.697,
      "prev7_score": 36.238,
      "trend": "up",
      "trend_arrow": "🔺",
      "change_pct": 384.8,
      "place": "Pest, Hungary"
    },
    {
      "lon": 20.25,
      "lat": 52.25,
      "type": "hotspot_cell",
      "score": 203.434,
      "count": 540,
      "cell_deg": 0.5,
      "sources": {
        "GDELT": 540,
        "GDELT_DOC": 0,
        "DIRECT_FEED": 0,
        "USGS": 0,
        "GDACS": 0
      },
      "last7_score": 161.429,
      "prev7_score": 42.005,
      "trend": "up",
      "trend_arrow": "🔺",
      "change_pct": 284.3,
      "place": "Sochaczew County, Poland"
    },
    {
      "lon": 14.25,
      "lat": 50.25,
      "type": "hotspot_cell",
      "score": 159.121,
      "count": 235,
      "cell_deg": 0.5,
      "sources": {
        "GDELT": 160,
        "GDELT_DOC": 75,
        "DIRECT_FEED": 0,
        "USGS": 0,
        "GDACS": 0
      },
      "last7_score": 148.114,
      "prev7_score": 11.007,
      "trend": "up",
      "trend_arrow": "🔺",
      "change_pct": 1245.7,
      "place": "SO ORP Kralupy nad Vltavou, Czechia"
    },
    {
      "lon": 26.25,
      "lat": 44.25,
      "type": "hotspot_cell",
      "score": 145.294,
      "count": 240,
      "cell_deg": 0.5,
      "sources": {
        "GDELT": 181,
        "GDELT_DOC": 59,
        "DIRECT_FEED": 0,
        "USGS": 0,
        "GDACS": 0
      },
      "last7_score": 132.01,
      "prev7_score": 13.285,
      "trend": "up",
      "trend_arrow": "🔺",
      "change_pct": 893.7,
      "place": "Giurgiu, Romania"
    },
    {
      "lon": 20.25,
      "lat": 47.25,
      "type": "hotspot_cell",
      "score": 142.059,
      "count": 411,
      "cell_deg": 0.5,
      "sources": {
        "GDELT": 411,
        "GDELT_DOC": 0,
        "DIRECT_FEED": 0,
        "USGS": 0,
        "GDACS": 0
      },
      "last7_score": 107.888,
      "prev7_score": 34.171,
      "trend": "up",
      "trend_arrow": "🔺",
      "change_pct": 215.7,
      "place": "Jász-Nagykun-Szolnok, Hungary"
    },
    {
      "lon": 25.25,
      "lat": 46.25,
      "type": "hotspot_cell",
      "score": 129.446,
      "count": 322,
      "cell_deg": 0.5,
      "sources": {
        "GDELT": 322,
        "GDELT_DOC": 0,
        "DIRECT_FEED": 0,
        "USGS": 0,
        "GDACS": 0
      },
      "last7_score": 104.061,
      "prev7_score": 25.385,
      "trend": "up",
      "trend_arrow": "🔺",
      "change_pct": 309.9,
      "place": "Harghita, Romania"
    },
    {
      "lon": 21.25,
      "lat": 52.25,
      "type": "hotspot_cell",
      "score": 101.212,
      "count": 239,
      "cell_deg": 0.5,
      "sources": {
        "GDELT": 239,
        "GDELT_DOC": 0,
        "DIRECT_FEED": 0,
        "USGS": 0,
        "GDACS": 0
      },
      "last7_score": 82.023,
      "prev7_score": 19.189,
      "trend": "up",
      "trend_arrow": "🔺",
      "change_pct": 327.4,
      "place": "Warsaw, Poland"
    },
    {
      "lon": 25.25,
      "lat": 54.75,
      "type": "hotspot_cell",
      "score": 91.895,
      "count": 124,
      "cell_deg": 0.5,
      "sources": {
        "GDELT": 73,
        "GDELT_DOC": 51,
        "DIRECT_FEED": 0,
        "USGS": 0,
        "GDACS": 0
      },
      "last7_score": 84.914,
      "prev7_score": 6.981,
      "trend": "up",
      "trend_arrow": "🔺",
      "change_pct": 1116.4,
      "place": "Vilnius County, Lithuania"
    },
    {
      "lon": 15.25,
      "lat": 49.75,
      "type": "hotspot_cell",
      "score": 67.721,
      "count": 170,
      "cell_deg": 0.5,
      "sources": {
        "GDELT": 170,
        "GDELT_DOC": 0,
        "DIRECT_FEED": 0,
        "USGS": 0,
        "GDACS": 0
      },
      "last7_score": 55.873,
      "prev7_score": 11.848,
      "trend": "up",
      "trend_arrow": "🔺",
      "change_pct": 371.6,
      "place": "Vysočina Region, Czechia"
    },
    {
      "lon": 24.25,
      "lat": 56.25,
      "type": "hotspot_cell",
      "score": 57.844,
      "count": 141,
      "cell_deg": 0.5,
      "sources": {
        "GDELT": 141,
        "GDELT_DOC": 0,
        "DIRECT_FEED": 0,
        "USGS": 0,
        "GDACS": 0
      },
      "last7_score": 45.912,
      "prev7_score": 11.932,
      "trend": "up",
      "trend_arrow": "🔺",
      "change_pct": 284.8,
      "place": "Namišių seniūnija, Lithuania"
    }
  ]
}