{
  "generated_utc": "2026-03-16T02:36:47Z",
  "top": [
    {
      "lon": 26.25,
      "lat": 44.25,
      "type": "hotspot_cell",
      "score": 759.832,
      "count": 1340,
      "cell_deg": 0.5,
      "sources": {
        "GDELT": 189,
        "GDELT_DOC": 1147,
        "DIRECT_FEED": 4,
        "USGS": 0,
        "GDACS": 0
      },
      "last7_score": 749.904,
      "prev7_score": 9.928,
      "trend": "up",
      "trend_arrow": "🔺",
      "change_pct": 7453.1,
      "place": "Giurgiu, Romania"
    },
    {
      "lon": 14.25,
      "lat": 50.25,
      "type": "hotspot_cell",
      "score": 742.185,
      "count": 1262,
      "cell_deg": 0.5,
      "sources": {
        "GDELT": 129,
        "GDELT_DOC": 1127,
        "DIRECT_FEED": 6,
        "USGS": 0,
        "GDACS": 0
      },
      "last7_score": 732.421,
      "prev7_score": 9.764,
      "trend": "up",
      "trend_arrow": "🔺",
      "change_pct": 7401.2,
      "place": "SO ORP Kralupy nad Vltavou, Czechia"
    },
    {
      "lon": 25.25,
      "lat": 54.75,
      "type": "hotspot_cell",
      "score": 477.537,
      "count": 863,
      "cell_deg": 0.5,
      "sources": {
        "GDELT": 67,
        "GDELT_DOC": 796,
        "DIRECT_FEED": 0,
        "USGS": 0,
        "GDACS": 0
      },
      "last7_score": 473.006,
      "prev7_score": 4.531,
      "trend": "up",
      "trend_arrow": "🔺",
      "change_pct": 10339.7,
      "place": "Vilnius County, Lithuania"
    },
    {
      "lon": 19.25,
      "lat": 47.75,
      "type": "hotspot_cell",
      "score": 263.075,
      "count": 602,
      "cell_deg": 0.5,
      "sources": {
        "GDELT": 416,
        "GDELT_DOC": 0,
        "DIRECT_FEED": 186,
        "USGS": 0,
        "GDACS": 0
      },
      "last7_score": 228.138,
      "prev7_score": 34.937,
      "trend": "up",
      "trend_arrow": "🔺",
      "change_pct": 553.0,
      "place": "Pest, Hungary"
    },
    {
      "lon": 20.25,
      "lat": 47.25,
      "type": "hotspot_cell",
      "score": 135.311,
      "count": 362,
      "cell_deg": 0.5,
      "sources": {
        "GDELT": 362,
        "GDELT_DOC": 0,
        "DIRECT_FEED": 0,
        "USGS": 0,
        "GDACS": 0
      },
      "last7_score": 107.85,
      "prev7_score": 27.461,
      "trend": "up",
      "trend_arrow": "🔺",
      "change_pct": 292.7,
      "place": "Jász-Nagykun-Szolnok, Hungary"
    },
    {
      "lon": 20.25,
      "lat": 52.25,
      "type": "hotspot_cell",
      "score": 131.766,
      "count": 411,
      "cell_deg": 0.5,
      "sources": {
        "GDELT": 411,
        "GDELT_DOC": 0,
        "DIRECT_FEED": 0,
        "USGS": 0,
        "GDACS": 0
      },
      "last7_score": 99.762,
      "prev7_score": 32.003,
      "trend": "up",
      "trend_arrow": "🔺",
      "change_pct": 211.7,
      "place": "Sochaczew County, Poland"
    },
    {
      "lon": 24.25,
      "lat": 56.75,
      "type": "hotspot_cell",
      "score": 112.771,
      "count": 192,
      "cell_deg": 0.5,
      "sources": {
        "GDELT": 30,
        "GDELT_DOC": 0,
        "DIRECT_FEED": 162,
        "USGS": 0,
        "GDACS": 0
      },
      "last7_score": 111.119,
      "prev7_score": 1.652,
      "trend": "up",
      "trend_arrow": "🔺",
      "change_pct": 6627.1,
      "place": "Ķekavas novads, Latvia"
    },
    {
      "lon": 25.25,
      "lat": 46.25,
      "type": "hotspot_cell",
      "score": 91.075,
      "count": 288,
      "cell_deg": 0.5,
      "sources": {
        "GDELT": 288,
        "GDELT_DOC": 0,
        "DIRECT_FEED": 0,
        "USGS": 0,
        "GDACS": 0
      },
      "last7_score": 72.105,
      "prev7_score": 18.97,
      "trend": "up",
      "trend_arrow": "🔺",
      "change_pct": 280.1,
      "place": "Harghita, Romania"
    },
    {
      "lon": 21.25,
      "lat": 52.25,
      "type": "hotspot_cell",
      "score": 72.192,
      "count": 214,
      "cell_deg": 0.5,
      "sources": {
        "GDELT": 214,
        "GDELT_DOC": 0,
        "DIRECT_FEED": 0,
        "USGS": 0,
        "GDACS": 0
      },
      "last7_score": 57.253,
      "prev7_score": 14.939,
      "trend": "up",
      "trend_arrow": "🔺",
      "change_pct": 283.2,
      "place": "Warsaw, Poland"
    },
    {
      "lon": 27.75,
      "lat": 47.25,
      "type": "hotspot_cell",
      "score": 69.817,
      "count": 101,
      "cell_deg": 0.5,
      "sources": {
        "GDELT": 0,
        "GDELT_DOC": 101,
        "DIRECT_FEED": 0,
        "USGS": 0,
        "GDACS": 0
      },
      "last7_score": 69.817,
      "prev7_score": 0.0,
      "trend": "new",
      "trend_arrow": "🆕",
      "change_pct": null,
      "place": "Iași, Romania"
    }
  ]
}