{
  "generated_utc": "2026-03-17T02:13:46Z",
  "top": [
    {
      "lon": 14.25,
      "lat": 50.25,
      "type": "hotspot_cell",
      "score": 806.363,
      "count": 1283,
      "cell_deg": 0.5,
      "sources": {
        "GDELT": 132,
        "GDELT_DOC": 1145,
        "DIRECT_FEED": 6,
        "USGS": 0,
        "GDACS": 0
      },
      "last7_score": 796.424,
      "prev7_score": 9.938,
      "trend": "up",
      "trend_arrow": "🔺",
      "change_pct": 7913.8,
      "place": "SO ORP Kralupy nad Vltavou, Czechia"
    },
    {
      "lon": 26.25,
      "lat": 44.25,
      "type": "hotspot_cell",
      "score": 758.419,
      "count": 1293,
      "cell_deg": 0.5,
      "sources": {
        "GDELT": 181,
        "GDELT_DOC": 1109,
        "DIRECT_FEED": 3,
        "USGS": 0,
        "GDACS": 0
      },
      "last7_score": 747.26,
      "prev7_score": 11.159,
      "trend": "up",
      "trend_arrow": "🔺",
      "change_pct": 6596.7,
      "place": "Giurgiu, Romania"
    },
    {
      "lon": 25.25,
      "lat": 54.75,
      "type": "hotspot_cell",
      "score": 522.504,
      "count": 927,
      "cell_deg": 0.5,
      "sources": {
        "GDELT": 69,
        "GDELT_DOC": 858,
        "DIRECT_FEED": 0,
        "USGS": 0,
        "GDACS": 0
      },
      "last7_score": 516.637,
      "prev7_score": 5.867,
      "trend": "up",
      "trend_arrow": "🔺",
      "change_pct": 8705.4,
      "place": "Vilnius County, Lithuania"
    },
    {
      "lon": 19.25,
      "lat": 47.75,
      "type": "hotspot_cell",
      "score": 271.361,
      "count": 612,
      "cell_deg": 0.5,
      "sources": {
        "GDELT": 420,
        "GDELT_DOC": 0,
        "DIRECT_FEED": 192,
        "USGS": 0,
        "GDACS": 0
      },
      "last7_score": 237.217,
      "prev7_score": 34.144,
      "trend": "up",
      "trend_arrow": "🔺",
      "change_pct": 594.8,
      "place": "Pest, Hungary"
    },
    {
      "lon": 20.25,
      "lat": 52.25,
      "type": "hotspot_cell",
      "score": 145.023,
      "count": 408,
      "cell_deg": 0.5,
      "sources": {
        "GDELT": 408,
        "GDELT_DOC": 0,
        "DIRECT_FEED": 0,
        "USGS": 0,
        "GDACS": 0
      },
      "last7_score": 113.35,
      "prev7_score": 31.672,
      "trend": "up",
      "trend_arrow": "🔺",
      "change_pct": 257.9,
      "place": "Sochaczew County, Poland"
    },
    {
      "lon": 20.25,
      "lat": 47.25,
      "type": "hotspot_cell",
      "score": 144.07,
      "count": 364,
      "cell_deg": 0.5,
      "sources": {
        "GDELT": 364,
        "GDELT_DOC": 0,
        "DIRECT_FEED": 0,
        "USGS": 0,
        "GDACS": 0
      },
      "last7_score": 117.343,
      "prev7_score": 26.727,
      "trend": "up",
      "trend_arrow": "🔺",
      "change_pct": 339.0,
      "place": "Jász-Nagykun-Szolnok, Hungary"
    },
    {
      "lon": 25.25,
      "lat": 46.25,
      "type": "hotspot_cell",
      "score": 108.712,
      "count": 290,
      "cell_deg": 0.5,
      "sources": {
        "GDELT": 290,
        "GDELT_DOC": 0,
        "DIRECT_FEED": 0,
        "USGS": 0,
        "GDACS": 0
      },
      "last7_score": 87.038,
      "prev7_score": 21.675,
      "trend": "up",
      "trend_arrow": "🔺",
      "change_pct": 301.6,
      "place": "Harghita, Romania"
    },
    {
      "lon": 24.25,
      "lat": 56.75,
      "type": "hotspot_cell",
      "score": 104.494,
      "count": 179,
      "cell_deg": 0.5,
      "sources": {
        "GDELT": 31,
        "GDELT_DOC": 0,
        "DIRECT_FEED": 148,
        "USGS": 0,
        "GDACS": 0
      },
      "last7_score": 102.45,
      "prev7_score": 2.043,
      "trend": "up",
      "trend_arrow": "🔺",
      "change_pct": 4913.6,
      "place": "Ķekavas novads, Latvia"
    },
    {
      "lon": 21.25,
      "lat": 52.25,
      "type": "hotspot_cell",
      "score": 68.565,
      "count": 210,
      "cell_deg": 0.5,
      "sources": {
        "GDELT": 210,
        "GDELT_DOC": 0,
        "DIRECT_FEED": 0,
        "USGS": 0,
        "GDACS": 0
      },
      "last7_score": 55.118,
      "prev7_score": 13.447,
      "trend": "up",
      "trend_arrow": "🔺",
      "change_pct": 309.9,
      "place": "Warsaw, Poland"
    },
    {
      "lon": 27.75,
      "lat": 47.25,
      "type": "hotspot_cell",
      "score": 66.454,
      "count": 101,
      "cell_deg": 0.5,
      "sources": {
        "GDELT": 0,
        "GDELT_DOC": 101,
        "DIRECT_FEED": 0,
        "USGS": 0,
        "GDACS": 0
      },
      "last7_score": 66.454,
      "prev7_score": 0.0,
      "trend": "new",
      "trend_arrow": "🆕",
      "change_pct": null,
      "place": "Iași, Romania"
    }
  ]
}