{
  "generated_utc": "2026-04-10T19:01:09Z",
  "top": [
    {
      "lon": 26.25,
      "lat": 44.25,
      "type": "hotspot_cell",
      "score": 853.984,
      "count": 1381,
      "cell_deg": 0.5,
      "sources": {
        "GDELT": 157,
        "GDELT_DOC": 1218,
        "DIRECT_FEED": 6,
        "USGS": 0,
        "GDACS": 0
      },
      "last7_score": 839.335,
      "prev7_score": 14.65,
      "trend": "up",
      "trend_arrow": "🔺",
      "change_pct": 5629.4,
      "place": "Giurgiu, Romania"
    },
    {
      "lon": 14.25,
      "lat": 50.25,
      "type": "hotspot_cell",
      "score": 779.049,
      "count": 1135,
      "cell_deg": 0.5,
      "sources": {
        "GDELT": 88,
        "GDELT_DOC": 1047,
        "DIRECT_FEED": 0,
        "USGS": 0,
        "GDACS": 0
      },
      "last7_score": 773.196,
      "prev7_score": 5.853,
      "trend": "up",
      "trend_arrow": "🔺",
      "change_pct": 13109.6,
      "place": "SO ORP Kralupy nad Vltavou, Czechia"
    },
    {
      "lon": 25.25,
      "lat": 54.75,
      "type": "hotspot_cell",
      "score": 555.84,
      "count": 846,
      "cell_deg": 0.5,
      "sources": {
        "GDELT": 75,
        "GDELT_DOC": 769,
        "DIRECT_FEED": 2,
        "USGS": 0,
        "GDACS": 0
      },
      "last7_score": 549.359,
      "prev7_score": 6.481,
      "trend": "up",
      "trend_arrow": "🔺",
      "change_pct": 8376.6,
      "place": "Vilnius County, Lithuania"
    },
    {
      "lon": 19.25,
      "lat": 47.75,
      "type": "hotspot_cell",
      "score": 510.707,
      "count": 785,
      "cell_deg": 0.5,
      "sources": {
        "GDELT": 544,
        "GDELT_DOC": 0,
        "DIRECT_FEED": 241,
        "USGS": 0,
        "GDACS": 0
      },
      "last7_score": 495.332,
      "prev7_score": 15.374,
      "trend": "up",
      "trend_arrow": "🔺",
      "change_pct": 3121.8,
      "place": "Pest, Hungary"
    },
    {
      "lon": 20.25,
      "lat": 47.25,
      "type": "hotspot_cell",
      "score": 203.113,
      "count": 410,
      "cell_deg": 0.5,
      "sources": {
        "GDELT": 410,
        "GDELT_DOC": 0,
        "DIRECT_FEED": 0,
        "USGS": 0,
        "GDACS": 0
      },
      "last7_score": 183.445,
      "prev7_score": 19.668,
      "trend": "up",
      "trend_arrow": "🔺",
      "change_pct": 832.7,
      "place": "Jász-Nagykun-Szolnok, Hungary"
    },
    {
      "lon": 20.25,
      "lat": 52.25,
      "type": "hotspot_cell",
      "score": 158.923,
      "count": 446,
      "cell_deg": 0.5,
      "sources": {
        "GDELT": 446,
        "GDELT_DOC": 0,
        "DIRECT_FEED": 0,
        "USGS": 0,
        "GDACS": 0
      },
      "last7_score": 126.099,
      "prev7_score": 32.824,
      "trend": "up",
      "trend_arrow": "🔺",
      "change_pct": 284.2,
      "place": "Sochaczew County, Poland"
    },
    {
      "lon": 24.25,
      "lat": 56.75,
      "type": "hotspot_cell",
      "score": 122.774,
      "count": 166,
      "cell_deg": 0.5,
      "sources": {
        "GDELT": 27,
        "GDELT_DOC": 0,
        "DIRECT_FEED": 139,
        "USGS": 0,
        "GDACS": 0
      },
      "last7_score": 120.588,
      "prev7_score": 2.186,
      "trend": "up",
      "trend_arrow": "🔺",
      "change_pct": 5417.2,
      "place": "Ķekavas novads, Latvia"
    },
    {
      "lon": 25.25,
      "lat": 46.25,
      "type": "hotspot_cell",
      "score": 97.2,
      "count": 256,
      "cell_deg": 0.5,
      "sources": {
        "GDELT": 256,
        "GDELT_DOC": 0,
        "DIRECT_FEED": 0,
        "USGS": 0,
        "GDACS": 0
      },
      "last7_score": 79.069,
      "prev7_score": 18.131,
      "trend": "up",
      "trend_arrow": "🔺",
      "change_pct": 336.1,
      "place": "Harghita, Romania"
    },
    {
      "lon": 24.25,
      "lat": 56.25,
      "type": "hotspot_cell",
      "score": 61.083,
      "count": 117,
      "cell_deg": 0.5,
      "sources": {
        "GDELT": 117,
        "GDELT_DOC": 0,
        "DIRECT_FEED": 0,
        "USGS": 0,
        "GDACS": 0
      },
      "last7_score": 55.065,
      "prev7_score": 6.019,
      "trend": "up",
      "trend_arrow": "🔺",
      "change_pct": 814.9,
      "place": "Namišių seniūnija, Lithuania"
    },
    {
      "lon": 15.25,
      "lat": 49.75,
      "type": "hotspot_cell",
      "score": 51.511,
      "count": 122,
      "cell_deg": 0.5,
      "sources": {
        "GDELT": 122,
        "GDELT_DOC": 0,
        "DIRECT_FEED": 0,
        "USGS": 0,
        "GDACS": 0
      },
      "last7_score": 43.733,
      "prev7_score": 7.778,
      "trend": "up",
      "trend_arrow": "🔺",
      "change_pct": 462.3,
      "place": "Vysočina Region, Czechia"
    }
  ]
}