{
  "generated_utc": "2026-04-17T07:52:17Z",
  "top": [
    {
      "lon": 14.25,
      "lat": 50.25,
      "type": "hotspot_cell",
      "score": 932.645,
      "count": 1381,
      "cell_deg": 0.5,
      "sources": {
        "GDELT": 104,
        "GDELT_DOC": 1277,
        "DIRECT_FEED": 0,
        "USGS": 0,
        "GDACS": 0
      },
      "last7_score": 926.334,
      "prev7_score": 6.311,
      "trend": "up",
      "trend_arrow": "🔺",
      "change_pct": 14577.8,
      "place": "SO ORP Kralupy nad Vltavou, Czechia"
    },
    {
      "lon": 26.25,
      "lat": 44.25,
      "type": "hotspot_cell",
      "score": 791.504,
      "count": 1275,
      "cell_deg": 0.5,
      "sources": {
        "GDELT": 103,
        "GDELT_DOC": 1170,
        "DIRECT_FEED": 2,
        "USGS": 0,
        "GDACS": 0
      },
      "last7_score": 783.997,
      "prev7_score": 7.507,
      "trend": "up",
      "trend_arrow": "🔺",
      "change_pct": 10343.1,
      "place": "Giurgiu, Romania"
    },
    {
      "lon": 19.25,
      "lat": 47.75,
      "type": "hotspot_cell",
      "score": 695.755,
      "count": 1486,
      "cell_deg": 0.5,
      "sources": {
        "GDELT": 1159,
        "GDELT_DOC": 0,
        "DIRECT_FEED": 327,
        "USGS": 0,
        "GDACS": 0
      },
      "last7_score": 626.294,
      "prev7_score": 69.461,
      "trend": "up",
      "trend_arrow": "🔺",
      "change_pct": 801.7,
      "place": "Pest, Hungary"
    },
    {
      "lon": 25.25,
      "lat": 54.75,
      "type": "hotspot_cell",
      "score": 486.055,
      "count": 809,
      "cell_deg": 0.5,
      "sources": {
        "GDELT": 69,
        "GDELT_DOC": 739,
        "DIRECT_FEED": 1,
        "USGS": 0,
        "GDACS": 0
      },
      "last7_score": 480.889,
      "prev7_score": 5.166,
      "trend": "up",
      "trend_arrow": "🔺",
      "change_pct": 9209.3,
      "place": "Vilnius County, Lithuania"
    },
    {
      "lon": 20.25,
      "lat": 47.25,
      "type": "hotspot_cell",
      "score": 344.377,
      "count": 767,
      "cell_deg": 0.5,
      "sources": {
        "GDELT": 767,
        "GDELT_DOC": 0,
        "DIRECT_FEED": 0,
        "USGS": 0,
        "GDACS": 0
      },
      "last7_score": 301.367,
      "prev7_score": 43.01,
      "trend": "up",
      "trend_arrow": "🔺",
      "change_pct": 600.7,
      "place": "Jász-Nagykun-Szolnok, Hungary"
    },
    {
      "lon": 20.25,
      "lat": 52.25,
      "type": "hotspot_cell",
      "score": 154.502,
      "count": 370,
      "cell_deg": 0.5,
      "sources": {
        "GDELT": 370,
        "GDELT_DOC": 0,
        "DIRECT_FEED": 0,
        "USGS": 0,
        "GDACS": 0
      },
      "last7_score": 125.905,
      "prev7_score": 28.597,
      "trend": "up",
      "trend_arrow": "🔺",
      "change_pct": 340.3,
      "place": "Sochaczew County, Poland"
    },
    {
      "lon": 24.25,
      "lat": 56.75,
      "type": "hotspot_cell",
      "score": 122.669,
      "count": 164,
      "cell_deg": 0.5,
      "sources": {
        "GDELT": 28,
        "GDELT_DOC": 0,
        "DIRECT_FEED": 136,
        "USGS": 0,
        "GDACS": 0
      },
      "last7_score": 120.889,
      "prev7_score": 1.78,
      "trend": "up",
      "trend_arrow": "🔺",
      "change_pct": 6690.9,
      "place": "Ķekavas novads, Latvia"
    },
    {
      "lon": 25.25,
      "lat": 46.25,
      "type": "hotspot_cell",
      "score": 108.89,
      "count": 248,
      "cell_deg": 0.5,
      "sources": {
        "GDELT": 248,
        "GDELT_DOC": 0,
        "DIRECT_FEED": 0,
        "USGS": 0,
        "GDACS": 0
      },
      "last7_score": 91.292,
      "prev7_score": 17.598,
      "trend": "up",
      "trend_arrow": "🔺",
      "change_pct": 418.8,
      "place": "Harghita, Romania"
    },
    {
      "lon": 21.25,
      "lat": 52.25,
      "type": "hotspot_cell",
      "score": 81.232,
      "count": 163,
      "cell_deg": 0.5,
      "sources": {
        "GDELT": 163,
        "GDELT_DOC": 0,
        "DIRECT_FEED": 0,
        "USGS": 0,
        "GDACS": 0
      },
      "last7_score": 72.863,
      "prev7_score": 8.37,
      "trend": "up",
      "trend_arrow": "🔺",
      "change_pct": 770.6,
      "place": "Warsaw, Poland"
    },
    {
      "lon": 15.25,
      "lat": 49.75,
      "type": "hotspot_cell",
      "score": 69.34,
      "count": 153,
      "cell_deg": 0.5,
      "sources": {
        "GDELT": 153,
        "GDELT_DOC": 0,
        "DIRECT_FEED": 0,
        "USGS": 0,
        "GDACS": 0
      },
      "last7_score": 59.44,
      "prev7_score": 9.9,
      "trend": "up",
      "trend_arrow": "🔺",
      "change_pct": 500.4,
      "place": "Vysočina Region, Czechia"
    }
  ]
}