{
  "generated_utc": "2026-07-19T13:05:18Z",
  "top": [
    {
      "lon": 14.25,
      "lat": 50.25,
      "type": "hotspot_cell",
      "score": 630.108,
      "count": 1064,
      "cell_deg": 0.5,
      "sources": {
        "GDELT": 105,
        "GDELT_DOC": 955,
        "DIRECT_FEED": 4,
        "USGS": 0,
        "GDACS": 0
      },
      "last7_score": 625.078,
      "prev7_score": 5.03,
      "trend": "up",
      "trend_arrow": "🔺",
      "change_pct": 12326.1,
      "place": "SO ORP Kralupy nad Vltavou, Czechia"
    },
    {
      "lon": 26.25,
      "lat": 44.25,
      "type": "hotspot_cell",
      "score": 464.973,
      "count": 861,
      "cell_deg": 0.5,
      "sources": {
        "GDELT": 109,
        "GDELT_DOC": 748,
        "DIRECT_FEED": 4,
        "USGS": 0,
        "GDACS": 0
      },
      "last7_score": 458.808,
      "prev7_score": 6.166,
      "trend": "up",
      "trend_arrow": "🔺",
      "change_pct": 7341.1,
      "place": "Giurgiu, Romania"
    },
    {
      "lon": 25.25,
      "lat": 54.75,
      "type": "hotspot_cell",
      "score": 445.905,
      "count": 729,
      "cell_deg": 0.5,
      "sources": {
        "GDELT": 80,
        "GDELT_DOC": 649,
        "DIRECT_FEED": 0,
        "USGS": 0,
        "GDACS": 0
      },
      "last7_score": 441.818,
      "prev7_score": 4.087,
      "trend": "up",
      "trend_arrow": "🔺",
      "change_pct": 10709.5,
      "place": "Vilnius County, Lithuania"
    },
    {
      "lon": 19.25,
      "lat": 47.75,
      "type": "hotspot_cell",
      "score": 179.06,
      "count": 360,
      "cell_deg": 0.5,
      "sources": {
        "GDELT": 170,
        "GDELT_DOC": 0,
        "DIRECT_FEED": 190,
        "USGS": 0,
        "GDACS": 0
      },
      "last7_score": 169.635,
      "prev7_score": 9.425,
      "trend": "up",
      "trend_arrow": "🔺",
      "change_pct": 1699.9,
      "place": "Pest, Hungary"
    },
    {
      "lon": 25.25,
      "lat": 46.25,
      "type": "hotspot_cell",
      "score": 153.033,
      "count": 415,
      "cell_deg": 0.5,
      "sources": {
        "GDELT": 415,
        "GDELT_DOC": 0,
        "DIRECT_FEED": 0,
        "USGS": 0,
        "GDACS": 0
      },
      "last7_score": 130.467,
      "prev7_score": 22.566,
      "trend": "up",
      "trend_arrow": "🔺",
      "change_pct": 478.2,
      "place": "Harghita, Romania"
    },
    {
      "lon": 20.25,
      "lat": 52.25,
      "type": "hotspot_cell",
      "score": 152.021,
      "count": 471,
      "cell_deg": 0.5,
      "sources": {
        "GDELT": 471,
        "GDELT_DOC": 0,
        "DIRECT_FEED": 0,
        "USGS": 0,
        "GDACS": 0
      },
      "last7_score": 128.231,
      "prev7_score": 23.789,
      "trend": "up",
      "trend_arrow": "🔺",
      "change_pct": 439.0,
      "place": "Sochaczew County, Poland"
    },
    {
      "lon": 24.25,
      "lat": 56.75,
      "type": "hotspot_cell",
      "score": 99.662,
      "count": 159,
      "cell_deg": 0.5,
      "sources": {
        "GDELT": 20,
        "GDELT_DOC": 0,
        "DIRECT_FEED": 139,
        "USGS": 0,
        "GDACS": 0
      },
      "last7_score": 98.904,
      "prev7_score": 0.758,
      "trend": "up",
      "trend_arrow": "🔺",
      "change_pct": 12954.3,
      "place": "Ķekavas novads, Latvia"
    },
    {
      "lon": 21.25,
      "lat": 52.25,
      "type": "hotspot_cell",
      "score": 77.542,
      "count": 225,
      "cell_deg": 0.5,
      "sources": {
        "GDELT": 225,
        "GDELT_DOC": 0,
        "DIRECT_FEED": 0,
        "USGS": 0,
        "GDACS": 0
      },
      "last7_score": 65.489,
      "prev7_score": 12.053,
      "trend": "up",
      "trend_arrow": "🔺",
      "change_pct": 443.4,
      "place": "Warsaw, Poland"
    },
    {
      "lon": 20.25,
      "lat": 47.25,
      "type": "hotspot_cell",
      "score": 71.475,
      "count": 210,
      "cell_deg": 0.5,
      "sources": {
        "GDELT": 210,
        "GDELT_DOC": 0,
        "DIRECT_FEED": 0,
        "USGS": 0,
        "GDACS": 0
      },
      "last7_score": 59.964,
      "prev7_score": 11.511,
      "trend": "up",
      "trend_arrow": "🔺",
      "change_pct": 420.9,
      "place": "Jász-Nagykun-Szolnok, Hungary"
    },
    {
      "lon": 15.25,
      "lat": 49.75,
      "type": "hotspot_cell",
      "score": 50.759,
      "count": 161,
      "cell_deg": 0.5,
      "sources": {
        "GDELT": 161,
        "GDELT_DOC": 0,
        "DIRECT_FEED": 0,
        "USGS": 0,
        "GDACS": 0
      },
      "last7_score": 41.231,
      "prev7_score": 9.528,
      "trend": "up",
      "trend_arrow": "🔺",
      "change_pct": 332.7,
      "place": "Vysočina Region, Czechia"
    }
  ]
}