{
  "generated_utc": "2026-07-09T19:32:48Z",
  "top": [
    {
      "lon": 14.25,
      "lat": 50.25,
      "type": "hotspot_cell",
      "score": 763.005,
      "count": 924,
      "cell_deg": 0.5,
      "sources": {
        "GDELT": 112,
        "GDELT_DOC": 808,
        "DIRECT_FEED": 4,
        "USGS": 0,
        "GDACS": 0
      },
      "last7_score": 754.393,
      "prev7_score": 8.613,
      "trend": "up",
      "trend_arrow": "🔺",
      "change_pct": 8659.1,
      "place": "SO ORP Kralupy nad Vltavou, Czechia"
    },
    {
      "lon": 26.25,
      "lat": 44.25,
      "type": "hotspot_cell",
      "score": 568.226,
      "count": 796,
      "cell_deg": 0.5,
      "sources": {
        "GDELT": 131,
        "GDELT_DOC": 660,
        "DIRECT_FEED": 5,
        "USGS": 0,
        "GDACS": 0
      },
      "last7_score": 556.645,
      "prev7_score": 11.582,
      "trend": "up",
      "trend_arrow": "🔺",
      "change_pct": 4706.3,
      "place": "Giurgiu, Romania"
    },
    {
      "lon": 25.25,
      "lat": 54.75,
      "type": "hotspot_cell",
      "score": 511.69,
      "count": 595,
      "cell_deg": 0.5,
      "sources": {
        "GDELT": 71,
        "GDELT_DOC": 522,
        "DIRECT_FEED": 2,
        "USGS": 0,
        "GDACS": 0
      },
      "last7_score": 506.358,
      "prev7_score": 5.333,
      "trend": "up",
      "trend_arrow": "🔺",
      "change_pct": 9394.9,
      "place": "Vilnius County, Lithuania"
    },
    {
      "lon": 20.25,
      "lat": 52.25,
      "type": "hotspot_cell",
      "score": 206.746,
      "count": 548,
      "cell_deg": 0.5,
      "sources": {
        "GDELT": 548,
        "GDELT_DOC": 0,
        "DIRECT_FEED": 0,
        "USGS": 0,
        "GDACS": 0
      },
      "last7_score": 166.352,
      "prev7_score": 40.393,
      "trend": "up",
      "trend_arrow": "🔺",
      "change_pct": 311.8,
      "place": "Sochaczew County, Poland"
    },
    {
      "lon": 19.25,
      "lat": 47.75,
      "type": "hotspot_cell",
      "score": 178.078,
      "count": 309,
      "cell_deg": 0.5,
      "sources": {
        "GDELT": 149,
        "GDELT_DOC": 0,
        "DIRECT_FEED": 160,
        "USGS": 0,
        "GDACS": 0
      },
      "last7_score": 166.726,
      "prev7_score": 11.352,
      "trend": "up",
      "trend_arrow": "🔺",
      "change_pct": 1368.7,
      "place": "Pest, Hungary"
    },
    {
      "lon": 25.25,
      "lat": 46.25,
      "type": "hotspot_cell",
      "score": 143.468,
      "count": 357,
      "cell_deg": 0.5,
      "sources": {
        "GDELT": 357,
        "GDELT_DOC": 0,
        "DIRECT_FEED": 0,
        "USGS": 0,
        "GDACS": 0
      },
      "last7_score": 120.604,
      "prev7_score": 22.864,
      "trend": "up",
      "trend_arrow": "🔺",
      "change_pct": 427.5,
      "place": "Harghita, Romania"
    },
    {
      "lon": 24.25,
      "lat": 56.75,
      "type": "hotspot_cell",
      "score": 108.669,
      "count": 157,
      "cell_deg": 0.5,
      "sources": {
        "GDELT": 22,
        "GDELT_DOC": 0,
        "DIRECT_FEED": 135,
        "USGS": 0,
        "GDACS": 0
      },
      "last7_score": 107.151,
      "prev7_score": 1.518,
      "trend": "up",
      "trend_arrow": "🔺",
      "change_pct": 6959.1,
      "place": "Ķekavas novads, Latvia"
    },
    {
      "lon": 21.25,
      "lat": 52.25,
      "type": "hotspot_cell",
      "score": 97.446,
      "count": 266,
      "cell_deg": 0.5,
      "sources": {
        "GDELT": 266,
        "GDELT_DOC": 0,
        "DIRECT_FEED": 0,
        "USGS": 0,
        "GDACS": 0
      },
      "last7_score": 81.669,
      "prev7_score": 15.777,
      "trend": "up",
      "trend_arrow": "🔺",
      "change_pct": 417.7,
      "place": "Warsaw, Poland"
    },
    {
      "lon": 26.25,
      "lat": 59.25,
      "type": "hotspot_cell",
      "score": 75.617,
      "count": 147,
      "cell_deg": 0.5,
      "sources": {
        "GDELT": 147,
        "GDELT_DOC": 0,
        "DIRECT_FEED": 0,
        "USGS": 0,
        "GDACS": 0
      },
      "last7_score": 67.703,
      "prev7_score": 7.915,
      "trend": "up",
      "trend_arrow": "🔺",
      "change_pct": 755.4,
      "place": "Lääne-Viru County, Estonia"
    },
    {
      "lon": 20.25,
      "lat": 47.25,
      "type": "hotspot_cell",
      "score": 73.991,
      "count": 169,
      "cell_deg": 0.5,
      "sources": {
        "GDELT": 169,
        "GDELT_DOC": 0,
        "DIRECT_FEED": 0,
        "USGS": 0,
        "GDACS": 0
      },
      "last7_score": 64.103,
      "prev7_score": 9.889,
      "trend": "up",
      "trend_arrow": "🔺",
      "change_pct": 548.2,
      "place": "Jász-Nagykun-Szolnok, Hungary"
    }
  ]
}