{
  "generated_utc": "2026-06-29T19:49:07Z",
  "top": [
    {
      "lon": 14.25,
      "lat": 50.25,
      "type": "hotspot_cell",
      "score": 618.64,
      "count": 1151,
      "cell_deg": 0.5,
      "sources": {
        "GDELT": 128,
        "GDELT_DOC": 1015,
        "DIRECT_FEED": 8,
        "USGS": 0,
        "GDACS": 0
      },
      "last7_score": 609.792,
      "prev7_score": 8.848,
      "trend": "up",
      "trend_arrow": "🔺",
      "change_pct": 6792.0,
      "place": "SO ORP Kralupy nad Vltavou, Czechia"
    },
    {
      "lon": 26.25,
      "lat": 44.25,
      "type": "hotspot_cell",
      "score": 548.417,
      "count": 1029,
      "cell_deg": 0.5,
      "sources": {
        "GDELT": 143,
        "GDELT_DOC": 878,
        "DIRECT_FEED": 8,
        "USGS": 0,
        "GDACS": 0
      },
      "last7_score": 540.488,
      "prev7_score": 7.929,
      "trend": "up",
      "trend_arrow": "🔺",
      "change_pct": 6716.8,
      "place": "Giurgiu, Romania"
    },
    {
      "lon": 25.25,
      "lat": 54.75,
      "type": "hotspot_cell",
      "score": 355.085,
      "count": 647,
      "cell_deg": 0.5,
      "sources": {
        "GDELT": 62,
        "GDELT_DOC": 585,
        "DIRECT_FEED": 0,
        "USGS": 0,
        "GDACS": 0
      },
      "last7_score": 351.337,
      "prev7_score": 3.748,
      "trend": "up",
      "trend_arrow": "🔺",
      "change_pct": 9274.5,
      "place": "Vilnius County, Lithuania"
    },
    {
      "lon": 20.25,
      "lat": 52.25,
      "type": "hotspot_cell",
      "score": 183.295,
      "count": 539,
      "cell_deg": 0.5,
      "sources": {
        "GDELT": 539,
        "GDELT_DOC": 0,
        "DIRECT_FEED": 0,
        "USGS": 0,
        "GDACS": 0
      },
      "last7_score": 152.483,
      "prev7_score": 30.812,
      "trend": "up",
      "trend_arrow": "🔺",
      "change_pct": 394.9,
      "place": "Sochaczew County, Poland"
    },
    {
      "lon": 19.25,
      "lat": 47.75,
      "type": "hotspot_cell",
      "score": 163.953,
      "count": 349,
      "cell_deg": 0.5,
      "sources": {
        "GDELT": 196,
        "GDELT_DOC": 0,
        "DIRECT_FEED": 153,
        "USGS": 0,
        "GDACS": 0
      },
      "last7_score": 154.14,
      "prev7_score": 9.814,
      "trend": "up",
      "trend_arrow": "🔺",
      "change_pct": 1470.7,
      "place": "Pest, Hungary"
    },
    {
      "lon": 25.25,
      "lat": 46.25,
      "type": "hotspot_cell",
      "score": 125.583,
      "count": 386,
      "cell_deg": 0.5,
      "sources": {
        "GDELT": 386,
        "GDELT_DOC": 0,
        "DIRECT_FEED": 0,
        "USGS": 0,
        "GDACS": 0
      },
      "last7_score": 103.004,
      "prev7_score": 22.579,
      "trend": "up",
      "trend_arrow": "🔺",
      "change_pct": 356.2,
      "place": "Harghita, Romania"
    },
    {
      "lon": 21.25,
      "lat": 52.25,
      "type": "hotspot_cell",
      "score": 115.728,
      "count": 366,
      "cell_deg": 0.5,
      "sources": {
        "GDELT": 366,
        "GDELT_DOC": 0,
        "DIRECT_FEED": 0,
        "USGS": 0,
        "GDACS": 0
      },
      "last7_score": 91.383,
      "prev7_score": 24.345,
      "trend": "up",
      "trend_arrow": "🔺",
      "change_pct": 275.4,
      "place": "Warsaw, Poland"
    },
    {
      "lon": 24.25,
      "lat": 56.75,
      "type": "hotspot_cell",
      "score": 110.687,
      "count": 179,
      "cell_deg": 0.5,
      "sources": {
        "GDELT": 29,
        "GDELT_DOC": 0,
        "DIRECT_FEED": 150,
        "USGS": 0,
        "GDACS": 0
      },
      "last7_score": 108.205,
      "prev7_score": 2.481,
      "trend": "up",
      "trend_arrow": "🔺",
      "change_pct": 4261.0,
      "place": "Ķekavas novads, Latvia"
    },
    {
      "lon": 20.25,
      "lat": 47.25,
      "type": "hotspot_cell",
      "score": 62.233,
      "count": 226,
      "cell_deg": 0.5,
      "sources": {
        "GDELT": 225,
        "GDELT_DOC": 0,
        "DIRECT_FEED": 0,
        "USGS": 0,
        "GDACS": 1
      },
      "last7_score": 47.528,
      "prev7_score": 14.705,
      "trend": "up",
      "trend_arrow": "🔺",
      "change_pct": 223.2,
      "place": "Jász-Nagykun-Szolnok, Hungary"
    },
    {
      "lon": 15.25,
      "lat": 49.75,
      "type": "hotspot_cell",
      "score": 58.857,
      "count": 157,
      "cell_deg": 0.5,
      "sources": {
        "GDELT": 157,
        "GDELT_DOC": 0,
        "DIRECT_FEED": 0,
        "USGS": 0,
        "GDACS": 0
      },
      "last7_score": 50.453,
      "prev7_score": 8.404,
      "trend": "up",
      "trend_arrow": "🔺",
      "change_pct": 500.3,
      "place": "Vysočina Region, Czechia"
    }
  ]
}