{
  "generated_utc": "2026-04-21T19:19:21Z",
  "top": [
    {
      "lon": 14.25,
      "lat": 50.25,
      "type": "hotspot_cell",
      "score": 836.987,
      "count": 1389,
      "cell_deg": 0.5,
      "sources": {
        "GDELT": 146,
        "GDELT_DOC": 1240,
        "DIRECT_FEED": 3,
        "USGS": 0,
        "GDACS": 0
      },
      "last7_score": 831.939,
      "prev7_score": 5.048,
      "trend": "up",
      "trend_arrow": "🔺",
      "change_pct": 16382.0,
      "place": "SO ORP Kralupy nad Vltavou, Czechia"
    },
    {
      "lon": 26.25,
      "lat": 44.25,
      "type": "hotspot_cell",
      "score": 764.725,
      "count": 1239,
      "cell_deg": 0.5,
      "sources": {
        "GDELT": 110,
        "GDELT_DOC": 1125,
        "DIRECT_FEED": 4,
        "USGS": 0,
        "GDACS": 0
      },
      "last7_score": 760.637,
      "prev7_score": 4.088,
      "trend": "up",
      "trend_arrow": "🔺",
      "change_pct": 18505.4,
      "place": "Giurgiu, Romania"
    },
    {
      "lon": 25.25,
      "lat": 54.75,
      "type": "hotspot_cell",
      "score": 618.186,
      "count": 943,
      "cell_deg": 0.5,
      "sources": {
        "GDELT": 76,
        "GDELT_DOC": 867,
        "DIRECT_FEED": 0,
        "USGS": 0,
        "GDACS": 0
      },
      "last7_score": 612.734,
      "prev7_score": 5.452,
      "trend": "up",
      "trend_arrow": "🔺",
      "change_pct": 11138.5,
      "place": "Vilnius County, Lithuania"
    },
    {
      "lon": 19.25,
      "lat": 47.75,
      "type": "hotspot_cell",
      "score": 489.562,
      "count": 1405,
      "cell_deg": 0.5,
      "sources": {
        "GDELT": 1134,
        "GDELT_DOC": 0,
        "DIRECT_FEED": 271,
        "USGS": 0,
        "GDACS": 0
      },
      "last7_score": 373.471,
      "prev7_score": 116.091,
      "trend": "up",
      "trend_arrow": "🔺",
      "change_pct": 221.7,
      "place": "Pest, Hungary"
    },
    {
      "lon": 20.25,
      "lat": 47.25,
      "type": "hotspot_cell",
      "score": 284.902,
      "count": 853,
      "cell_deg": 0.5,
      "sources": {
        "GDELT": 853,
        "GDELT_DOC": 0,
        "DIRECT_FEED": 0,
        "USGS": 0,
        "GDACS": 0
      },
      "last7_score": 213.366,
      "prev7_score": 71.535,
      "trend": "up",
      "trend_arrow": "🔺",
      "change_pct": 198.3,
      "place": "Jász-Nagykun-Szolnok, Hungary"
    },
    {
      "lon": 20.25,
      "lat": 52.25,
      "type": "hotspot_cell",
      "score": 164.921,
      "count": 437,
      "cell_deg": 0.5,
      "sources": {
        "GDELT": 437,
        "GDELT_DOC": 0,
        "DIRECT_FEED": 0,
        "USGS": 0,
        "GDACS": 0
      },
      "last7_score": 136.727,
      "prev7_score": 28.194,
      "trend": "up",
      "trend_arrow": "🔺",
      "change_pct": 385.0,
      "place": "Sochaczew County, Poland"
    },
    {
      "lon": 24.25,
      "lat": 56.75,
      "type": "hotspot_cell",
      "score": 113.529,
      "count": 170,
      "cell_deg": 0.5,
      "sources": {
        "GDELT": 36,
        "GDELT_DOC": 0,
        "DIRECT_FEED": 134,
        "USGS": 0,
        "GDACS": 0
      },
      "last7_score": 110.631,
      "prev7_score": 2.898,
      "trend": "up",
      "trend_arrow": "🔺",
      "change_pct": 3717.7,
      "place": "Ķekavas novads, Latvia"
    },
    {
      "lon": 25.25,
      "lat": 46.25,
      "type": "hotspot_cell",
      "score": 92.221,
      "count": 247,
      "cell_deg": 0.5,
      "sources": {
        "GDELT": 247,
        "GDELT_DOC": 0,
        "DIRECT_FEED": 0,
        "USGS": 0,
        "GDACS": 0
      },
      "last7_score": 77.672,
      "prev7_score": 14.549,
      "trend": "up",
      "trend_arrow": "🔺",
      "change_pct": 433.8,
      "place": "Harghita, Romania"
    },
    {
      "lon": 15.25,
      "lat": 49.75,
      "type": "hotspot_cell",
      "score": 84.256,
      "count": 201,
      "cell_deg": 0.5,
      "sources": {
        "GDELT": 201,
        "GDELT_DOC": 0,
        "DIRECT_FEED": 0,
        "USGS": 0,
        "GDACS": 0
      },
      "last7_score": 72.427,
      "prev7_score": 11.829,
      "trend": "up",
      "trend_arrow": "🔺",
      "change_pct": 512.3,
      "place": "Vysočina Region, Czechia"
    },
    {
      "lon": 21.25,
      "lat": 52.25,
      "type": "hotspot_cell",
      "score": 65.948,
      "count": 185,
      "cell_deg": 0.5,
      "sources": {
        "GDELT": 185,
        "GDELT_DOC": 0,
        "DIRECT_FEED": 0,
        "USGS": 0,
        "GDACS": 0
      },
      "last7_score": 53.458,
      "prev7_score": 12.491,
      "trend": "up",
      "trend_arrow": "🔺",
      "change_pct": 328.0,
      "place": "Warsaw, Poland"
    }
  ]
}