{
  "generated_utc": "2026-07-19T18:59:46Z",
  "top": [
    {
      "lon": 14.25,
      "lat": 50.25,
      "type": "hotspot_cell",
      "score": 623.987,
      "count": 1066,
      "cell_deg": 0.5,
      "sources": {
        "GDELT": 106,
        "GDELT_DOC": 956,
        "DIRECT_FEED": 4,
        "USGS": 0,
        "GDACS": 0
      },
      "last7_score": 619.235,
      "prev7_score": 4.752,
      "trend": "up",
      "trend_arrow": "🔺",
      "change_pct": 12930.3,
      "place": "SO ORP Kralupy nad Vltavou, Czechia"
    },
    {
      "lon": 26.25,
      "lat": 44.25,
      "type": "hotspot_cell",
      "score": 514.446,
      "count": 885,
      "cell_deg": 0.5,
      "sources": {
        "GDELT": 112,
        "GDELT_DOC": 769,
        "DIRECT_FEED": 4,
        "USGS": 0,
        "GDACS": 0
      },
      "last7_score": 508.621,
      "prev7_score": 5.825,
      "trend": "up",
      "trend_arrow": "🔺",
      "change_pct": 8631.8,
      "place": "Giurgiu, Romania"
    },
    {
      "lon": 25.25,
      "lat": 54.75,
      "type": "hotspot_cell",
      "score": 413.504,
      "count": 698,
      "cell_deg": 0.5,
      "sources": {
        "GDELT": 80,
        "GDELT_DOC": 618,
        "DIRECT_FEED": 0,
        "USGS": 0,
        "GDACS": 0
      },
      "last7_score": 409.642,
      "prev7_score": 3.861,
      "trend": "up",
      "trend_arrow": "🔺",
      "change_pct": 10508.8,
      "place": "Vilnius County, Lithuania"
    },
    {
      "lon": 19.25,
      "lat": 47.75,
      "type": "hotspot_cell",
      "score": 176.037,
      "count": 364,
      "cell_deg": 0.5,
      "sources": {
        "GDELT": 172,
        "GDELT_DOC": 0,
        "DIRECT_FEED": 192,
        "USGS": 0,
        "GDACS": 0
      },
      "last7_score": 167.134,
      "prev7_score": 8.904,
      "trend": "up",
      "trend_arrow": "🔺",
      "change_pct": 1777.2,
      "place": "Pest, Hungary"
    },
    {
      "lon": 25.25,
      "lat": 46.25,
      "type": "hotspot_cell",
      "score": 159.142,
      "count": 427,
      "cell_deg": 0.5,
      "sources": {
        "GDELT": 427,
        "GDELT_DOC": 0,
        "DIRECT_FEED": 0,
        "USGS": 0,
        "GDACS": 0
      },
      "last7_score": 137.824,
      "prev7_score": 21.318,
      "trend": "up",
      "trend_arrow": "🔺",
      "change_pct": 546.5,
      "place": "Harghita, Romania"
    },
    {
      "lon": 20.25,
      "lat": 52.25,
      "type": "hotspot_cell",
      "score": 147.081,
      "count": 474,
      "cell_deg": 0.5,
      "sources": {
        "GDELT": 474,
        "GDELT_DOC": 0,
        "DIRECT_FEED": 0,
        "USGS": 0,
        "GDACS": 0
      },
      "last7_score": 124.607,
      "prev7_score": 22.474,
      "trend": "up",
      "trend_arrow": "🔺",
      "change_pct": 454.4,
      "place": "Sochaczew County, Poland"
    },
    {
      "lon": 24.25,
      "lat": 56.75,
      "type": "hotspot_cell",
      "score": 100.775,
      "count": 160,
      "cell_deg": 0.5,
      "sources": {
        "GDELT": 20,
        "GDELT_DOC": 0,
        "DIRECT_FEED": 140,
        "USGS": 0,
        "GDACS": 0
      },
      "last7_score": 100.059,
      "prev7_score": 0.716,
      "trend": "up",
      "trend_arrow": "🔺",
      "change_pct": 13879.5,
      "place": "Ķekavas novads, Latvia"
    },
    {
      "lon": 21.25,
      "lat": 52.25,
      "type": "hotspot_cell",
      "score": 74.338,
      "count": 226,
      "cell_deg": 0.5,
      "sources": {
        "GDELT": 226,
        "GDELT_DOC": 0,
        "DIRECT_FEED": 0,
        "USGS": 0,
        "GDACS": 0
      },
      "last7_score": 62.951,
      "prev7_score": 11.386,
      "trend": "up",
      "trend_arrow": "🔺",
      "change_pct": 452.9,
      "place": "Warsaw, Poland"
    },
    {
      "lon": 20.25,
      "lat": 47.25,
      "type": "hotspot_cell",
      "score": 71.854,
      "count": 214,
      "cell_deg": 0.5,
      "sources": {
        "GDELT": 214,
        "GDELT_DOC": 0,
        "DIRECT_FEED": 0,
        "USGS": 0,
        "GDACS": 0
      },
      "last7_score": 60.98,
      "prev7_score": 10.875,
      "trend": "up",
      "trend_arrow": "🔺",
      "change_pct": 460.7,
      "place": "Jász-Nagykun-Szolnok, Hungary"
    },
    {
      "lon": 15.25,
      "lat": 49.75,
      "type": "hotspot_cell",
      "score": 47.953,
      "count": 161,
      "cell_deg": 0.5,
      "sources": {
        "GDELT": 161,
        "GDELT_DOC": 0,
        "DIRECT_FEED": 0,
        "USGS": 0,
        "GDACS": 0
      },
      "last7_score": 38.951,
      "prev7_score": 9.001,
      "trend": "up",
      "trend_arrow": "🔺",
      "change_pct": 332.7,
      "place": "Vysočina Region, Czechia"
    }
  ]
}