{
  "generated_utc": "2026-04-24T02:47:26Z",
  "top": [
    {
      "lon": 14.25,
      "lat": 50.25,
      "type": "hotspot_cell",
      "score": 1060.537,
      "count": 1526,
      "cell_deg": 0.5,
      "sources": {
        "GDELT": 166,
        "GDELT_DOC": 1356,
        "DIRECT_FEED": 4,
        "USGS": 0,
        "GDACS": 0
      },
      "last7_score": 1044.222,
      "prev7_score": 16.315,
      "trend": "up",
      "trend_arrow": "🔺",
      "change_pct": 6300.3,
      "place": "SO ORP Kralupy nad Vltavou, Czechia"
    },
    {
      "lon": 26.25,
      "lat": 44.25,
      "type": "hotspot_cell",
      "score": 884.855,
      "count": 1374,
      "cell_deg": 0.5,
      "sources": {
        "GDELT": 130,
        "GDELT_DOC": 1237,
        "DIRECT_FEED": 7,
        "USGS": 0,
        "GDACS": 0
      },
      "last7_score": 874.568,
      "prev7_score": 10.286,
      "trend": "up",
      "trend_arrow": "🔺",
      "change_pct": 8402.5,
      "place": "Giurgiu, Romania"
    },
    {
      "lon": 25.25,
      "lat": 54.75,
      "type": "hotspot_cell",
      "score": 740.077,
      "count": 1119,
      "cell_deg": 0.5,
      "sources": {
        "GDELT": 68,
        "GDELT_DOC": 1051,
        "DIRECT_FEED": 0,
        "USGS": 0,
        "GDACS": 0
      },
      "last7_score": 732.286,
      "prev7_score": 7.791,
      "trend": "up",
      "trend_arrow": "🔺",
      "change_pct": 9299.4,
      "place": "Vilnius County, Lithuania"
    },
    {
      "lon": 19.25,
      "lat": 47.75,
      "type": "hotspot_cell",
      "score": 445.503,
      "count": 1247,
      "cell_deg": 0.5,
      "sources": {
        "GDELT": 990,
        "GDELT_DOC": 0,
        "DIRECT_FEED": 257,
        "USGS": 0,
        "GDACS": 0
      },
      "last7_score": 355.939,
      "prev7_score": 89.564,
      "trend": "up",
      "trend_arrow": "🔺",
      "change_pct": 297.4,
      "place": "Pest, Hungary"
    },
    {
      "lon": 20.25,
      "lat": 47.25,
      "type": "hotspot_cell",
      "score": 301.31,
      "count": 846,
      "cell_deg": 0.5,
      "sources": {
        "GDELT": 846,
        "GDELT_DOC": 0,
        "DIRECT_FEED": 0,
        "USGS": 0,
        "GDACS": 0
      },
      "last7_score": 227.384,
      "prev7_score": 73.927,
      "trend": "up",
      "trend_arrow": "🔺",
      "change_pct": 207.6,
      "place": "Jász-Nagykun-Szolnok, Hungary"
    },
    {
      "lon": 20.25,
      "lat": 52.25,
      "type": "hotspot_cell",
      "score": 189.835,
      "count": 437,
      "cell_deg": 0.5,
      "sources": {
        "GDELT": 437,
        "GDELT_DOC": 0,
        "DIRECT_FEED": 0,
        "USGS": 0,
        "GDACS": 0
      },
      "last7_score": 154.322,
      "prev7_score": 35.514,
      "trend": "up",
      "trend_arrow": "🔺",
      "change_pct": 334.5,
      "place": "Sochaczew County, Poland"
    },
    {
      "lon": 24.25,
      "lat": 56.75,
      "type": "hotspot_cell",
      "score": 114.647,
      "count": 164,
      "cell_deg": 0.5,
      "sources": {
        "GDELT": 30,
        "GDELT_DOC": 0,
        "DIRECT_FEED": 134,
        "USGS": 0,
        "GDACS": 0
      },
      "last7_score": 111.09,
      "prev7_score": 3.557,
      "trend": "up",
      "trend_arrow": "🔺",
      "change_pct": 3023.3,
      "place": "Ķekavas novads, Latvia"
    },
    {
      "lon": 25.25,
      "lat": 46.25,
      "type": "hotspot_cell",
      "score": 97.892,
      "count": 243,
      "cell_deg": 0.5,
      "sources": {
        "GDELT": 243,
        "GDELT_DOC": 0,
        "DIRECT_FEED": 0,
        "USGS": 0,
        "GDACS": 0
      },
      "last7_score": 73.948,
      "prev7_score": 23.945,
      "trend": "up",
      "trend_arrow": "🔺",
      "change_pct": 208.8,
      "place": "Harghita, Romania"
    },
    {
      "lon": 27.75,
      "lat": 47.25,
      "type": "hotspot_cell",
      "score": 86.753,
      "count": 110,
      "cell_deg": 0.5,
      "sources": {
        "GDELT": 0,
        "GDELT_DOC": 110,
        "DIRECT_FEED": 0,
        "USGS": 0,
        "GDACS": 0
      },
      "last7_score": 86.753,
      "prev7_score": 0.0,
      "trend": "new",
      "trend_arrow": "🆕",
      "change_pct": null,
      "place": "Iași, Romania"
    },
    {
      "lon": 15.25,
      "lat": 49.75,
      "type": "hotspot_cell",
      "score": 74.183,
      "count": 196,
      "cell_deg": 0.5,
      "sources": {
        "GDELT": 196,
        "GDELT_DOC": 0,
        "DIRECT_FEED": 0,
        "USGS": 0,
        "GDACS": 0
      },
      "last7_score": 57.093,
      "prev7_score": 17.089,
      "trend": "up",
      "trend_arrow": "🔺",
      "change_pct": 234.1,
      "place": "Vysočina Region, Czechia"
    }
  ]
}