{
  "generated_utc": "2026-03-04T18:55:58Z",
  "top": [
    {
      "lon": 21.25,
      "lat": 52.25,
      "type": "hotspot_cell",
      "score": 17.359,
      "count": 46,
      "cell_deg": 0.5,
      "sources": {
        "GDELT": 46,
        "USGS": 0,
        "GDACS": 0
      },
      "last7_score": 14.788,
      "prev7_score": 2.571,
      "trend": "up",
      "trend_arrow": "🔺",
      "change_pct": 475.1,
      "place": "Warsaw, Poland"
    },
    {
      "lon": 20.25,
      "lat": 52.25,
      "type": "hotspot_cell",
      "score": 16.062,
      "count": 48,
      "cell_deg": 0.5,
      "sources": {
        "GDELT": 48,
        "USGS": 0,
        "GDACS": 0
      },
      "last7_score": 13.129,
      "prev7_score": 2.933,
      "trend": "up",
      "trend_arrow": "🔺",
      "change_pct": 347.6,
      "place": "Sochaczew County, Poland"
    },
    {
      "lon": 25.25,
      "lat": 46.25,
      "type": "hotspot_cell",
      "score": 15.833,
      "count": 37,
      "cell_deg": 0.5,
      "sources": {
        "GDELT": 37,
        "USGS": 0,
        "GDACS": 0
      },
      "last7_score": 13.648,
      "prev7_score": 2.186,
      "trend": "up",
      "trend_arrow": "🔺",
      "change_pct": 524.4,
      "place": "Harghita, Romania"
    },
    {
      "lon": 20.25,
      "lat": 47.25,
      "type": "hotspot_cell",
      "score": 15.522,
      "count": 41,
      "cell_deg": 0.5,
      "sources": {
        "GDELT": 41,
        "USGS": 0,
        "GDACS": 0
      },
      "last7_score": 12.788,
      "prev7_score": 2.735,
      "trend": "up",
      "trend_arrow": "🔺",
      "change_pct": 367.6,
      "place": "Jász-Nagykun-Szolnok, Hungary"
    },
    {
      "lon": 26.25,
      "lat": 59.25,
      "type": "hotspot_cell",
      "score": 14.823,
      "count": 36,
      "cell_deg": 0.5,
      "sources": {
        "GDELT": 36,
        "USGS": 0,
        "GDACS": 0
      },
      "last7_score": 13.147,
      "prev7_score": 1.676,
      "trend": "up",
      "trend_arrow": "🔺",
      "change_pct": 684.3,
      "place": "Lääne-Viru County, Estonia"
    },
    {
      "lon": 14.25,
      "lat": 50.25,
      "type": "hotspot_cell",
      "score": 14.406,
      "count": 38,
      "cell_deg": 0.5,
      "sources": {
        "GDELT": 38,
        "USGS": 0,
        "GDACS": 0
      },
      "last7_score": 11.88,
      "prev7_score": 2.526,
      "trend": "up",
      "trend_arrow": "🔺",
      "change_pct": 370.4,
      "place": "SO ORP Kralupy nad Vltavou, Czechia"
    },
    {
      "lon": 19.25,
      "lat": 47.75,
      "type": "hotspot_cell",
      "score": 13.96,
      "count": 40,
      "cell_deg": 0.5,
      "sources": {
        "GDELT": 40,
        "USGS": 0,
        "GDACS": 0
      },
      "last7_score": 11.404,
      "prev7_score": 2.556,
      "trend": "up",
      "trend_arrow": "🔺",
      "change_pct": 346.2,
      "place": "Pest, Hungary"
    },
    {
      "lon": 25.25,
      "lat": 57.25,
      "type": "hotspot_cell",
      "score": 13.024,
      "count": 35,
      "cell_deg": 0.5,
      "sources": {
        "GDELT": 35,
        "USGS": 0,
        "GDACS": 0
      },
      "last7_score": 11.357,
      "prev7_score": 1.667,
      "trend": "up",
      "trend_arrow": "🔺",
      "change_pct": 581.3,
      "place": "Cēsu novads, Latvia"
    },
    {
      "lon": 15.25,
      "lat": 49.75,
      "type": "hotspot_cell",
      "score": 11.623,
      "count": 34,
      "cell_deg": 0.5,
      "sources": {
        "GDELT": 34,
        "USGS": 0,
        "GDACS": 0
      },
      "last7_score": 9.391,
      "prev7_score": 2.233,
      "trend": "up",
      "trend_arrow": "🔺",
      "change_pct": 320.6,
      "place": "Vysočina Region, Czechia"
    },
    {
      "lon": 26.25,
      "lat": 44.25,
      "type": "hotspot_cell",
      "score": 10.515,
      "count": 29,
      "cell_deg": 0.5,
      "sources": {
        "GDELT": 29,
        "USGS": 0,
        "GDACS": 0
      },
      "last7_score": 8.624,
      "prev7_score": 1.891,
      "trend": "up",
      "trend_arrow": "🔺",
      "change_pct": 356.0,
      "place": "Giurgiu, Romania"
    }
  ]
}