{
  "generated_utc": "2026-07-06T19:50:31Z",
  "top": [
    {
      "lon": 26.25,
      "lat": 44.25,
      "type": "hotspot_cell",
      "score": 383.062,
      "count": 569,
      "cell_deg": 0.5,
      "sources": {
        "GDELT": 139,
        "GDELT_DOC": 424,
        "DIRECT_FEED": 6,
        "USGS": 0,
        "GDACS": 0
      },
      "last7_score": 373.616,
      "prev7_score": 9.446,
      "trend": "up",
      "trend_arrow": "🔺",
      "change_pct": 3855.5,
      "place": "Giurgiu, Romania"
    },
    {
      "lon": 20.25,
      "lat": 52.25,
      "type": "hotspot_cell",
      "score": 183.714,
      "count": 552,
      "cell_deg": 0.5,
      "sources": {
        "GDELT": 552,
        "GDELT_DOC": 0,
        "DIRECT_FEED": 0,
        "USGS": 0,
        "GDACS": 0
      },
      "last7_score": 151.998,
      "prev7_score": 31.715,
      "trend": "up",
      "trend_arrow": "🔺",
      "change_pct": 379.3,
      "place": "Sochaczew County, Poland"
    },
    {
      "lon": 25.25,
      "lat": 54.75,
      "type": "hotspot_cell",
      "score": 177.047,
      "count": 305,
      "cell_deg": 0.5,
      "sources": {
        "GDELT": 68,
        "GDELT_DOC": 236,
        "DIRECT_FEED": 1,
        "USGS": 0,
        "GDACS": 0
      },
      "last7_score": 173.815,
      "prev7_score": 3.232,
      "trend": "up",
      "trend_arrow": "🔺",
      "change_pct": 5278.0,
      "place": "Vilnius County, Lithuania"
    },
    {
      "lon": 14.25,
      "lat": 50.25,
      "type": "hotspot_cell",
      "score": 156.935,
      "count": 273,
      "cell_deg": 0.5,
      "sources": {
        "GDELT": 121,
        "GDELT_DOC": 151,
        "DIRECT_FEED": 1,
        "USGS": 0,
        "GDACS": 0
      },
      "last7_score": 149.644,
      "prev7_score": 7.291,
      "trend": "up",
      "trend_arrow": "🔺",
      "change_pct": 1952.3,
      "place": "SO ORP Kralupy nad Vltavou, Czechia"
    },
    {
      "lon": 19.25,
      "lat": 47.75,
      "type": "hotspot_cell",
      "score": 149.761,
      "count": 353,
      "cell_deg": 0.5,
      "sources": {
        "GDELT": 174,
        "GDELT_DOC": 0,
        "DIRECT_FEED": 179,
        "USGS": 0,
        "GDACS": 0
      },
      "last7_score": 138.064,
      "prev7_score": 11.697,
      "trend": "up",
      "trend_arrow": "🔺",
      "change_pct": 1080.4,
      "place": "Pest, Hungary"
    },
    {
      "lon": 25.25,
      "lat": 46.25,
      "type": "hotspot_cell",
      "score": 121.449,
      "count": 355,
      "cell_deg": 0.5,
      "sources": {
        "GDELT": 355,
        "GDELT_DOC": 0,
        "DIRECT_FEED": 0,
        "USGS": 0,
        "GDACS": 0
      },
      "last7_score": 98.754,
      "prev7_score": 22.695,
      "trend": "up",
      "trend_arrow": "🔺",
      "change_pct": 335.1,
      "place": "Harghita, Romania"
    },
    {
      "lon": 24.25,
      "lat": 56.75,
      "type": "hotspot_cell",
      "score": 97.128,
      "count": 162,
      "cell_deg": 0.5,
      "sources": {
        "GDELT": 22,
        "GDELT_DOC": 0,
        "DIRECT_FEED": 140,
        "USGS": 0,
        "GDACS": 0
      },
      "last7_score": 96.024,
      "prev7_score": 1.104,
      "trend": "up",
      "trend_arrow": "🔺",
      "change_pct": 8593.9,
      "place": "Ķekavas novads, Latvia"
    },
    {
      "lon": 21.25,
      "lat": 52.25,
      "type": "hotspot_cell",
      "score": 95.463,
      "count": 307,
      "cell_deg": 0.5,
      "sources": {
        "GDELT": 307,
        "GDELT_DOC": 0,
        "DIRECT_FEED": 0,
        "USGS": 0,
        "GDACS": 0
      },
      "last7_score": 76.545,
      "prev7_score": 18.919,
      "trend": "up",
      "trend_arrow": "🔺",
      "change_pct": 304.6,
      "place": "Warsaw, Poland"
    },
    {
      "lon": 15.25,
      "lat": 49.75,
      "type": "hotspot_cell",
      "score": 57.85,
      "count": 173,
      "cell_deg": 0.5,
      "sources": {
        "GDELT": 173,
        "GDELT_DOC": 0,
        "DIRECT_FEED": 0,
        "USGS": 0,
        "GDACS": 0
      },
      "last7_score": 46.732,
      "prev7_score": 11.118,
      "trend": "up",
      "trend_arrow": "🔺",
      "change_pct": 320.3,
      "place": "Vysočina Region, Czechia"
    },
    {
      "lon": 20.25,
      "lat": 47.25,
      "type": "hotspot_cell",
      "score": 54.809,
      "count": 171,
      "cell_deg": 0.5,
      "sources": {
        "GDELT": 171,
        "GDELT_DOC": 0,
        "DIRECT_FEED": 0,
        "USGS": 0,
        "GDACS": 0
      },
      "last7_score": 45.407,
      "prev7_score": 9.401,
      "trend": "up",
      "trend_arrow": "🔺",
      "change_pct": 383.0,
      "place": "Jász-Nagykun-Szolnok, Hungary"
    }
  ]
}