{
  "generated_utc": "2026-05-30T08:25:17Z",
  "top": [
    {
      "lon": 14.25,
      "lat": 50.25,
      "type": "hotspot_cell",
      "score": 892.411,
      "count": 1528,
      "cell_deg": 0.5,
      "sources": {
        "GDELT": 143,
        "GDELT_DOC": 1371,
        "DIRECT_FEED": 14,
        "USGS": 0,
        "GDACS": 0
      },
      "last7_score": 879.292,
      "prev7_score": 13.119,
      "trend": "up",
      "trend_arrow": "🔺",
      "change_pct": 6602.6,
      "place": "SO ORP Kralupy nad Vltavou, Czechia"
    },
    {
      "lon": 26.25,
      "lat": 44.25,
      "type": "hotspot_cell",
      "score": 880.075,
      "count": 1304,
      "cell_deg": 0.5,
      "sources": {
        "GDELT": 200,
        "GDELT_DOC": 1095,
        "DIRECT_FEED": 9,
        "USGS": 0,
        "GDACS": 0
      },
      "last7_score": 872.745,
      "prev7_score": 7.33,
      "trend": "up",
      "trend_arrow": "🔺",
      "change_pct": 11806.2,
      "place": "Giurgiu, Romania"
    },
    {
      "lon": 25.25,
      "lat": 54.75,
      "type": "hotspot_cell",
      "score": 788.068,
      "count": 1228,
      "cell_deg": 0.5,
      "sources": {
        "GDELT": 103,
        "GDELT_DOC": 1123,
        "DIRECT_FEED": 2,
        "USGS": 0,
        "GDACS": 0
      },
      "last7_score": 778.038,
      "prev7_score": 10.03,
      "trend": "up",
      "trend_arrow": "🔺",
      "change_pct": 7656.8,
      "place": "Vilnius County, Lithuania"
    },
    {
      "lon": 20.25,
      "lat": 52.25,
      "type": "hotspot_cell",
      "score": 259.537,
      "count": 761,
      "cell_deg": 0.5,
      "sources": {
        "GDELT": 761,
        "GDELT_DOC": 0,
        "DIRECT_FEED": 0,
        "USGS": 0,
        "GDACS": 0
      },
      "last7_score": 182.3,
      "prev7_score": 77.236,
      "trend": "up",
      "trend_arrow": "🔺",
      "change_pct": 136.0,
      "place": "Sochaczew County, Poland"
    },
    {
      "lon": 25.25,
      "lat": 46.25,
      "type": "hotspot_cell",
      "score": 237.71,
      "count": 430,
      "cell_deg": 0.5,
      "sources": {
        "GDELT": 430,
        "GDELT_DOC": 0,
        "DIRECT_FEED": 0,
        "USGS": 0,
        "GDACS": 0
      },
      "last7_score": 215.009,
      "prev7_score": 22.701,
      "trend": "up",
      "trend_arrow": "🔺",
      "change_pct": 847.1,
      "place": "Harghita, Romania"
    },
    {
      "lon": 19.25,
      "lat": 47.75,
      "type": "hotspot_cell",
      "score": 235.274,
      "count": 416,
      "cell_deg": 0.5,
      "sources": {
        "GDELT": 217,
        "GDELT_DOC": 0,
        "DIRECT_FEED": 199,
        "USGS": 0,
        "GDACS": 0
      },
      "last7_score": 221.203,
      "prev7_score": 14.071,
      "trend": "up",
      "trend_arrow": "🔺",
      "change_pct": 1472.0,
      "place": "Pest, Hungary"
    },
    {
      "lon": 24.25,
      "lat": 56.75,
      "type": "hotspot_cell",
      "score": 120.905,
      "count": 181,
      "cell_deg": 0.5,
      "sources": {
        "GDELT": 54,
        "GDELT_DOC": 0,
        "DIRECT_FEED": 127,
        "USGS": 0,
        "GDACS": 0
      },
      "last7_score": 116.625,
      "prev7_score": 4.281,
      "trend": "up",
      "trend_arrow": "🔺",
      "change_pct": 2624.5,
      "place": "Ķekavas novads, Latvia"
    },
    {
      "lon": 20.25,
      "lat": 47.25,
      "type": "hotspot_cell",
      "score": 100.268,
      "count": 252,
      "cell_deg": 0.5,
      "sources": {
        "GDELT": 252,
        "GDELT_DOC": 0,
        "DIRECT_FEED": 0,
        "USGS": 0,
        "GDACS": 0
      },
      "last7_score": 81.201,
      "prev7_score": 19.067,
      "trend": "up",
      "trend_arrow": "🔺",
      "change_pct": 325.9,
      "place": "Jász-Nagykun-Szolnok, Hungary"
    },
    {
      "lon": 21.25,
      "lat": 52.25,
      "type": "hotspot_cell",
      "score": 99.245,
      "count": 260,
      "cell_deg": 0.5,
      "sources": {
        "GDELT": 260,
        "GDELT_DOC": 0,
        "DIRECT_FEED": 0,
        "USGS": 0,
        "GDACS": 0
      },
      "last7_score": 74.888,
      "prev7_score": 24.357,
      "trend": "up",
      "trend_arrow": "🔺",
      "change_pct": 207.5,
      "place": "Warsaw, Poland"
    },
    {
      "lon": 15.25,
      "lat": 49.75,
      "type": "hotspot_cell",
      "score": 69.982,
      "count": 168,
      "cell_deg": 0.5,
      "sources": {
        "GDELT": 168,
        "GDELT_DOC": 0,
        "DIRECT_FEED": 0,
        "USGS": 0,
        "GDACS": 0
      },
      "last7_score": 57.848,
      "prev7_score": 12.134,
      "trend": "up",
      "trend_arrow": "🔺",
      "change_pct": 376.7,
      "place": "Vysočina Region, Czechia"
    }
  ]
}