{
  "generated_utc": "2026-05-10T08:14:47Z",
  "top": [
    {
      "lon": 14.25,
      "lat": 50.25,
      "type": "hotspot_cell",
      "score": 725.049,
      "count": 1307,
      "cell_deg": 0.5,
      "sources": {
        "GDELT": 153,
        "GDELT_DOC": 1150,
        "DIRECT_FEED": 4,
        "USGS": 0,
        "GDACS": 0
      },
      "last7_score": 713.558,
      "prev7_score": 11.491,
      "trend": "up",
      "trend_arrow": "🔺",
      "change_pct": 6109.6,
      "place": "SO ORP Kralupy nad Vltavou, Czechia"
    },
    {
      "lon": 26.25,
      "lat": 44.25,
      "type": "hotspot_cell",
      "score": 689.968,
      "count": 1127,
      "cell_deg": 0.5,
      "sources": {
        "GDELT": 154,
        "GDELT_DOC": 964,
        "DIRECT_FEED": 9,
        "USGS": 0,
        "GDACS": 0
      },
      "last7_score": 683.538,
      "prev7_score": 6.43,
      "trend": "up",
      "trend_arrow": "🔺",
      "change_pct": 10530.0,
      "place": "Giurgiu, Romania"
    },
    {
      "lon": 25.25,
      "lat": 54.75,
      "type": "hotspot_cell",
      "score": 659.064,
      "count": 1046,
      "cell_deg": 0.5,
      "sources": {
        "GDELT": 73,
        "GDELT_DOC": 973,
        "DIRECT_FEED": 0,
        "USGS": 0,
        "GDACS": 0
      },
      "last7_score": 655.525,
      "prev7_score": 3.539,
      "trend": "up",
      "trend_arrow": "🔺",
      "change_pct": 18423.8,
      "place": "Vilnius County, Lithuania"
    },
    {
      "lon": 19.25,
      "lat": 47.75,
      "type": "hotspot_cell",
      "score": 223.331,
      "count": 429,
      "cell_deg": 0.5,
      "sources": {
        "GDELT": 254,
        "GDELT_DOC": 0,
        "DIRECT_FEED": 175,
        "USGS": 0,
        "GDACS": 0
      },
      "last7_score": 211.877,
      "prev7_score": 11.453,
      "trend": "up",
      "trend_arrow": "🔺",
      "change_pct": 1749.9,
      "place": "Pest, Hungary"
    },
    {
      "lon": 20.25,
      "lat": 52.25,
      "type": "hotspot_cell",
      "score": 189.06,
      "count": 520,
      "cell_deg": 0.5,
      "sources": {
        "GDELT": 520,
        "GDELT_DOC": 0,
        "DIRECT_FEED": 0,
        "USGS": 0,
        "GDACS": 0
      },
      "last7_score": 154.907,
      "prev7_score": 34.153,
      "trend": "up",
      "trend_arrow": "🔺",
      "change_pct": 353.6,
      "place": "Sochaczew County, Poland"
    },
    {
      "lon": 25.25,
      "lat": 46.25,
      "type": "hotspot_cell",
      "score": 101.737,
      "count": 347,
      "cell_deg": 0.5,
      "sources": {
        "GDELT": 347,
        "GDELT_DOC": 0,
        "DIRECT_FEED": 0,
        "USGS": 0,
        "GDACS": 0
      },
      "last7_score": 77.602,
      "prev7_score": 24.136,
      "trend": "up",
      "trend_arrow": "🔺",
      "change_pct": 221.5,
      "place": "Harghita, Romania"
    },
    {
      "lon": 20.25,
      "lat": 47.25,
      "type": "hotspot_cell",
      "score": 100.583,
      "count": 287,
      "cell_deg": 0.5,
      "sources": {
        "GDELT": 287,
        "GDELT_DOC": 0,
        "DIRECT_FEED": 0,
        "USGS": 0,
        "GDACS": 0
      },
      "last7_score": 83.776,
      "prev7_score": 16.806,
      "trend": "up",
      "trend_arrow": "🔺",
      "change_pct": 398.5,
      "place": "Jász-Nagykun-Szolnok, Hungary"
    },
    {
      "lon": 24.25,
      "lat": 56.75,
      "type": "hotspot_cell",
      "score": 92.447,
      "count": 154,
      "cell_deg": 0.5,
      "sources": {
        "GDELT": 33,
        "GDELT_DOC": 0,
        "DIRECT_FEED": 121,
        "USGS": 0,
        "GDACS": 0
      },
      "last7_score": 91.532,
      "prev7_score": 0.915,
      "trend": "up",
      "trend_arrow": "🔺",
      "change_pct": 9907.9,
      "place": "Ķekavas novads, Latvia"
    },
    {
      "lon": 21.25,
      "lat": 52.25,
      "type": "hotspot_cell",
      "score": 70.092,
      "count": 178,
      "cell_deg": 0.5,
      "sources": {
        "GDELT": 178,
        "GDELT_DOC": 0,
        "DIRECT_FEED": 0,
        "USGS": 0,
        "GDACS": 0
      },
      "last7_score": 61.095,
      "prev7_score": 8.996,
      "trend": "up",
      "trend_arrow": "🔺",
      "change_pct": 579.1,
      "place": "Warsaw, Poland"
    },
    {
      "lon": 27.75,
      "lat": 47.25,
      "type": "hotspot_cell",
      "score": 62.381,
      "count": 94,
      "cell_deg": 0.5,
      "sources": {
        "GDELT": 0,
        "GDELT_DOC": 94,
        "DIRECT_FEED": 0,
        "USGS": 0,
        "GDACS": 0
      },
      "last7_score": 62.381,
      "prev7_score": 0.0,
      "trend": "new",
      "trend_arrow": "🆕",
      "change_pct": null,
      "place": "Iași, Romania"
    }
  ]
}