{
  "generated_utc": "2026-05-01T19:19:30Z",
  "top": [
    {
      "lon": 14.25,
      "lat": 50.25,
      "type": "hotspot_cell",
      "score": 841.387,
      "count": 1417,
      "cell_deg": 0.5,
      "sources": {
        "GDELT": 188,
        "GDELT_DOC": 1226,
        "DIRECT_FEED": 3,
        "USGS": 0,
        "GDACS": 0
      },
      "last7_score": 826.877,
      "prev7_score": 14.51,
      "trend": "up",
      "trend_arrow": "🔺",
      "change_pct": 5598.6,
      "place": "SO ORP Kralupy nad Vltavou, Czechia"
    },
    {
      "lon": 26.25,
      "lat": 44.25,
      "type": "hotspot_cell",
      "score": 823.196,
      "count": 1446,
      "cell_deg": 0.5,
      "sources": {
        "GDELT": 150,
        "GDELT_DOC": 1292,
        "DIRECT_FEED": 4,
        "USGS": 0,
        "GDACS": 0
      },
      "last7_score": 812.355,
      "prev7_score": 10.84,
      "trend": "up",
      "trend_arrow": "🔺",
      "change_pct": 7393.7,
      "place": "Giurgiu, Romania"
    },
    {
      "lon": 25.25,
      "lat": 54.75,
      "type": "hotspot_cell",
      "score": 572.308,
      "count": 957,
      "cell_deg": 0.5,
      "sources": {
        "GDELT": 65,
        "GDELT_DOC": 892,
        "DIRECT_FEED": 0,
        "USGS": 0,
        "GDACS": 0
      },
      "last7_score": 568.089,
      "prev7_score": 4.218,
      "trend": "up",
      "trend_arrow": "🔺",
      "change_pct": 13366.8,
      "place": "Vilnius County, Lithuania"
    },
    {
      "lon": 19.25,
      "lat": 47.75,
      "type": "hotspot_cell",
      "score": 237.661,
      "count": 562,
      "cell_deg": 0.5,
      "sources": {
        "GDELT": 369,
        "GDELT_DOC": 0,
        "DIRECT_FEED": 193,
        "USGS": 0,
        "GDACS": 0
      },
      "last7_score": 205.647,
      "prev7_score": 32.014,
      "trend": "up",
      "trend_arrow": "🔺",
      "change_pct": 542.4,
      "place": "Pest, Hungary"
    },
    {
      "lon": 20.25,
      "lat": 52.25,
      "type": "hotspot_cell",
      "score": 173.618,
      "count": 469,
      "cell_deg": 0.5,
      "sources": {
        "GDELT": 469,
        "GDELT_DOC": 0,
        "DIRECT_FEED": 0,
        "USGS": 0,
        "GDACS": 0
      },
      "last7_score": 137.745,
      "prev7_score": 35.873,
      "trend": "up",
      "trend_arrow": "🔺",
      "change_pct": 284.0,
      "place": "Sochaczew County, Poland"
    },
    {
      "lon": 20.25,
      "lat": 47.25,
      "type": "hotspot_cell",
      "score": 155.648,
      "count": 526,
      "cell_deg": 0.5,
      "sources": {
        "GDELT": 526,
        "GDELT_DOC": 0,
        "DIRECT_FEED": 0,
        "USGS": 0,
        "GDACS": 0
      },
      "last7_score": 108.317,
      "prev7_score": 47.331,
      "trend": "up",
      "trend_arrow": "🔺",
      "change_pct": 128.8,
      "place": "Jász-Nagykun-Szolnok, Hungary"
    },
    {
      "lon": 25.25,
      "lat": 46.25,
      "type": "hotspot_cell",
      "score": 138.675,
      "count": 307,
      "cell_deg": 0.5,
      "sources": {
        "GDELT": 307,
        "GDELT_DOC": 0,
        "DIRECT_FEED": 0,
        "USGS": 0,
        "GDACS": 0
      },
      "last7_score": 120.299,
      "prev7_score": 18.376,
      "trend": "up",
      "trend_arrow": "🔺",
      "change_pct": 554.6,
      "place": "Harghita, Romania"
    },
    {
      "lon": 24.25,
      "lat": 56.75,
      "type": "hotspot_cell",
      "score": 112.621,
      "count": 163,
      "cell_deg": 0.5,
      "sources": {
        "GDELT": 24,
        "GDELT_DOC": 0,
        "DIRECT_FEED": 139,
        "USGS": 0,
        "GDACS": 0
      },
      "last7_score": 110.798,
      "prev7_score": 1.823,
      "trend": "up",
      "trend_arrow": "🔺",
      "change_pct": 5976.4,
      "place": "Ķekavas novads, Latvia"
    },
    {
      "lon": 15.25,
      "lat": 49.75,
      "type": "hotspot_cell",
      "score": 93.163,
      "count": 220,
      "cell_deg": 0.5,
      "sources": {
        "GDELT": 220,
        "GDELT_DOC": 0,
        "DIRECT_FEED": 0,
        "USGS": 0,
        "GDACS": 0
      },
      "last7_score": 80.553,
      "prev7_score": 12.609,
      "trend": "up",
      "trend_arrow": "🔺",
      "change_pct": 538.8,
      "place": "Vysočina Region, Czechia"
    },
    {
      "lon": 21.25,
      "lat": 52.25,
      "type": "hotspot_cell",
      "score": 63.125,
      "count": 164,
      "cell_deg": 0.5,
      "sources": {
        "GDELT": 164,
        "GDELT_DOC": 0,
        "DIRECT_FEED": 0,
        "USGS": 0,
        "GDACS": 0
      },
      "last7_score": 51.677,
      "prev7_score": 11.448,
      "trend": "up",
      "trend_arrow": "🔺",
      "change_pct": 351.4,
      "place": "Warsaw, Poland"
    }
  ]
}