{
  "generated_utc": "2026-06-06T02:20:32Z",
  "top": [
    {
      "lon": 26.25,
      "lat": 44.25,
      "type": "hotspot_cell",
      "score": 716.846,
      "count": 1115,
      "cell_deg": 0.5,
      "sources": {
        "GDELT": 250,
        "GDELT_DOC": 856,
        "DIRECT_FEED": 9,
        "USGS": 0,
        "GDACS": 0
      },
      "last7_score": 685.553,
      "prev7_score": 31.292,
      "trend": "up",
      "trend_arrow": "🔺",
      "change_pct": 2090.8,
      "place": "Giurgiu, Romania"
    },
    {
      "lon": 14.25,
      "lat": 50.25,
      "type": "hotspot_cell",
      "score": 659.018,
      "count": 1047,
      "cell_deg": 0.5,
      "sources": {
        "GDELT": 125,
        "GDELT_DOC": 918,
        "DIRECT_FEED": 4,
        "USGS": 0,
        "GDACS": 0
      },
      "last7_score": 649.429,
      "prev7_score": 9.589,
      "trend": "up",
      "trend_arrow": "🔺",
      "change_pct": 6672.8,
      "place": "SO ORP Kralupy nad Vltavou, Czechia"
    },
    {
      "lon": 25.25,
      "lat": 54.75,
      "type": "hotspot_cell",
      "score": 639.045,
      "count": 1010,
      "cell_deg": 0.5,
      "sources": {
        "GDELT": 85,
        "GDELT_DOC": 922,
        "DIRECT_FEED": 3,
        "USGS": 0,
        "GDACS": 0
      },
      "last7_score": 633.564,
      "prev7_score": 5.482,
      "trend": "up",
      "trend_arrow": "🔺",
      "change_pct": 11458.1,
      "place": "Vilnius County, Lithuania"
    },
    {
      "lon": 19.25,
      "lat": 47.75,
      "type": "hotspot_cell",
      "score": 238.695,
      "count": 441,
      "cell_deg": 0.5,
      "sources": {
        "GDELT": 254,
        "GDELT_DOC": 0,
        "DIRECT_FEED": 187,
        "USGS": 0,
        "GDACS": 0
      },
      "last7_score": 218.147,
      "prev7_score": 20.548,
      "trend": "up",
      "trend_arrow": "🔺",
      "change_pct": 961.7,
      "place": "Pest, Hungary"
    },
    {
      "lon": 25.25,
      "lat": 46.25,
      "type": "hotspot_cell",
      "score": 215.506,
      "count": 503,
      "cell_deg": 0.5,
      "sources": {
        "GDELT": 503,
        "GDELT_DOC": 0,
        "DIRECT_FEED": 0,
        "USGS": 0,
        "GDACS": 0
      },
      "last7_score": 165.43,
      "prev7_score": 50.076,
      "trend": "up",
      "trend_arrow": "🔺",
      "change_pct": 230.4,
      "place": "Harghita, Romania"
    },
    {
      "lon": 20.25,
      "lat": 52.25,
      "type": "hotspot_cell",
      "score": 214.148,
      "count": 556,
      "cell_deg": 0.5,
      "sources": {
        "GDELT": 556,
        "GDELT_DOC": 0,
        "DIRECT_FEED": 0,
        "USGS": 0,
        "GDACS": 0
      },
      "last7_score": 170.663,
      "prev7_score": 43.485,
      "trend": "up",
      "trend_arrow": "🔺",
      "change_pct": 292.5,
      "place": "Sochaczew County, Poland"
    },
    {
      "lon": 24.25,
      "lat": 56.75,
      "type": "hotspot_cell",
      "score": 122.893,
      "count": 189,
      "cell_deg": 0.5,
      "sources": {
        "GDELT": 45,
        "GDELT_DOC": 0,
        "DIRECT_FEED": 144,
        "USGS": 0,
        "GDACS": 0
      },
      "last7_score": 118.874,
      "prev7_score": 4.019,
      "trend": "up",
      "trend_arrow": "🔺",
      "change_pct": 2857.6,
      "place": "Ķekavas novads, Latvia"
    },
    {
      "lon": 20.25,
      "lat": 47.25,
      "type": "hotspot_cell",
      "score": 99.52,
      "count": 251,
      "cell_deg": 0.5,
      "sources": {
        "GDELT": 251,
        "GDELT_DOC": 0,
        "DIRECT_FEED": 0,
        "USGS": 0,
        "GDACS": 0
      },
      "last7_score": 79.007,
      "prev7_score": 20.513,
      "trend": "up",
      "trend_arrow": "🔺",
      "change_pct": 285.2,
      "place": "Jász-Nagykun-Szolnok, Hungary"
    },
    {
      "lon": 21.25,
      "lat": 52.25,
      "type": "hotspot_cell",
      "score": 80.937,
      "count": 212,
      "cell_deg": 0.5,
      "sources": {
        "GDELT": 212,
        "GDELT_DOC": 0,
        "DIRECT_FEED": 0,
        "USGS": 0,
        "GDACS": 0
      },
      "last7_score": 62.08,
      "prev7_score": 18.857,
      "trend": "up",
      "trend_arrow": "🔺",
      "change_pct": 229.2,
      "place": "Warsaw, Poland"
    },
    {
      "lon": 24.25,
      "lat": 56.25,
      "type": "hotspot_cell",
      "score": 55.755,
      "count": 137,
      "cell_deg": 0.5,
      "sources": {
        "GDELT": 137,
        "GDELT_DOC": 0,
        "DIRECT_FEED": 0,
        "USGS": 0,
        "GDACS": 0
      },
      "last7_score": 44.202,
      "prev7_score": 11.552,
      "trend": "up",
      "trend_arrow": "🔺",
      "change_pct": 282.6,
      "place": "Namišių seniūnija, Lithuania"
    }
  ]
}