{
  "generated_utc": "2026-07-07T02:18:38Z",
  "top": [
    {
      "lon": 26.25,
      "lat": 44.25,
      "type": "hotspot_cell",
      "score": 413.675,
      "count": 581,
      "cell_deg": 0.5,
      "sources": {
        "GDELT": 130,
        "GDELT_DOC": 445,
        "DIRECT_FEED": 6,
        "USGS": 0,
        "GDACS": 0
      },
      "last7_score": 402.204,
      "prev7_score": 11.471,
      "trend": "up",
      "trend_arrow": "🔺",
      "change_pct": 3406.2,
      "place": "Giurgiu, Romania"
    },
    {
      "lon": 14.25,
      "lat": 50.25,
      "type": "hotspot_cell",
      "score": 210.024,
      "count": 313,
      "cell_deg": 0.5,
      "sources": {
        "GDELT": 112,
        "GDELT_DOC": 201,
        "DIRECT_FEED": 0,
        "USGS": 0,
        "GDACS": 0
      },
      "last7_score": 199.585,
      "prev7_score": 10.438,
      "trend": "up",
      "trend_arrow": "🔺",
      "change_pct": 1812.1,
      "place": "SO ORP Kralupy nad Vltavou, Czechia"
    },
    {
      "lon": 20.25,
      "lat": 52.25,
      "type": "hotspot_cell",
      "score": 178.04,
      "count": 519,
      "cell_deg": 0.5,
      "sources": {
        "GDELT": 519,
        "GDELT_DOC": 0,
        "DIRECT_FEED": 0,
        "USGS": 0,
        "GDACS": 0
      },
      "last7_score": 137.039,
      "prev7_score": 41.001,
      "trend": "up",
      "trend_arrow": "🔺",
      "change_pct": 234.2,
      "place": "Sochaczew County, Poland"
    },
    {
      "lon": 25.25,
      "lat": 54.75,
      "type": "hotspot_cell",
      "score": 159.821,
      "count": 270,
      "cell_deg": 0.5,
      "sources": {
        "GDELT": 58,
        "GDELT_DOC": 211,
        "DIRECT_FEED": 1,
        "USGS": 0,
        "GDACS": 0
      },
      "last7_score": 154.187,
      "prev7_score": 5.634,
      "trend": "up",
      "trend_arrow": "🔺",
      "change_pct": 2636.5,
      "place": "Vilnius County, Lithuania"
    },
    {
      "lon": 19.25,
      "lat": 47.75,
      "type": "hotspot_cell",
      "score": 142.7,
      "count": 330,
      "cell_deg": 0.5,
      "sources": {
        "GDELT": 151,
        "GDELT_DOC": 0,
        "DIRECT_FEED": 179,
        "USGS": 0,
        "GDACS": 0
      },
      "last7_score": 129.149,
      "prev7_score": 13.55,
      "trend": "up",
      "trend_arrow": "🔺",
      "change_pct": 853.1,
      "place": "Pest, Hungary"
    },
    {
      "lon": 25.25,
      "lat": 46.25,
      "type": "hotspot_cell",
      "score": 121.054,
      "count": 324,
      "cell_deg": 0.5,
      "sources": {
        "GDELT": 324,
        "GDELT_DOC": 0,
        "DIRECT_FEED": 0,
        "USGS": 0,
        "GDACS": 0
      },
      "last7_score": 95.604,
      "prev7_score": 25.45,
      "trend": "up",
      "trend_arrow": "🔺",
      "change_pct": 275.6,
      "place": "Harghita, Romania"
    },
    {
      "lon": 24.25,
      "lat": 56.75,
      "type": "hotspot_cell",
      "score": 101.208,
      "count": 162,
      "cell_deg": 0.5,
      "sources": {
        "GDELT": 22,
        "GDELT_DOC": 0,
        "DIRECT_FEED": 140,
        "USGS": 0,
        "GDACS": 0
      },
      "last7_score": 99.574,
      "prev7_score": 1.634,
      "trend": "up",
      "trend_arrow": "🔺",
      "change_pct": 5992.2,
      "place": "Ķekavas novads, Latvia"
    },
    {
      "lon": 21.25,
      "lat": 52.25,
      "type": "hotspot_cell",
      "score": 94.01,
      "count": 274,
      "cell_deg": 0.5,
      "sources": {
        "GDELT": 274,
        "GDELT_DOC": 0,
        "DIRECT_FEED": 0,
        "USGS": 0,
        "GDACS": 0
      },
      "last7_score": 73.781,
      "prev7_score": 20.229,
      "trend": "up",
      "trend_arrow": "🔺",
      "change_pct": 264.7,
      "place": "Warsaw, Poland"
    },
    {
      "lon": 15.25,
      "lat": 49.75,
      "type": "hotspot_cell",
      "score": 56.688,
      "count": 161,
      "cell_deg": 0.5,
      "sources": {
        "GDELT": 161,
        "GDELT_DOC": 0,
        "DIRECT_FEED": 0,
        "USGS": 0,
        "GDACS": 0
      },
      "last7_score": 42.17,
      "prev7_score": 14.518,
      "trend": "up",
      "trend_arrow": "🔺",
      "change_pct": 190.5,
      "place": "Vysočina Region, Czechia"
    },
    {
      "lon": 20.25,
      "lat": 47.25,
      "type": "hotspot_cell",
      "score": 55.928,
      "count": 150,
      "cell_deg": 0.5,
      "sources": {
        "GDELT": 150,
        "GDELT_DOC": 0,
        "DIRECT_FEED": 0,
        "USGS": 0,
        "GDACS": 0
      },
      "last7_score": 44.602,
      "prev7_score": 11.326,
      "trend": "up",
      "trend_arrow": "🔺",
      "change_pct": 293.8,
      "place": "Jász-Nagykun-Szolnok, Hungary"
    }
  ]
}