{
  "generated_utc": "2026-06-02T10:13:34Z",
  "top": [
    {
      "lon": 14.25,
      "lat": 50.25,
      "type": "hotspot_cell",
      "score": 709.363,
      "count": 1286,
      "cell_deg": 0.5,
      "sources": {
        "GDELT": 150,
        "GDELT_DOC": 1127,
        "DIRECT_FEED": 9,
        "USGS": 0,
        "GDACS": 0
      },
      "last7_score": 697.879,
      "prev7_score": 11.484,
      "trend": "up",
      "trend_arrow": "🔺",
      "change_pct": 5976.9,
      "place": "SO ORP Kralupy nad Vltavou, Czechia"
    },
    {
      "lon": 25.25,
      "lat": 54.75,
      "type": "hotspot_cell",
      "score": 687.484,
      "count": 1216,
      "cell_deg": 0.5,
      "sources": {
        "GDELT": 111,
        "GDELT_DOC": 1104,
        "DIRECT_FEED": 1,
        "USGS": 0,
        "GDACS": 0
      },
      "last7_score": 679.815,
      "prev7_score": 7.669,
      "trend": "up",
      "trend_arrow": "🔺",
      "change_pct": 8764.1,
      "place": "Vilnius County, Lithuania"
    },
    {
      "lon": 26.25,
      "lat": 44.25,
      "type": "hotspot_cell",
      "score": 571.145,
      "count": 1068,
      "cell_deg": 0.5,
      "sources": {
        "GDELT": 213,
        "GDELT_DOC": 844,
        "DIRECT_FEED": 11,
        "USGS": 0,
        "GDACS": 0
      },
      "last7_score": 561.128,
      "prev7_score": 10.017,
      "trend": "up",
      "trend_arrow": "🔺",
      "change_pct": 5501.5,
      "place": "Giurgiu, Romania"
    },
    {
      "lon": 20.25,
      "lat": 52.25,
      "type": "hotspot_cell",
      "score": 230.755,
      "count": 776,
      "cell_deg": 0.5,
      "sources": {
        "GDELT": 776,
        "GDELT_DOC": 0,
        "DIRECT_FEED": 0,
        "USGS": 0,
        "GDACS": 0
      },
      "last7_score": 172.852,
      "prev7_score": 57.903,
      "trend": "up",
      "trend_arrow": "🔺",
      "change_pct": 198.5,
      "place": "Sochaczew County, Poland"
    },
    {
      "lon": 19.25,
      "lat": 47.75,
      "type": "hotspot_cell",
      "score": 215.221,
      "count": 430,
      "cell_deg": 0.5,
      "sources": {
        "GDELT": 224,
        "GDELT_DOC": 0,
        "DIRECT_FEED": 206,
        "USGS": 0,
        "GDACS": 0
      },
      "last7_score": 205.098,
      "prev7_score": 10.123,
      "trend": "up",
      "trend_arrow": "🔺",
      "change_pct": 1926.1,
      "place": "Pest, Hungary"
    },
    {
      "lon": 25.25,
      "lat": 46.25,
      "type": "hotspot_cell",
      "score": 173.227,
      "count": 429,
      "cell_deg": 0.5,
      "sources": {
        "GDELT": 429,
        "GDELT_DOC": 0,
        "DIRECT_FEED": 0,
        "USGS": 0,
        "GDACS": 0
      },
      "last7_score": 149.825,
      "prev7_score": 23.402,
      "trend": "up",
      "trend_arrow": "🔺",
      "change_pct": 540.2,
      "place": "Harghita, Romania"
    },
    {
      "lon": 24.25,
      "lat": 56.75,
      "type": "hotspot_cell",
      "score": 114.779,
      "count": 190,
      "cell_deg": 0.5,
      "sources": {
        "GDELT": 49,
        "GDELT_DOC": 0,
        "DIRECT_FEED": 141,
        "USGS": 0,
        "GDACS": 0
      },
      "last7_score": 111.878,
      "prev7_score": 2.901,
      "trend": "up",
      "trend_arrow": "🔺",
      "change_pct": 3756.6,
      "place": "Ķekavas novads, Latvia"
    },
    {
      "lon": 20.25,
      "lat": 47.25,
      "type": "hotspot_cell",
      "score": 100.574,
      "count": 259,
      "cell_deg": 0.5,
      "sources": {
        "GDELT": 259,
        "GDELT_DOC": 0,
        "DIRECT_FEED": 0,
        "USGS": 0,
        "GDACS": 0
      },
      "last7_score": 86.422,
      "prev7_score": 14.151,
      "trend": "up",
      "trend_arrow": "🔺",
      "change_pct": 510.7,
      "place": "Jász-Nagykun-Szolnok, Hungary"
    },
    {
      "lon": 21.25,
      "lat": 52.25,
      "type": "hotspot_cell",
      "score": 81.985,
      "count": 262,
      "cell_deg": 0.5,
      "sources": {
        "GDELT": 262,
        "GDELT_DOC": 0,
        "DIRECT_FEED": 0,
        "USGS": 0,
        "GDACS": 0
      },
      "last7_score": 65.587,
      "prev7_score": 16.398,
      "trend": "up",
      "trend_arrow": "🔺",
      "change_pct": 300.0,
      "place": "Warsaw, Poland"
    },
    {
      "lon": 22.25,
      "lat": 55.25,
      "type": "hotspot_cell",
      "score": 56.395,
      "count": 87,
      "cell_deg": 0.5,
      "sources": {
        "GDELT": 0,
        "GDELT_DOC": 87,
        "DIRECT_FEED": 0,
        "USGS": 0,
        "GDACS": 0
      },
      "last7_score": 56.395,
      "prev7_score": 0.0,
      "trend": "new",
      "trend_arrow": "🆕",
      "change_pct": null,
      "place": "Tauragės seniūnija, Lithuania"
    }
  ]
}