{
  "generated_utc": "2026-06-03T20:55:03Z",
  "top": [
    {
      "lon": 14.25,
      "lat": 50.25,
      "type": "hotspot_cell",
      "score": 696.215,
      "count": 1228,
      "cell_deg": 0.5,
      "sources": {
        "GDELT": 153,
        "GDELT_DOC": 1069,
        "DIRECT_FEED": 6,
        "USGS": 0,
        "GDACS": 0
      },
      "last7_score": 685.94,
      "prev7_score": 10.275,
      "trend": "up",
      "trend_arrow": "🔺",
      "change_pct": 6575.9,
      "place": "SO ORP Kralupy nad Vltavou, Czechia"
    },
    {
      "lon": 26.25,
      "lat": 44.25,
      "type": "hotspot_cell",
      "score": 679.134,
      "count": 1109,
      "cell_deg": 0.5,
      "sources": {
        "GDELT": 230,
        "GDELT_DOC": 868,
        "DIRECT_FEED": 11,
        "USGS": 0,
        "GDACS": 0
      },
      "last7_score": 670.617,
      "prev7_score": 8.517,
      "trend": "up",
      "trend_arrow": "🔺",
      "change_pct": 7773.7,
      "place": "Giurgiu, Romania"
    },
    {
      "lon": 25.25,
      "lat": 54.75,
      "type": "hotspot_cell",
      "score": 611.777,
      "count": 1100,
      "cell_deg": 0.5,
      "sources": {
        "GDELT": 100,
        "GDELT_DOC": 998,
        "DIRECT_FEED": 2,
        "USGS": 0,
        "GDACS": 0
      },
      "last7_score": 605.056,
      "prev7_score": 6.721,
      "trend": "up",
      "trend_arrow": "🔺",
      "change_pct": 8903.1,
      "place": "Vilnius County, Lithuania"
    },
    {
      "lon": 20.25,
      "lat": 52.25,
      "type": "hotspot_cell",
      "score": 228.544,
      "count": 762,
      "cell_deg": 0.5,
      "sources": {
        "GDELT": 762,
        "GDELT_DOC": 0,
        "DIRECT_FEED": 0,
        "USGS": 0,
        "GDACS": 0
      },
      "last7_score": 177.403,
      "prev7_score": 51.14,
      "trend": "up",
      "trend_arrow": "🔺",
      "change_pct": 246.9,
      "place": "Sochaczew County, Poland"
    },
    {
      "lon": 19.25,
      "lat": 47.75,
      "type": "hotspot_cell",
      "score": 225.192,
      "count": 421,
      "cell_deg": 0.5,
      "sources": {
        "GDELT": 235,
        "GDELT_DOC": 0,
        "DIRECT_FEED": 186,
        "USGS": 0,
        "GDACS": 0
      },
      "last7_score": 213.571,
      "prev7_score": 11.622,
      "trend": "up",
      "trend_arrow": "🔺",
      "change_pct": 1737.7,
      "place": "Pest, Hungary"
    },
    {
      "lon": 25.25,
      "lat": 46.25,
      "type": "hotspot_cell",
      "score": 205.758,
      "count": 475,
      "cell_deg": 0.5,
      "sources": {
        "GDELT": 475,
        "GDELT_DOC": 0,
        "DIRECT_FEED": 0,
        "USGS": 0,
        "GDACS": 0
      },
      "last7_score": 184.746,
      "prev7_score": 21.012,
      "trend": "up",
      "trend_arrow": "🔺",
      "change_pct": 779.2,
      "place": "Harghita, Romania"
    },
    {
      "lon": 24.25,
      "lat": 56.75,
      "type": "hotspot_cell",
      "score": 132.703,
      "count": 200,
      "cell_deg": 0.5,
      "sources": {
        "GDELT": 49,
        "GDELT_DOC": 0,
        "DIRECT_FEED": 151,
        "USGS": 0,
        "GDACS": 0
      },
      "last7_score": 130.393,
      "prev7_score": 2.31,
      "trend": "up",
      "trend_arrow": "🔺",
      "change_pct": 5545.2,
      "place": "Ķekavas novads, Latvia"
    },
    {
      "lon": 20.25,
      "lat": 47.25,
      "type": "hotspot_cell",
      "score": 107.224,
      "count": 269,
      "cell_deg": 0.5,
      "sources": {
        "GDELT": 269,
        "GDELT_DOC": 0,
        "DIRECT_FEED": 0,
        "USGS": 0,
        "GDACS": 0
      },
      "last7_score": 93.495,
      "prev7_score": 13.729,
      "trend": "up",
      "trend_arrow": "🔺",
      "change_pct": 581.0,
      "place": "Jász-Nagykun-Szolnok, Hungary"
    },
    {
      "lon": 21.25,
      "lat": 52.25,
      "type": "hotspot_cell",
      "score": 89.597,
      "count": 266,
      "cell_deg": 0.5,
      "sources": {
        "GDELT": 266,
        "GDELT_DOC": 0,
        "DIRECT_FEED": 0,
        "USGS": 0,
        "GDACS": 0
      },
      "last7_score": 75.779,
      "prev7_score": 13.818,
      "trend": "up",
      "trend_arrow": "🔺",
      "change_pct": 448.4,
      "place": "Warsaw, Poland"
    },
    {
      "lon": 24.25,
      "lat": 56.25,
      "type": "hotspot_cell",
      "score": 57.64,
      "count": 157,
      "cell_deg": 0.5,
      "sources": {
        "GDELT": 157,
        "GDELT_DOC": 0,
        "DIRECT_FEED": 0,
        "USGS": 0,
        "GDACS": 0
      },
      "last7_score": 47.304,
      "prev7_score": 10.336,
      "trend": "up",
      "trend_arrow": "🔺",
      "change_pct": 357.7,
      "place": "Namišių seniūnija, Lithuania"
    }
  ]
}