{
  "generated_utc": "2026-06-09T09:31:09Z",
  "top": [
    {
      "lon": 25.25,
      "lat": 54.75,
      "type": "hotspot_cell",
      "score": 640.129,
      "count": 1035,
      "cell_deg": 0.5,
      "sources": {
        "GDELT": 79,
        "GDELT_DOC": 954,
        "DIRECT_FEED": 2,
        "USGS": 0,
        "GDACS": 0
      },
      "last7_score": 632.526,
      "prev7_score": 7.603,
      "trend": "up",
      "trend_arrow": "🔺",
      "change_pct": 8219.5,
      "place": "Vilnius County, Lithuania"
    },
    {
      "lon": 26.25,
      "lat": 44.25,
      "type": "hotspot_cell",
      "score": 540.162,
      "count": 1125,
      "cell_deg": 0.5,
      "sources": {
        "GDELT": 245,
        "GDELT_DOC": 873,
        "DIRECT_FEED": 7,
        "USGS": 0,
        "GDACS": 0
      },
      "last7_score": 518.689,
      "prev7_score": 21.473,
      "trend": "up",
      "trend_arrow": "🔺",
      "change_pct": 2315.5,
      "place": "Giurgiu, Romania"
    },
    {
      "lon": 14.25,
      "lat": 50.25,
      "type": "hotspot_cell",
      "score": 456.477,
      "count": 861,
      "cell_deg": 0.5,
      "sources": {
        "GDELT": 108,
        "GDELT_DOC": 750,
        "DIRECT_FEED": 3,
        "USGS": 0,
        "GDACS": 0
      },
      "last7_score": 448.385,
      "prev7_score": 8.092,
      "trend": "up",
      "trend_arrow": "🔺",
      "change_pct": 5441.1,
      "place": "SO ORP Kralupy nad Vltavou, Czechia"
    },
    {
      "lon": 19.25,
      "lat": 47.75,
      "type": "hotspot_cell",
      "score": 183.394,
      "count": 429,
      "cell_deg": 0.5,
      "sources": {
        "GDELT": 256,
        "GDELT_DOC": 0,
        "DIRECT_FEED": 173,
        "USGS": 0,
        "GDACS": 0
      },
      "last7_score": 163.913,
      "prev7_score": 19.481,
      "trend": "up",
      "trend_arrow": "🔺",
      "change_pct": 741.4,
      "place": "Pest, Hungary"
    },
    {
      "lon": 25.25,
      "lat": 46.25,
      "type": "hotspot_cell",
      "score": 171.064,
      "count": 505,
      "cell_deg": 0.5,
      "sources": {
        "GDELT": 505,
        "GDELT_DOC": 0,
        "DIRECT_FEED": 0,
        "USGS": 0,
        "GDACS": 0
      },
      "last7_score": 130.555,
      "prev7_score": 40.508,
      "trend": "up",
      "trend_arrow": "🔺",
      "change_pct": 222.3,
      "place": "Harghita, Romania"
    },
    {
      "lon": 20.25,
      "lat": 52.25,
      "type": "hotspot_cell",
      "score": 157.339,
      "count": 509,
      "cell_deg": 0.5,
      "sources": {
        "GDELT": 509,
        "GDELT_DOC": 0,
        "DIRECT_FEED": 0,
        "USGS": 0,
        "GDACS": 0
      },
      "last7_score": 115.738,
      "prev7_score": 41.601,
      "trend": "up",
      "trend_arrow": "🔺",
      "change_pct": 178.2,
      "place": "Sochaczew County, Poland"
    },
    {
      "lon": 24.25,
      "lat": 56.75,
      "type": "hotspot_cell",
      "score": 105.703,
      "count": 185,
      "cell_deg": 0.5,
      "sources": {
        "GDELT": 48,
        "GDELT_DOC": 0,
        "DIRECT_FEED": 137,
        "USGS": 0,
        "GDACS": 0
      },
      "last7_score": 102.525,
      "prev7_score": 3.179,
      "trend": "up",
      "trend_arrow": "🔺",
      "change_pct": 3125.2,
      "place": "Ķekavas novads, Latvia"
    },
    {
      "lon": 20.25,
      "lat": 47.25,
      "type": "hotspot_cell",
      "score": 85.522,
      "count": 265,
      "cell_deg": 0.5,
      "sources": {
        "GDELT": 265,
        "GDELT_DOC": 0,
        "DIRECT_FEED": 0,
        "USGS": 0,
        "GDACS": 0
      },
      "last7_score": 64.89,
      "prev7_score": 20.631,
      "trend": "up",
      "trend_arrow": "🔺",
      "change_pct": 214.5,
      "place": "Jász-Nagykun-Szolnok, Hungary"
    },
    {
      "lon": 21.25,
      "lat": 52.25,
      "type": "hotspot_cell",
      "score": 68.446,
      "count": 219,
      "cell_deg": 0.5,
      "sources": {
        "GDELT": 219,
        "GDELT_DOC": 0,
        "DIRECT_FEED": 0,
        "USGS": 0,
        "GDACS": 0
      },
      "last7_score": 51.035,
      "prev7_score": 17.41,
      "trend": "up",
      "trend_arrow": "🔺",
      "change_pct": 193.1,
      "place": "Warsaw, Poland"
    },
    {
      "lon": 15.25,
      "lat": 49.75,
      "type": "hotspot_cell",
      "score": 46.768,
      "count": 154,
      "cell_deg": 0.5,
      "sources": {
        "GDELT": 154,
        "GDELT_DOC": 0,
        "DIRECT_FEED": 0,
        "USGS": 0,
        "GDACS": 0
      },
      "last7_score": 34.817,
      "prev7_score": 11.951,
      "trend": "up",
      "trend_arrow": "🔺",
      "change_pct": 191.3,
      "place": "Vysočina Region, Czechia"
    }
  ]
}