{
  "generated_utc": "2026-06-02T20:44:38Z",
  "top": [
    {
      "lon": 14.25,
      "lat": 50.25,
      "type": "hotspot_cell",
      "score": 792.787,
      "count": 1296,
      "cell_deg": 0.5,
      "sources": {
        "GDELT": 155,
        "GDELT_DOC": 1134,
        "DIRECT_FEED": 7,
        "USGS": 0,
        "GDACS": 0
      },
      "last7_score": 782.409,
      "prev7_score": 10.378,
      "trend": "up",
      "trend_arrow": "🔺",
      "change_pct": 7438.9,
      "place": "SO ORP Kralupy nad Vltavou, Czechia"
    },
    {
      "lon": 26.25,
      "lat": 44.25,
      "type": "hotspot_cell",
      "score": 662.913,
      "count": 1125,
      "cell_deg": 0.5,
      "sources": {
        "GDELT": 226,
        "GDELT_DOC": 888,
        "DIRECT_FEED": 11,
        "USGS": 0,
        "GDACS": 0
      },
      "last7_score": 653.86,
      "prev7_score": 9.053,
      "trend": "up",
      "trend_arrow": "🔺",
      "change_pct": 7122.7,
      "place": "Giurgiu, Romania"
    },
    {
      "lon": 25.25,
      "lat": 54.75,
      "type": "hotspot_cell",
      "score": 624.857,
      "count": 1198,
      "cell_deg": 0.5,
      "sources": {
        "GDELT": 120,
        "GDELT_DOC": 1077,
        "DIRECT_FEED": 1,
        "USGS": 0,
        "GDACS": 0
      },
      "last7_score": 617.926,
      "prev7_score": 6.931,
      "trend": "up",
      "trend_arrow": "🔺",
      "change_pct": 8815.7,
      "place": "Vilnius County, Lithuania"
    },
    {
      "lon": 20.25,
      "lat": 52.25,
      "type": "hotspot_cell",
      "score": 234.831,
      "count": 800,
      "cell_deg": 0.5,
      "sources": {
        "GDELT": 800,
        "GDELT_DOC": 0,
        "DIRECT_FEED": 0,
        "USGS": 0,
        "GDACS": 0
      },
      "last7_score": 182.504,
      "prev7_score": 52.327,
      "trend": "up",
      "trend_arrow": "🔺",
      "change_pct": 248.8,
      "place": "Sochaczew County, Poland"
    },
    {
      "lon": 19.25,
      "lat": 47.75,
      "type": "hotspot_cell",
      "score": 219.271,
      "count": 429,
      "cell_deg": 0.5,
      "sources": {
        "GDELT": 238,
        "GDELT_DOC": 0,
        "DIRECT_FEED": 191,
        "USGS": 0,
        "GDACS": 0
      },
      "last7_score": 210.123,
      "prev7_score": 9.148,
      "trend": "up",
      "trend_arrow": "🔺",
      "change_pct": 2196.9,
      "place": "Pest, Hungary"
    },
    {
      "lon": 25.25,
      "lat": 46.25,
      "type": "hotspot_cell",
      "score": 200.674,
      "count": 468,
      "cell_deg": 0.5,
      "sources": {
        "GDELT": 468,
        "GDELT_DOC": 0,
        "DIRECT_FEED": 0,
        "USGS": 0,
        "GDACS": 0
      },
      "last7_score": 179.526,
      "prev7_score": 21.149,
      "trend": "up",
      "trend_arrow": "🔺",
      "change_pct": 748.9,
      "place": "Harghita, Romania"
    },
    {
      "lon": 24.25,
      "lat": 56.75,
      "type": "hotspot_cell",
      "score": 117.865,
      "count": 190,
      "cell_deg": 0.5,
      "sources": {
        "GDELT": 51,
        "GDELT_DOC": 0,
        "DIRECT_FEED": 139,
        "USGS": 0,
        "GDACS": 0
      },
      "last7_score": 115.243,
      "prev7_score": 2.622,
      "trend": "up",
      "trend_arrow": "🔺",
      "change_pct": 4295.9,
      "place": "Ķekavas novads, Latvia"
    },
    {
      "lon": 20.25,
      "lat": 47.25,
      "type": "hotspot_cell",
      "score": 103.984,
      "count": 271,
      "cell_deg": 0.5,
      "sources": {
        "GDELT": 271,
        "GDELT_DOC": 0,
        "DIRECT_FEED": 0,
        "USGS": 0,
        "GDACS": 0
      },
      "last7_score": 91.195,
      "prev7_score": 12.789,
      "trend": "up",
      "trend_arrow": "🔺",
      "change_pct": 613.1,
      "place": "Jász-Nagykun-Szolnok, Hungary"
    },
    {
      "lon": 21.25,
      "lat": 52.25,
      "type": "hotspot_cell",
      "score": 91.444,
      "count": 278,
      "cell_deg": 0.5,
      "sources": {
        "GDELT": 278,
        "GDELT_DOC": 0,
        "DIRECT_FEED": 0,
        "USGS": 0,
        "GDACS": 0
      },
      "last7_score": 76.625,
      "prev7_score": 14.819,
      "trend": "up",
      "trend_arrow": "🔺",
      "change_pct": 417.1,
      "place": "Warsaw, Poland"
    },
    {
      "lon": 15.25,
      "lat": 49.75,
      "type": "hotspot_cell",
      "score": 58.569,
      "count": 167,
      "cell_deg": 0.5,
      "sources": {
        "GDELT": 167,
        "GDELT_DOC": 0,
        "DIRECT_FEED": 0,
        "USGS": 0,
        "GDACS": 0
      },
      "last7_score": 50.424,
      "prev7_score": 8.146,
      "trend": "up",
      "trend_arrow": "🔺",
      "change_pct": 519.0,
      "place": "Vysočina Region, Czechia"
    }
  ]
}