{
  "generated_utc": "2026-05-28T09:57:24Z",
  "top": [
    {
      "lon": 14.25,
      "lat": 50.25,
      "type": "hotspot_cell",
      "score": 962.476,
      "count": 1574,
      "cell_deg": 0.5,
      "sources": {
        "GDELT": 143,
        "GDELT_DOC": 1410,
        "DIRECT_FEED": 21,
        "USGS": 0,
        "GDACS": 0
      },
      "last7_score": 952.147,
      "prev7_score": 10.329,
      "trend": "up",
      "trend_arrow": "🔺",
      "change_pct": 9118.0,
      "place": "SO ORP Kralupy nad Vltavou, Czechia"
    },
    {
      "lon": 25.25,
      "lat": 54.75,
      "type": "hotspot_cell",
      "score": 747.317,
      "count": 1130,
      "cell_deg": 0.5,
      "sources": {
        "GDELT": 101,
        "GDELT_DOC": 1027,
        "DIRECT_FEED": 2,
        "USGS": 0,
        "GDACS": 0
      },
      "last7_score": 734.832,
      "prev7_score": 12.484,
      "trend": "up",
      "trend_arrow": "🔺",
      "change_pct": 5786.0,
      "place": "Vilnius County, Lithuania"
    },
    {
      "lon": 26.25,
      "lat": 44.25,
      "type": "hotspot_cell",
      "score": 698.644,
      "count": 1225,
      "cell_deg": 0.5,
      "sources": {
        "GDELT": 113,
        "GDELT_DOC": 1111,
        "DIRECT_FEED": 1,
        "USGS": 0,
        "GDACS": 0
      },
      "last7_score": 689.689,
      "prev7_score": 8.954,
      "trend": "up",
      "trend_arrow": "🔺",
      "change_pct": 7602.4,
      "place": "Giurgiu, Romania"
    },
    {
      "lon": 20.25,
      "lat": 52.25,
      "type": "hotspot_cell",
      "score": 284.885,
      "count": 802,
      "cell_deg": 0.5,
      "sources": {
        "GDELT": 802,
        "GDELT_DOC": 0,
        "DIRECT_FEED": 0,
        "USGS": 0,
        "GDACS": 0
      },
      "last7_score": 224.482,
      "prev7_score": 60.403,
      "trend": "up",
      "trend_arrow": "🔺",
      "change_pct": 271.6,
      "place": "Sochaczew County, Poland"
    },
    {
      "lon": 19.25,
      "lat": 47.75,
      "type": "hotspot_cell",
      "score": 212.021,
      "count": 396,
      "cell_deg": 0.5,
      "sources": {
        "GDELT": 184,
        "GDELT_DOC": 0,
        "DIRECT_FEED": 212,
        "USGS": 0,
        "GDACS": 0
      },
      "last7_score": 196.025,
      "prev7_score": 15.996,
      "trend": "up",
      "trend_arrow": "🔺",
      "change_pct": 1125.4,
      "place": "Pest, Hungary"
    },
    {
      "lon": 25.25,
      "lat": 46.25,
      "type": "hotspot_cell",
      "score": 120.499,
      "count": 316,
      "cell_deg": 0.5,
      "sources": {
        "GDELT": 316,
        "GDELT_DOC": 0,
        "DIRECT_FEED": 0,
        "USGS": 0,
        "GDACS": 0
      },
      "last7_score": 95.211,
      "prev7_score": 25.288,
      "trend": "up",
      "trend_arrow": "🔺",
      "change_pct": 276.5,
      "place": "Harghita, Romania"
    },
    {
      "lon": 24.25,
      "lat": 56.75,
      "type": "hotspot_cell",
      "score": 106.185,
      "count": 170,
      "cell_deg": 0.5,
      "sources": {
        "GDELT": 47,
        "GDELT_DOC": 0,
        "DIRECT_FEED": 123,
        "USGS": 0,
        "GDACS": 0
      },
      "last7_score": 101.235,
      "prev7_score": 4.951,
      "trend": "up",
      "trend_arrow": "🔺",
      "change_pct": 1944.9,
      "place": "Ķekavas novads, Latvia"
    },
    {
      "lon": 20.25,
      "lat": 47.25,
      "type": "hotspot_cell",
      "score": 88.354,
      "count": 233,
      "cell_deg": 0.5,
      "sources": {
        "GDELT": 233,
        "GDELT_DOC": 0,
        "DIRECT_FEED": 0,
        "USGS": 0,
        "GDACS": 0
      },
      "last7_score": 70.122,
      "prev7_score": 18.232,
      "trend": "up",
      "trend_arrow": "🔺",
      "change_pct": 284.6,
      "place": "Jász-Nagykun-Szolnok, Hungary"
    },
    {
      "lon": 21.25,
      "lat": 52.25,
      "type": "hotspot_cell",
      "score": 81.571,
      "count": 255,
      "cell_deg": 0.5,
      "sources": {
        "GDELT": 255,
        "GDELT_DOC": 0,
        "DIRECT_FEED": 0,
        "USGS": 0,
        "GDACS": 0
      },
      "last7_score": 59.948,
      "prev7_score": 21.624,
      "trend": "up",
      "trend_arrow": "🔺",
      "change_pct": 177.2,
      "place": "Warsaw, Poland"
    },
    {
      "lon": 15.25,
      "lat": 49.75,
      "type": "hotspot_cell",
      "score": 63.683,
      "count": 156,
      "cell_deg": 0.5,
      "sources": {
        "GDELT": 156,
        "GDELT_DOC": 0,
        "DIRECT_FEED": 0,
        "USGS": 0,
        "GDACS": 0
      },
      "last7_score": 50.772,
      "prev7_score": 12.911,
      "trend": "up",
      "trend_arrow": "🔺",
      "change_pct": 293.2,
      "place": "Vysočina Region, Czechia"
    }
  ]
}