{
  "generated_utc": "2026-04-26T19:03:08Z",
  "top": [
    {
      "lon": 26.25,
      "lat": 44.25,
      "type": "hotspot_cell",
      "score": 1010.515,
      "count": 1574,
      "cell_deg": 0.5,
      "sources": {
        "GDELT": 141,
        "GDELT_DOC": 1425,
        "DIRECT_FEED": 8,
        "USGS": 0,
        "GDACS": 0
      },
      "last7_score": 1004.27,
      "prev7_score": 6.245,
      "trend": "up",
      "trend_arrow": "🔺",
      "change_pct": 15980.8,
      "place": "Giurgiu, Romania"
    },
    {
      "lon": 14.25,
      "lat": 50.25,
      "type": "hotspot_cell",
      "score": 993.802,
      "count": 1692,
      "cell_deg": 0.5,
      "sources": {
        "GDELT": 185,
        "GDELT_DOC": 1504,
        "DIRECT_FEED": 3,
        "USGS": 0,
        "GDACS": 0
      },
      "last7_score": 981.165,
      "prev7_score": 12.637,
      "trend": "up",
      "trend_arrow": "🔺",
      "change_pct": 7664.1,
      "place": "SO ORP Kralupy nad Vltavou, Czechia"
    },
    {
      "lon": 25.25,
      "lat": 54.75,
      "type": "hotspot_cell",
      "score": 688.355,
      "count": 1196,
      "cell_deg": 0.5,
      "sources": {
        "GDELT": 74,
        "GDELT_DOC": 1122,
        "DIRECT_FEED": 0,
        "USGS": 0,
        "GDACS": 0
      },
      "last7_score": 684.117,
      "prev7_score": 4.238,
      "trend": "up",
      "trend_arrow": "🔺",
      "change_pct": 16043.0,
      "place": "Vilnius County, Lithuania"
    },
    {
      "lon": 19.25,
      "lat": 47.75,
      "type": "hotspot_cell",
      "score": 311.053,
      "count": 1075,
      "cell_deg": 0.5,
      "sources": {
        "GDELT": 828,
        "GDELT_DOC": 0,
        "DIRECT_FEED": 247,
        "USGS": 0,
        "GDACS": 0
      },
      "last7_score": 263.024,
      "prev7_score": 48.029,
      "trend": "up",
      "trend_arrow": "🔺",
      "change_pct": 447.6,
      "place": "Pest, Hungary"
    },
    {
      "lon": 20.25,
      "lat": 47.25,
      "type": "hotspot_cell",
      "score": 224.687,
      "count": 811,
      "cell_deg": 0.5,
      "sources": {
        "GDELT": 811,
        "GDELT_DOC": 0,
        "DIRECT_FEED": 0,
        "USGS": 0,
        "GDACS": 0
      },
      "last7_score": 179.533,
      "prev7_score": 45.154,
      "trend": "up",
      "trend_arrow": "🔺",
      "change_pct": 297.6,
      "place": "Jász-Nagykun-Szolnok, Hungary"
    },
    {
      "lon": 20.25,
      "lat": 52.25,
      "type": "hotspot_cell",
      "score": 163.09,
      "count": 478,
      "cell_deg": 0.5,
      "sources": {
        "GDELT": 478,
        "GDELT_DOC": 0,
        "DIRECT_FEED": 0,
        "USGS": 0,
        "GDACS": 0
      },
      "last7_score": 136.495,
      "prev7_score": 26.595,
      "trend": "up",
      "trend_arrow": "🔺",
      "change_pct": 413.2,
      "place": "Sochaczew County, Poland"
    },
    {
      "lon": 26.75,
      "lat": 47.75,
      "type": "hotspot_cell",
      "score": 141.757,
      "count": 155,
      "cell_deg": 0.5,
      "sources": {
        "GDELT": 2,
        "GDELT_DOC": 151,
        "DIRECT_FEED": 2,
        "USGS": 0,
        "GDACS": 0
      },
      "last7_score": 141.608,
      "prev7_score": 0.149,
      "trend": "up",
      "trend_arrow": "🔺",
      "change_pct": 95069.7,
      "place": "Botoșani, Romania"
    },
    {
      "lon": 24.25,
      "lat": 56.75,
      "type": "hotspot_cell",
      "score": 103.883,
      "count": 177,
      "cell_deg": 0.5,
      "sources": {
        "GDELT": 34,
        "GDELT_DOC": 0,
        "DIRECT_FEED": 143,
        "USGS": 0,
        "GDACS": 0
      },
      "last7_score": 101.881,
      "prev7_score": 2.002,
      "trend": "up",
      "trend_arrow": "🔺",
      "change_pct": 4988.1,
      "place": "Ķekavas novads, Latvia"
    },
    {
      "lon": 22.25,
      "lat": 55.25,
      "type": "hotspot_cell",
      "score": 89.916,
      "count": 111,
      "cell_deg": 0.5,
      "sources": {
        "GDELT": 0,
        "GDELT_DOC": 110,
        "DIRECT_FEED": 1,
        "USGS": 0,
        "GDACS": 0
      },
      "last7_score": 89.916,
      "prev7_score": 0.0,
      "trend": "new",
      "trend_arrow": "🆕",
      "change_pct": null,
      "place": "Tauragės seniūnija, Lithuania"
    },
    {
      "lon": 25.25,
      "lat": 46.25,
      "type": "hotspot_cell",
      "score": 88.446,
      "count": 279,
      "cell_deg": 0.5,
      "sources": {
        "GDELT": 279,
        "GDELT_DOC": 0,
        "DIRECT_FEED": 0,
        "USGS": 0,
        "GDACS": 0
      },
      "last7_score": 73.665,
      "prev7_score": 14.781,
      "trend": "up",
      "trend_arrow": "🔺",
      "change_pct": 398.4,
      "place": "Harghita, Romania"
    }
  ]
}