{
  "generated_utc": "2026-03-08T06:47:38Z",
  "top": [
    {
      "lon": 14.25,
      "lat": 50.25,
      "type": "hotspot_cell",
      "score": 388.27,
      "count": 505,
      "cell_deg": 0.5,
      "sources": {
        "GDELT": 159,
        "GDELT_DOC": 346,
        "DIRECT_FEED": 0,
        "USGS": 0,
        "GDACS": 0
      },
      "last7_score": 379.477,
      "prev7_score": 8.793,
      "trend": "up",
      "trend_arrow": "🔺",
      "change_pct": 4215.9,
      "place": "SO ORP Kralupy nad Vltavou, Czechia"
    },
    {
      "lon": 26.25,
      "lat": 44.25,
      "type": "hotspot_cell",
      "score": 345.657,
      "count": 471,
      "cell_deg": 0.5,
      "sources": {
        "GDELT": 178,
        "GDELT_DOC": 293,
        "DIRECT_FEED": 0,
        "USGS": 0,
        "GDACS": 0
      },
      "last7_score": 335.741,
      "prev7_score": 9.916,
      "trend": "up",
      "trend_arrow": "🔺",
      "change_pct": 3285.8,
      "place": "Giurgiu, Romania"
    },
    {
      "lon": 25.25,
      "lat": 54.75,
      "type": "hotspot_cell",
      "score": 247.459,
      "count": 305,
      "cell_deg": 0.5,
      "sources": {
        "GDELT": 74,
        "GDELT_DOC": 231,
        "DIRECT_FEED": 0,
        "USGS": 0,
        "GDACS": 0
      },
      "last7_score": 242.582,
      "prev7_score": 4.877,
      "trend": "up",
      "trend_arrow": "🔺",
      "change_pct": 4874.4,
      "place": "Vilnius County, Lithuania"
    },
    {
      "lon": 19.25,
      "lat": 47.75,
      "type": "hotspot_cell",
      "score": 227.683,
      "count": 511,
      "cell_deg": 0.5,
      "sources": {
        "GDELT": 462,
        "GDELT_DOC": 0,
        "DIRECT_FEED": 49,
        "USGS": 0,
        "GDACS": 0
      },
      "last7_score": 201.9,
      "prev7_score": 25.783,
      "trend": "up",
      "trend_arrow": "🔺",
      "change_pct": 683.1,
      "place": "Pest, Hungary"
    },
    {
      "lon": 20.25,
      "lat": 52.25,
      "type": "hotspot_cell",
      "score": 189.412,
      "count": 547,
      "cell_deg": 0.5,
      "sources": {
        "GDELT": 547,
        "GDELT_DOC": 0,
        "DIRECT_FEED": 0,
        "USGS": 0,
        "GDACS": 0
      },
      "last7_score": 152.066,
      "prev7_score": 37.346,
      "trend": "up",
      "trend_arrow": "🔺",
      "change_pct": 307.2,
      "place": "Sochaczew County, Poland"
    },
    {
      "lon": 20.25,
      "lat": 47.25,
      "type": "hotspot_cell",
      "score": 133.281,
      "count": 406,
      "cell_deg": 0.5,
      "sources": {
        "GDELT": 406,
        "GDELT_DOC": 0,
        "DIRECT_FEED": 0,
        "USGS": 0,
        "GDACS": 0
      },
      "last7_score": 105.957,
      "prev7_score": 27.323,
      "trend": "up",
      "trend_arrow": "🔺",
      "change_pct": 287.8,
      "place": "Jász-Nagykun-Szolnok, Hungary"
    },
    {
      "lon": 25.25,
      "lat": 46.25,
      "type": "hotspot_cell",
      "score": 102.825,
      "count": 324,
      "cell_deg": 0.5,
      "sources": {
        "GDELT": 324,
        "GDELT_DOC": 0,
        "DIRECT_FEED": 0,
        "USGS": 0,
        "GDACS": 0
      },
      "last7_score": 82.642,
      "prev7_score": 20.183,
      "trend": "up",
      "trend_arrow": "🔺",
      "change_pct": 309.5,
      "place": "Harghita, Romania"
    },
    {
      "lon": 21.25,
      "lat": 52.25,
      "type": "hotspot_cell",
      "score": 90.085,
      "count": 245,
      "cell_deg": 0.5,
      "sources": {
        "GDELT": 245,
        "GDELT_DOC": 0,
        "DIRECT_FEED": 0,
        "USGS": 0,
        "GDACS": 0
      },
      "last7_score": 73.32,
      "prev7_score": 16.764,
      "trend": "up",
      "trend_arrow": "🔺",
      "change_pct": 337.4,
      "place": "Warsaw, Poland"
    },
    {
      "lon": 15.25,
      "lat": 49.75,
      "type": "hotspot_cell",
      "score": 66.114,
      "count": 169,
      "cell_deg": 0.5,
      "sources": {
        "GDELT": 169,
        "GDELT_DOC": 0,
        "DIRECT_FEED": 0,
        "USGS": 0,
        "GDACS": 0
      },
      "last7_score": 55.657,
      "prev7_score": 10.457,
      "trend": "up",
      "trend_arrow": "🔺",
      "change_pct": 432.3,
      "place": "Vysočina Region, Czechia"
    },
    {
      "lon": 24.25,
      "lat": 56.25,
      "type": "hotspot_cell",
      "score": 53.798,
      "count": 154,
      "cell_deg": 0.5,
      "sources": {
        "GDELT": 154,
        "GDELT_DOC": 0,
        "DIRECT_FEED": 0,
        "USGS": 0,
        "GDACS": 0
      },
      "last7_score": 44.381,
      "prev7_score": 9.417,
      "trend": "up",
      "trend_arrow": "🔺",
      "change_pct": 371.3,
      "place": "Namišių seniūnija, Lithuania"
    }
  ]
}