{
  "generated_utc": "2026-05-04T03:00:06Z",
  "top": [
    {
      "lon": 14.25,
      "lat": 50.25,
      "type": "hotspot_cell",
      "score": 903.654,
      "count": 1520,
      "cell_deg": 0.5,
      "sources": {
        "GDELT": 174,
        "GDELT_DOC": 1343,
        "DIRECT_FEED": 3,
        "USGS": 0,
        "GDACS": 0
      },
      "last7_score": 891.412,
      "prev7_score": 12.242,
      "trend": "up",
      "trend_arrow": "🔺",
      "change_pct": 7181.7,
      "place": "SO ORP Kralupy nad Vltavou, Czechia"
    },
    {
      "lon": 26.25,
      "lat": 44.25,
      "type": "hotspot_cell",
      "score": 674.92,
      "count": 1258,
      "cell_deg": 0.5,
      "sources": {
        "GDELT": 126,
        "GDELT_DOC": 1130,
        "DIRECT_FEED": 2,
        "USGS": 0,
        "GDACS": 0
      },
      "last7_score": 664.933,
      "prev7_score": 9.987,
      "trend": "up",
      "trend_arrow": "🔺",
      "change_pct": 6558.3,
      "place": "Giurgiu, Romania"
    },
    {
      "lon": 25.25,
      "lat": 54.75,
      "type": "hotspot_cell",
      "score": 646.871,
      "count": 1074,
      "cell_deg": 0.5,
      "sources": {
        "GDELT": 58,
        "GDELT_DOC": 1016,
        "DIRECT_FEED": 0,
        "USGS": 0,
        "GDACS": 0
      },
      "last7_score": 641.867,
      "prev7_score": 5.004,
      "trend": "up",
      "trend_arrow": "🔺",
      "change_pct": 12727.1,
      "place": "Vilnius County, Lithuania"
    },
    {
      "lon": 20.25,
      "lat": 52.25,
      "type": "hotspot_cell",
      "score": 179.81,
      "count": 478,
      "cell_deg": 0.5,
      "sources": {
        "GDELT": 478,
        "GDELT_DOC": 0,
        "DIRECT_FEED": 0,
        "USGS": 0,
        "GDACS": 0
      },
      "last7_score": 146.899,
      "prev7_score": 32.912,
      "trend": "up",
      "trend_arrow": "🔺",
      "change_pct": 346.3,
      "place": "Sochaczew County, Poland"
    },
    {
      "lon": 19.25,
      "lat": 47.75,
      "type": "hotspot_cell",
      "score": 167.344,
      "count": 474,
      "cell_deg": 0.5,
      "sources": {
        "GDELT": 294,
        "GDELT_DOC": 0,
        "DIRECT_FEED": 180,
        "USGS": 0,
        "GDACS": 0
      },
      "last7_score": 143.819,
      "prev7_score": 23.524,
      "trend": "up",
      "trend_arrow": "🔺",
      "change_pct": 511.4,
      "place": "Pest, Hungary"
    },
    {
      "lon": 25.25,
      "lat": 46.25,
      "type": "hotspot_cell",
      "score": 115.248,
      "count": 313,
      "cell_deg": 0.5,
      "sources": {
        "GDELT": 313,
        "GDELT_DOC": 0,
        "DIRECT_FEED": 0,
        "USGS": 0,
        "GDACS": 0
      },
      "last7_score": 94.487,
      "prev7_score": 20.762,
      "trend": "up",
      "trend_arrow": "🔺",
      "change_pct": 355.1,
      "place": "Harghita, Romania"
    },
    {
      "lon": 20.25,
      "lat": 47.25,
      "type": "hotspot_cell",
      "score": 104.092,
      "count": 439,
      "cell_deg": 0.5,
      "sources": {
        "GDELT": 439,
        "GDELT_DOC": 0,
        "DIRECT_FEED": 0,
        "USGS": 0,
        "GDACS": 0
      },
      "last7_score": 66.541,
      "prev7_score": 37.551,
      "trend": "up",
      "trend_arrow": "🔺",
      "change_pct": 77.2,
      "place": "Jász-Nagykun-Szolnok, Hungary"
    },
    {
      "lon": 24.25,
      "lat": 56.75,
      "type": "hotspot_cell",
      "score": 84.845,
      "count": 155,
      "cell_deg": 0.5,
      "sources": {
        "GDELT": 23,
        "GDELT_DOC": 0,
        "DIRECT_FEED": 132,
        "USGS": 0,
        "GDACS": 0
      },
      "last7_score": 81.949,
      "prev7_score": 2.896,
      "trend": "up",
      "trend_arrow": "🔺",
      "change_pct": 2729.4,
      "place": "Ķekavas novads, Latvia"
    },
    {
      "lon": 15.25,
      "lat": 49.75,
      "type": "hotspot_cell",
      "score": 72.086,
      "count": 197,
      "cell_deg": 0.5,
      "sources": {
        "GDELT": 197,
        "GDELT_DOC": 0,
        "DIRECT_FEED": 0,
        "USGS": 0,
        "GDACS": 0
      },
      "last7_score": 59.814,
      "prev7_score": 12.272,
      "trend": "up",
      "trend_arrow": "🔺",
      "change_pct": 387.4,
      "place": "Vysočina Region, Czechia"
    },
    {
      "lon": 21.25,
      "lat": 52.25,
      "type": "hotspot_cell",
      "score": 45.296,
      "count": 148,
      "cell_deg": 0.5,
      "sources": {
        "GDELT": 148,
        "GDELT_DOC": 0,
        "DIRECT_FEED": 0,
        "USGS": 0,
        "GDACS": 0
      },
      "last7_score": 34.13,
      "prev7_score": 11.165,
      "trend": "up",
      "trend_arrow": "🔺",
      "change_pct": 205.7,
      "place": "Warsaw, Poland"
    }
  ]
}