{
  "generated_utc": "2026-04-23T02:50:11Z",
  "top": [
    {
      "lon": 14.25,
      "lat": 50.25,
      "type": "hotspot_cell",
      "score": 946.806,
      "count": 1442,
      "cell_deg": 0.5,
      "sources": {
        "GDELT": 149,
        "GDELT_DOC": 1290,
        "DIRECT_FEED": 3,
        "USGS": 0,
        "GDACS": 0
      },
      "last7_score": 935.255,
      "prev7_score": 11.551,
      "trend": "up",
      "trend_arrow": "🔺",
      "change_pct": 7996.6,
      "place": "SO ORP Kralupy nad Vltavou, Czechia"
    },
    {
      "lon": 26.25,
      "lat": 44.25,
      "type": "hotspot_cell",
      "score": 809.388,
      "count": 1287,
      "cell_deg": 0.5,
      "sources": {
        "GDELT": 120,
        "GDELT_DOC": 1163,
        "DIRECT_FEED": 4,
        "USGS": 0,
        "GDACS": 0
      },
      "last7_score": 800.762,
      "prev7_score": 8.626,
      "trend": "up",
      "trend_arrow": "🔺",
      "change_pct": 9183.6,
      "place": "Giurgiu, Romania"
    },
    {
      "lon": 25.25,
      "lat": 54.75,
      "type": "hotspot_cell",
      "score": 653.107,
      "count": 1003,
      "cell_deg": 0.5,
      "sources": {
        "GDELT": 69,
        "GDELT_DOC": 934,
        "DIRECT_FEED": 0,
        "USGS": 0,
        "GDACS": 0
      },
      "last7_score": 646.2,
      "prev7_score": 6.907,
      "trend": "up",
      "trend_arrow": "🔺",
      "change_pct": 9255.4,
      "place": "Vilnius County, Lithuania"
    },
    {
      "lon": 19.25,
      "lat": 47.75,
      "type": "hotspot_cell",
      "score": 465.238,
      "count": 1271,
      "cell_deg": 0.5,
      "sources": {
        "GDELT": 1015,
        "GDELT_DOC": 0,
        "DIRECT_FEED": 256,
        "USGS": 0,
        "GDACS": 0
      },
      "last7_score": 359.875,
      "prev7_score": 105.363,
      "trend": "up",
      "trend_arrow": "🔺",
      "change_pct": 241.6,
      "place": "Pest, Hungary"
    },
    {
      "lon": 20.25,
      "lat": 47.25,
      "type": "hotspot_cell",
      "score": 288.78,
      "count": 822,
      "cell_deg": 0.5,
      "sources": {
        "GDELT": 822,
        "GDELT_DOC": 0,
        "DIRECT_FEED": 0,
        "USGS": 0,
        "GDACS": 0
      },
      "last7_score": 210.289,
      "prev7_score": 78.49,
      "trend": "up",
      "trend_arrow": "🔺",
      "change_pct": 167.9,
      "place": "Jász-Nagykun-Szolnok, Hungary"
    },
    {
      "lon": 20.25,
      "lat": 52.25,
      "type": "hotspot_cell",
      "score": 165.493,
      "count": 411,
      "cell_deg": 0.5,
      "sources": {
        "GDELT": 411,
        "GDELT_DOC": 0,
        "DIRECT_FEED": 0,
        "USGS": 0,
        "GDACS": 0
      },
      "last7_score": 133.823,
      "prev7_score": 31.67,
      "trend": "up",
      "trend_arrow": "🔺",
      "change_pct": 322.6,
      "place": "Sochaczew County, Poland"
    },
    {
      "lon": 24.25,
      "lat": 56.75,
      "type": "hotspot_cell",
      "score": 117.759,
      "count": 172,
      "cell_deg": 0.5,
      "sources": {
        "GDELT": 29,
        "GDELT_DOC": 0,
        "DIRECT_FEED": 143,
        "USGS": 0,
        "GDACS": 0
      },
      "last7_score": 114.228,
      "prev7_score": 3.53,
      "trend": "up",
      "trend_arrow": "🔺",
      "change_pct": 3135.8,
      "place": "Ķekavas novads, Latvia"
    },
    {
      "lon": 25.25,
      "lat": 46.25,
      "type": "hotspot_cell",
      "score": 93.764,
      "count": 228,
      "cell_deg": 0.5,
      "sources": {
        "GDELT": 228,
        "GDELT_DOC": 0,
        "DIRECT_FEED": 0,
        "USGS": 0,
        "GDACS": 0
      },
      "last7_score": 71.241,
      "prev7_score": 22.523,
      "trend": "up",
      "trend_arrow": "🔺",
      "change_pct": 216.3,
      "place": "Harghita, Romania"
    },
    {
      "lon": 15.25,
      "lat": 49.75,
      "type": "hotspot_cell",
      "score": 76.096,
      "count": 195,
      "cell_deg": 0.5,
      "sources": {
        "GDELT": 195,
        "GDELT_DOC": 0,
        "DIRECT_FEED": 0,
        "USGS": 0,
        "GDACS": 0
      },
      "last7_score": 61.35,
      "prev7_score": 14.746,
      "trend": "up",
      "trend_arrow": "🔺",
      "change_pct": 316.0,
      "place": "Vysočina Region, Czechia"
    },
    {
      "lon": 27.75,
      "lat": 47.25,
      "type": "hotspot_cell",
      "score": 67.82,
      "count": 84,
      "cell_deg": 0.5,
      "sources": {
        "GDELT": 0,
        "GDELT_DOC": 84,
        "DIRECT_FEED": 0,
        "USGS": 0,
        "GDACS": 0
      },
      "last7_score": 67.82,
      "prev7_score": 0.0,
      "trend": "new",
      "trend_arrow": "🆕",
      "change_pct": null,
      "place": "Iași, Romania"
    }
  ]
}