{
  "generated_utc": "2026-03-17T13:17:42Z",
  "top": [
    {
      "lon": 14.25,
      "lat": 50.25,
      "type": "hotspot_cell",
      "score": 838.949,
      "count": 1349,
      "cell_deg": 0.5,
      "sources": {
        "GDELT": 134,
        "GDELT_DOC": 1209,
        "DIRECT_FEED": 6,
        "USGS": 0,
        "GDACS": 0
      },
      "last7_score": 830.015,
      "prev7_score": 8.934,
      "trend": "up",
      "trend_arrow": "🔺",
      "change_pct": 9190.6,
      "place": "SO ORP Kralupy nad Vltavou, Czechia"
    },
    {
      "lon": 26.25,
      "lat": 44.25,
      "type": "hotspot_cell",
      "score": 787.654,
      "count": 1307,
      "cell_deg": 0.5,
      "sources": {
        "GDELT": 191,
        "GDELT_DOC": 1113,
        "DIRECT_FEED": 3,
        "USGS": 0,
        "GDACS": 0
      },
      "last7_score": 777.623,
      "prev7_score": 10.031,
      "trend": "up",
      "trend_arrow": "🔺",
      "change_pct": 7652.1,
      "place": "Giurgiu, Romania"
    },
    {
      "lon": 25.25,
      "lat": 54.75,
      "type": "hotspot_cell",
      "score": 540.543,
      "count": 925,
      "cell_deg": 0.5,
      "sources": {
        "GDELT": 71,
        "GDELT_DOC": 854,
        "DIRECT_FEED": 0,
        "USGS": 0,
        "GDACS": 0
      },
      "last7_score": 535.269,
      "prev7_score": 5.274,
      "trend": "up",
      "trend_arrow": "🔺",
      "change_pct": 10048.5,
      "place": "Vilnius County, Lithuania"
    },
    {
      "lon": 19.25,
      "lat": 47.75,
      "type": "hotspot_cell",
      "score": 273.079,
      "count": 622,
      "cell_deg": 0.5,
      "sources": {
        "GDELT": 430,
        "GDELT_DOC": 0,
        "DIRECT_FEED": 192,
        "USGS": 0,
        "GDACS": 0
      },
      "last7_score": 242.386,
      "prev7_score": 30.694,
      "trend": "up",
      "trend_arrow": "🔺",
      "change_pct": 689.7,
      "place": "Pest, Hungary"
    },
    {
      "lon": 20.25,
      "lat": 52.25,
      "type": "hotspot_cell",
      "score": 149.721,
      "count": 424,
      "cell_deg": 0.5,
      "sources": {
        "GDELT": 424,
        "GDELT_DOC": 0,
        "DIRECT_FEED": 0,
        "USGS": 0,
        "GDACS": 0
      },
      "last7_score": 121.25,
      "prev7_score": 28.472,
      "trend": "up",
      "trend_arrow": "🔺",
      "change_pct": 325.9,
      "place": "Sochaczew County, Poland"
    },
    {
      "lon": 20.25,
      "lat": 47.25,
      "type": "hotspot_cell",
      "score": 144.075,
      "count": 376,
      "cell_deg": 0.5,
      "sources": {
        "GDELT": 376,
        "GDELT_DOC": 0,
        "DIRECT_FEED": 0,
        "USGS": 0,
        "GDACS": 0
      },
      "last7_score": 120.049,
      "prev7_score": 24.026,
      "trend": "up",
      "trend_arrow": "🔺",
      "change_pct": 399.7,
      "place": "Jász-Nagykun-Szolnok, Hungary"
    },
    {
      "lon": 25.25,
      "lat": 46.25,
      "type": "hotspot_cell",
      "score": 109.737,
      "count": 300,
      "cell_deg": 0.5,
      "sources": {
        "GDELT": 300,
        "GDELT_DOC": 0,
        "DIRECT_FEED": 0,
        "USGS": 0,
        "GDACS": 0
      },
      "last7_score": 90.252,
      "prev7_score": 19.484,
      "trend": "up",
      "trend_arrow": "🔺",
      "change_pct": 363.2,
      "place": "Harghita, Romania"
    },
    {
      "lon": 24.25,
      "lat": 56.75,
      "type": "hotspot_cell",
      "score": 106.957,
      "count": 177,
      "cell_deg": 0.5,
      "sources": {
        "GDELT": 31,
        "GDELT_DOC": 0,
        "DIRECT_FEED": 146,
        "USGS": 0,
        "GDACS": 0
      },
      "last7_score": 105.12,
      "prev7_score": 1.837,
      "trend": "up",
      "trend_arrow": "🔺",
      "change_pct": 5622.5,
      "place": "Ķekavas novads, Latvia"
    },
    {
      "lon": 21.25,
      "lat": 52.25,
      "type": "hotspot_cell",
      "score": 66.743,
      "count": 214,
      "cell_deg": 0.5,
      "sources": {
        "GDELT": 214,
        "GDELT_DOC": 0,
        "DIRECT_FEED": 0,
        "USGS": 0,
        "GDACS": 0
      },
      "last7_score": 54.654,
      "prev7_score": 12.088,
      "trend": "up",
      "trend_arrow": "🔺",
      "change_pct": 352.1,
      "place": "Warsaw, Poland"
    },
    {
      "lon": 27.75,
      "lat": 47.25,
      "type": "hotspot_cell",
      "score": 64.635,
      "count": 101,
      "cell_deg": 0.5,
      "sources": {
        "GDELT": 0,
        "GDELT_DOC": 101,
        "DIRECT_FEED": 0,
        "USGS": 0,
        "GDACS": 0
      },
      "last7_score": 64.635,
      "prev7_score": 0.0,
      "trend": "new",
      "trend_arrow": "🆕",
      "change_pct": null,
      "place": "Iași, Romania"
    }
  ]
}