{
  "generated_utc": "2026-03-09T07:08:39Z",
  "top": [
    {
      "lon": 14.25,
      "lat": 50.25,
      "type": "hotspot_cell",
      "score": 481.694,
      "count": 654,
      "cell_deg": 0.5,
      "sources": {
        "GDELT": 150,
        "GDELT_DOC": 504,
        "DIRECT_FEED": 0,
        "USGS": 0,
        "GDACS": 0
      },
      "last7_score": 472.126,
      "prev7_score": 9.568,
      "trend": "up",
      "trend_arrow": "🔺",
      "change_pct": 4834.3,
      "place": "SO ORP Kralupy nad Vltavou, Czechia"
    },
    {
      "lon": 26.25,
      "lat": 44.25,
      "type": "hotspot_cell",
      "score": 476.863,
      "count": 636,
      "cell_deg": 0.5,
      "sources": {
        "GDELT": 165,
        "GDELT_DOC": 470,
        "DIRECT_FEED": 1,
        "USGS": 0,
        "GDACS": 0
      },
      "last7_score": 465.786,
      "prev7_score": 11.077,
      "trend": "up",
      "trend_arrow": "🔺",
      "change_pct": 4105.1,
      "place": "Giurgiu, Romania"
    },
    {
      "lon": 25.25,
      "lat": 54.75,
      "type": "hotspot_cell",
      "score": 295.083,
      "count": 392,
      "cell_deg": 0.5,
      "sources": {
        "GDELT": 69,
        "GDELT_DOC": 323,
        "DIRECT_FEED": 0,
        "USGS": 0,
        "GDACS": 0
      },
      "last7_score": 289.807,
      "prev7_score": 5.276,
      "trend": "up",
      "trend_arrow": "🔺",
      "change_pct": 5393.1,
      "place": "Vilnius County, Lithuania"
    },
    {
      "lon": 19.25,
      "lat": 47.75,
      "type": "hotspot_cell",
      "score": 219.374,
      "count": 479,
      "cell_deg": 0.5,
      "sources": {
        "GDELT": 411,
        "GDELT_DOC": 0,
        "DIRECT_FEED": 68,
        "USGS": 0,
        "GDACS": 0
      },
      "last7_score": 198.282,
      "prev7_score": 21.092,
      "trend": "up",
      "trend_arrow": "🔺",
      "change_pct": 840.1,
      "place": "Pest, Hungary"
    },
    {
      "lon": 20.25,
      "lat": 52.25,
      "type": "hotspot_cell",
      "score": 167.201,
      "count": 527,
      "cell_deg": 0.5,
      "sources": {
        "GDELT": 527,
        "GDELT_DOC": 0,
        "DIRECT_FEED": 0,
        "USGS": 0,
        "GDACS": 0
      },
      "last7_score": 127.104,
      "prev7_score": 40.098,
      "trend": "up",
      "trend_arrow": "🔺",
      "change_pct": 217.0,
      "place": "Sochaczew County, Poland"
    },
    {
      "lon": 20.25,
      "lat": 47.25,
      "type": "hotspot_cell",
      "score": 112.998,
      "count": 368,
      "cell_deg": 0.5,
      "sources": {
        "GDELT": 368,
        "GDELT_DOC": 0,
        "DIRECT_FEED": 0,
        "USGS": 0,
        "GDACS": 0
      },
      "last7_score": 90.534,
      "prev7_score": 22.464,
      "trend": "up",
      "trend_arrow": "🔺",
      "change_pct": 303.0,
      "place": "Jász-Nagykun-Szolnok, Hungary"
    },
    {
      "lon": 25.25,
      "lat": 46.25,
      "type": "hotspot_cell",
      "score": 86.27,
      "count": 296,
      "cell_deg": 0.5,
      "sources": {
        "GDELT": 296,
        "GDELT_DOC": 0,
        "DIRECT_FEED": 0,
        "USGS": 0,
        "GDACS": 0
      },
      "last7_score": 64.093,
      "prev7_score": 22.177,
      "trend": "up",
      "trend_arrow": "🔺",
      "change_pct": 189.0,
      "place": "Harghita, Romania"
    },
    {
      "lon": 21.25,
      "lat": 52.25,
      "type": "hotspot_cell",
      "score": 76.023,
      "count": 240,
      "cell_deg": 0.5,
      "sources": {
        "GDELT": 240,
        "GDELT_DOC": 0,
        "DIRECT_FEED": 0,
        "USGS": 0,
        "GDACS": 0
      },
      "last7_score": 59.574,
      "prev7_score": 16.449,
      "trend": "up",
      "trend_arrow": "🔺",
      "change_pct": 262.2,
      "place": "Warsaw, Poland"
    },
    {
      "lon": 24.25,
      "lat": 56.75,
      "type": "hotspot_cell",
      "score": 58.291,
      "count": 77,
      "cell_deg": 0.5,
      "sources": {
        "GDELT": 29,
        "GDELT_DOC": 0,
        "DIRECT_FEED": 48,
        "USGS": 0,
        "GDACS": 0
      },
      "last7_score": 56.072,
      "prev7_score": 2.219,
      "trend": "up",
      "trend_arrow": "🔺",
      "change_pct": 2427.1,
      "place": "Ķekavas novads, Latvia"
    },
    {
      "lon": 15.25,
      "lat": 49.75,
      "type": "hotspot_cell",
      "score": 56.759,
      "count": 165,
      "cell_deg": 0.5,
      "sources": {
        "GDELT": 165,
        "GDELT_DOC": 0,
        "DIRECT_FEED": 0,
        "USGS": 0,
        "GDACS": 0
      },
      "last7_score": 44.7,
      "prev7_score": 12.059,
      "trend": "up",
      "trend_arrow": "🔺",
      "change_pct": 270.7,
      "place": "Vysočina Region, Czechia"
    }
  ]
}