{
  "generated_utc": "2026-03-03T02:15:35Z",
  "top": [
    {
      "lon": 21.25,
      "lat": 52.25,
      "type": "hotspot_cell",
      "score": 19.852,
      "count": 46,
      "cell_deg": 0.5,
      "sources": {
        "GDELT": 46,
        "USGS": 0,
        "GDACS": 0
      },
      "last7_score": 17.385,
      "prev7_score": 2.466,
      "trend": "up",
      "trend_arrow": "🔺",
      "change_pct": 604.9,
      "place": "Warsaw, Poland"
    },
    {
      "lon": 14.25,
      "lat": 50.25,
      "type": "hotspot_cell",
      "score": 16.629,
      "count": 37,
      "cell_deg": 0.5,
      "sources": {
        "GDELT": 37,
        "USGS": 0,
        "GDACS": 0
      },
      "last7_score": 14.357,
      "prev7_score": 2.273,
      "trend": "up",
      "trend_arrow": "🔺",
      "change_pct": 531.7,
      "place": "SO ORP Kralupy nad Vltavou, Czechia"
    },
    {
      "lon": 20.25,
      "lat": 52.25,
      "type": "hotspot_cell",
      "score": 16.598,
      "count": 46,
      "cell_deg": 0.5,
      "sources": {
        "GDELT": 46,
        "USGS": 0,
        "GDACS": 0
      },
      "last7_score": 13.023,
      "prev7_score": 3.575,
      "trend": "up",
      "trend_arrow": "🔺",
      "change_pct": 264.3,
      "place": "Sochaczew County, Poland"
    },
    {
      "lon": 25.25,
      "lat": 46.25,
      "type": "hotspot_cell",
      "score": 13.448,
      "count": 34,
      "cell_deg": 0.5,
      "sources": {
        "GDELT": 34,
        "USGS": 0,
        "GDACS": 0
      },
      "last7_score": 11.234,
      "prev7_score": 2.214,
      "trend": "up",
      "trend_arrow": "🔺",
      "change_pct": 407.4,
      "place": "Harghita, Romania"
    },
    {
      "lon": 19.25,
      "lat": 47.75,
      "type": "hotspot_cell",
      "score": 13.425,
      "count": 37,
      "cell_deg": 0.5,
      "sources": {
        "GDELT": 37,
        "USGS": 0,
        "GDACS": 0
      },
      "last7_score": 10.472,
      "prev7_score": 2.953,
      "trend": "up",
      "trend_arrow": "🔺",
      "change_pct": 254.6,
      "place": "Pest, Hungary"
    },
    {
      "lon": 20.25,
      "lat": 47.25,
      "type": "hotspot_cell",
      "score": 13.318,
      "count": 38,
      "cell_deg": 0.5,
      "sources": {
        "GDELT": 38,
        "USGS": 0,
        "GDACS": 0
      },
      "last7_score": 10.293,
      "prev7_score": 3.026,
      "trend": "up",
      "trend_arrow": "🔺",
      "change_pct": 240.2,
      "place": "Jász-Nagykun-Szolnok, Hungary"
    },
    {
      "lon": 26.25,
      "lat": 59.25,
      "type": "hotspot_cell",
      "score": 12.158,
      "count": 31,
      "cell_deg": 0.5,
      "sources": {
        "GDELT": 31,
        "USGS": 0,
        "GDACS": 0
      },
      "last7_score": 9.87,
      "prev7_score": 2.288,
      "trend": "up",
      "trend_arrow": "🔺",
      "change_pct": 331.4,
      "place": "Lääne-Viru County, Estonia"
    },
    {
      "lon": 15.25,
      "lat": 49.75,
      "type": "hotspot_cell",
      "score": 11.634,
      "count": 33,
      "cell_deg": 0.5,
      "sources": {
        "GDELT": 33,
        "USGS": 0,
        "GDACS": 0
      },
      "last7_score": 8.778,
      "prev7_score": 2.856,
      "trend": "up",
      "trend_arrow": "🔺",
      "change_pct": 207.4,
      "place": "Vysočina Region, Czechia"
    },
    {
      "lon": 19.75,
      "lat": 48.75,
      "type": "hotspot_cell",
      "score": 11.495,
      "count": 31,
      "cell_deg": 0.5,
      "sources": {
        "GDELT": 31,
        "USGS": 0,
        "GDACS": 0
      },
      "last7_score": 9.014,
      "prev7_score": 2.482,
      "trend": "up",
      "trend_arrow": "🔺",
      "change_pct": 263.2,
      "place": "District of Brezno, Slovakia"
    },
    {
      "lon": 25.25,
      "lat": 57.25,
      "type": "hotspot_cell",
      "score": 10.438,
      "count": 31,
      "cell_deg": 0.5,
      "sources": {
        "GDELT": 31,
        "USGS": 0,
        "GDACS": 0
      },
      "last7_score": 8.482,
      "prev7_score": 1.956,
      "trend": "up",
      "trend_arrow": "🔺",
      "change_pct": 333.6,
      "place": "Cēsu novads, Latvia"
    }
  ]
}