{
  "generated_utc": "2026-07-17T08:00:52Z",
  "top": [
    {
      "lon": 14.25,
      "lat": 50.25,
      "type": "hotspot_cell",
      "score": 608.371,
      "count": 1054,
      "cell_deg": 0.5,
      "sources": {
        "GDELT": 98,
        "GDELT_DOC": 950,
        "DIRECT_FEED": 6,
        "USGS": 0,
        "GDACS": 0
      },
      "last7_score": 601.843,
      "prev7_score": 6.528,
      "trend": "up",
      "trend_arrow": "🔺",
      "change_pct": 9119.2,
      "place": "SO ORP Kralupy nad Vltavou, Czechia"
    },
    {
      "lon": 26.25,
      "lat": 44.25,
      "type": "hotspot_cell",
      "score": 539.902,
      "count": 794,
      "cell_deg": 0.5,
      "sources": {
        "GDELT": 94,
        "GDELT_DOC": 697,
        "DIRECT_FEED": 3,
        "USGS": 0,
        "GDACS": 0
      },
      "last7_score": 531.102,
      "prev7_score": 8.8,
      "trend": "up",
      "trend_arrow": "🔺",
      "change_pct": 5935.1,
      "place": "Giurgiu, Romania"
    },
    {
      "lon": 25.25,
      "lat": 54.75,
      "type": "hotspot_cell",
      "score": 440.979,
      "count": 735,
      "cell_deg": 0.5,
      "sources": {
        "GDELT": 75,
        "GDELT_DOC": 660,
        "DIRECT_FEED": 0,
        "USGS": 0,
        "GDACS": 0
      },
      "last7_score": 435.38,
      "prev7_score": 5.599,
      "trend": "up",
      "trend_arrow": "🔺",
      "change_pct": 7676.6,
      "place": "Vilnius County, Lithuania"
    },
    {
      "lon": 19.25,
      "lat": 47.75,
      "type": "hotspot_cell",
      "score": 200.954,
      "count": 345,
      "cell_deg": 0.5,
      "sources": {
        "GDELT": 157,
        "GDELT_DOC": 0,
        "DIRECT_FEED": 188,
        "USGS": 0,
        "GDACS": 0
      },
      "last7_score": 188.393,
      "prev7_score": 12.561,
      "trend": "up",
      "trend_arrow": "🔺",
      "change_pct": 1399.9,
      "place": "Pest, Hungary"
    },
    {
      "lon": 20.25,
      "lat": 52.25,
      "type": "hotspot_cell",
      "score": 170.749,
      "count": 440,
      "cell_deg": 0.5,
      "sources": {
        "GDELT": 440,
        "GDELT_DOC": 0,
        "DIRECT_FEED": 0,
        "USGS": 0,
        "GDACS": 0
      },
      "last7_score": 137.906,
      "prev7_score": 32.843,
      "trend": "up",
      "trend_arrow": "🔺",
      "change_pct": 319.9,
      "place": "Sochaczew County, Poland"
    },
    {
      "lon": 25.25,
      "lat": 46.25,
      "type": "hotspot_cell",
      "score": 151.964,
      "count": 373,
      "cell_deg": 0.5,
      "sources": {
        "GDELT": 373,
        "GDELT_DOC": 0,
        "DIRECT_FEED": 0,
        "USGS": 0,
        "GDACS": 0
      },
      "last7_score": 120.701,
      "prev7_score": 31.263,
      "trend": "up",
      "trend_arrow": "🔺",
      "change_pct": 286.1,
      "place": "Harghita, Romania"
    },
    {
      "lon": 24.25,
      "lat": 56.75,
      "type": "hotspot_cell",
      "score": 111.206,
      "count": 155,
      "cell_deg": 0.5,
      "sources": {
        "GDELT": 18,
        "GDELT_DOC": 0,
        "DIRECT_FEED": 137,
        "USGS": 0,
        "GDACS": 0
      },
      "last7_score": 110.028,
      "prev7_score": 1.178,
      "trend": "up",
      "trend_arrow": "🔺",
      "change_pct": 9240.2,
      "place": "Ķekavas novads, Latvia"
    },
    {
      "lon": 21.25,
      "lat": 52.25,
      "type": "hotspot_cell",
      "score": 94.424,
      "count": 239,
      "cell_deg": 0.5,
      "sources": {
        "GDELT": 239,
        "GDELT_DOC": 0,
        "DIRECT_FEED": 0,
        "USGS": 0,
        "GDACS": 0
      },
      "last7_score": 77.976,
      "prev7_score": 16.448,
      "trend": "up",
      "trend_arrow": "🔺",
      "change_pct": 374.1,
      "place": "Warsaw, Poland"
    },
    {
      "lon": 20.25,
      "lat": 47.25,
      "type": "hotspot_cell",
      "score": 79.359,
      "count": 191,
      "cell_deg": 0.5,
      "sources": {
        "GDELT": 191,
        "GDELT_DOC": 0,
        "DIRECT_FEED": 0,
        "USGS": 0,
        "GDACS": 0
      },
      "last7_score": 63.828,
      "prev7_score": 15.531,
      "trend": "up",
      "trend_arrow": "🔺",
      "change_pct": 311.0,
      "place": "Jász-Nagykun-Szolnok, Hungary"
    },
    {
      "lon": 15.25,
      "lat": 49.75,
      "type": "hotspot_cell",
      "score": 57.61,
      "count": 157,
      "cell_deg": 0.5,
      "sources": {
        "GDELT": 157,
        "GDELT_DOC": 0,
        "DIRECT_FEED": 0,
        "USGS": 0,
        "GDACS": 0
      },
      "last7_score": 44.031,
      "prev7_score": 13.579,
      "trend": "up",
      "trend_arrow": "🔺",
      "change_pct": 224.2,
      "place": "Vysočina Region, Czechia"
    }
  ]
}