{
  "generated_utc": "2026-06-25T08:55:00Z",
  "top": [
    {
      "lon": 14.25,
      "lat": 50.25,
      "type": "hotspot_cell",
      "score": 719.488,
      "count": 1032,
      "cell_deg": 0.5,
      "sources": {
        "GDELT": 119,
        "GDELT_DOC": 897,
        "DIRECT_FEED": 16,
        "USGS": 0,
        "GDACS": 0
      },
      "last7_score": 711.182,
      "prev7_score": 8.306,
      "trend": "up",
      "trend_arrow": "🔺",
      "change_pct": 8462.3,
      "place": "SO ORP Kralupy nad Vltavou, Czechia"
    },
    {
      "lon": 26.25,
      "lat": 44.25,
      "type": "hotspot_cell",
      "score": 569.534,
      "count": 938,
      "cell_deg": 0.5,
      "sources": {
        "GDELT": 133,
        "GDELT_DOC": 797,
        "DIRECT_FEED": 8,
        "USGS": 0,
        "GDACS": 0
      },
      "last7_score": 558.587,
      "prev7_score": 10.947,
      "trend": "up",
      "trend_arrow": "🔺",
      "change_pct": 5002.6,
      "place": "Giurgiu, Romania"
    },
    {
      "lon": 25.25,
      "lat": 54.75,
      "type": "hotspot_cell",
      "score": 358.428,
      "count": 658,
      "cell_deg": 0.5,
      "sources": {
        "GDELT": 56,
        "GDELT_DOC": 602,
        "DIRECT_FEED": 0,
        "USGS": 0,
        "GDACS": 0
      },
      "last7_score": 353.726,
      "prev7_score": 4.701,
      "trend": "up",
      "trend_arrow": "🔺",
      "change_pct": 7423.7,
      "place": "Vilnius County, Lithuania"
    },
    {
      "lon": 19.25,
      "lat": 47.75,
      "type": "hotspot_cell",
      "score": 187.438,
      "count": 350,
      "cell_deg": 0.5,
      "sources": {
        "GDELT": 185,
        "GDELT_DOC": 0,
        "DIRECT_FEED": 165,
        "USGS": 0,
        "GDACS": 0
      },
      "last7_score": 174.072,
      "prev7_score": 13.366,
      "trend": "up",
      "trend_arrow": "🔺",
      "change_pct": 1202.4,
      "place": "Pest, Hungary"
    },
    {
      "lon": 20.25,
      "lat": 52.25,
      "type": "hotspot_cell",
      "score": 183.898,
      "count": 466,
      "cell_deg": 0.5,
      "sources": {
        "GDELT": 466,
        "GDELT_DOC": 0,
        "DIRECT_FEED": 0,
        "USGS": 0,
        "GDACS": 0
      },
      "last7_score": 147.526,
      "prev7_score": 36.371,
      "trend": "up",
      "trend_arrow": "🔺",
      "change_pct": 305.6,
      "place": "Sochaczew County, Poland"
    },
    {
      "lon": 21.25,
      "lat": 52.25,
      "type": "hotspot_cell",
      "score": 137.376,
      "count": 315,
      "cell_deg": 0.5,
      "sources": {
        "GDELT": 315,
        "GDELT_DOC": 0,
        "DIRECT_FEED": 0,
        "USGS": 0,
        "GDACS": 0
      },
      "last7_score": 117.438,
      "prev7_score": 19.938,
      "trend": "up",
      "trend_arrow": "🔺",
      "change_pct": 489.0,
      "place": "Warsaw, Poland"
    },
    {
      "lon": 25.25,
      "lat": 46.25,
      "type": "hotspot_cell",
      "score": 132.736,
      "count": 378,
      "cell_deg": 0.5,
      "sources": {
        "GDELT": 378,
        "GDELT_DOC": 0,
        "DIRECT_FEED": 0,
        "USGS": 0,
        "GDACS": 0
      },
      "last7_score": 99.962,
      "prev7_score": 32.773,
      "trend": "up",
      "trend_arrow": "🔺",
      "change_pct": 205.0,
      "place": "Harghita, Romania"
    },
    {
      "lon": 24.25,
      "lat": 56.75,
      "type": "hotspot_cell",
      "score": 117.799,
      "count": 172,
      "cell_deg": 0.5,
      "sources": {
        "GDELT": 32,
        "GDELT_DOC": 0,
        "DIRECT_FEED": 140,
        "USGS": 0,
        "GDACS": 0
      },
      "last7_score": 115.51,
      "prev7_score": 2.29,
      "trend": "up",
      "trend_arrow": "🔺",
      "change_pct": 4945.2,
      "place": "Ķekavas novads, Latvia"
    },
    {
      "lon": 20.25,
      "lat": 47.25,
      "type": "hotspot_cell",
      "score": 87.665,
      "count": 240,
      "cell_deg": 0.5,
      "sources": {
        "GDELT": 239,
        "GDELT_DOC": 0,
        "DIRECT_FEED": 0,
        "USGS": 0,
        "GDACS": 1
      },
      "last7_score": 67.214,
      "prev7_score": 20.451,
      "trend": "up",
      "trend_arrow": "🔺",
      "change_pct": 228.7,
      "place": "Jász-Nagykun-Szolnok, Hungary"
    },
    {
      "lon": 15.25,
      "lat": 49.75,
      "type": "hotspot_cell",
      "score": 50.542,
      "count": 140,
      "cell_deg": 0.5,
      "sources": {
        "GDELT": 140,
        "GDELT_DOC": 0,
        "DIRECT_FEED": 0,
        "USGS": 0,
        "GDACS": 0
      },
      "last7_score": 40.241,
      "prev7_score": 10.301,
      "trend": "up",
      "trend_arrow": "🔺",
      "change_pct": 290.7,
      "place": "Vysočina Region, Czechia"
    }
  ]
}