{
  "generated_utc": "2026-06-07T02:48:01Z",
  "top": [
    {
      "lon": 26.25,
      "lat": 44.25,
      "type": "hotspot_cell",
      "score": 737.71,
      "count": 1196,
      "cell_deg": 0.5,
      "sources": {
        "GDELT": 249,
        "GDELT_DOC": 940,
        "DIRECT_FEED": 7,
        "USGS": 0,
        "GDACS": 0
      },
      "last7_score": 710.933,
      "prev7_score": 26.776,
      "trend": "up",
      "trend_arrow": "🔺",
      "change_pct": 2555.1,
      "place": "Giurgiu, Romania"
    },
    {
      "lon": 25.25,
      "lat": 54.75,
      "type": "hotspot_cell",
      "score": 606.067,
      "count": 1016,
      "cell_deg": 0.5,
      "sources": {
        "GDELT": 83,
        "GDELT_DOC": 930,
        "DIRECT_FEED": 3,
        "USGS": 0,
        "GDACS": 0
      },
      "last7_score": 601.651,
      "prev7_score": 4.416,
      "trend": "up",
      "trend_arrow": "🔺",
      "change_pct": 13525.4,
      "place": "Vilnius County, Lithuania"
    },
    {
      "lon": 14.25,
      "lat": 50.25,
      "type": "hotspot_cell",
      "score": 530.689,
      "count": 979,
      "cell_deg": 0.5,
      "sources": {
        "GDELT": 122,
        "GDELT_DOC": 853,
        "DIRECT_FEED": 4,
        "USGS": 0,
        "GDACS": 0
      },
      "last7_score": 521.377,
      "prev7_score": 9.313,
      "trend": "up",
      "trend_arrow": "🔺",
      "change_pct": 5498.6,
      "place": "SO ORP Kralupy nad Vltavou, Czechia"
    },
    {
      "lon": 19.25,
      "lat": 47.75,
      "type": "hotspot_cell",
      "score": 211.293,
      "count": 436,
      "cell_deg": 0.5,
      "sources": {
        "GDELT": 255,
        "GDELT_DOC": 0,
        "DIRECT_FEED": 181,
        "USGS": 0,
        "GDACS": 0
      },
      "last7_score": 192.784,
      "prev7_score": 18.509,
      "trend": "up",
      "trend_arrow": "🔺",
      "change_pct": 941.6,
      "place": "Pest, Hungary"
    },
    {
      "lon": 20.25,
      "lat": 52.25,
      "type": "hotspot_cell",
      "score": 189.853,
      "count": 548,
      "cell_deg": 0.5,
      "sources": {
        "GDELT": 548,
        "GDELT_DOC": 0,
        "DIRECT_FEED": 0,
        "USGS": 0,
        "GDACS": 0
      },
      "last7_score": 149.654,
      "prev7_score": 40.199,
      "trend": "up",
      "trend_arrow": "🔺",
      "change_pct": 272.3,
      "place": "Sochaczew County, Poland"
    },
    {
      "lon": 25.25,
      "lat": 46.25,
      "type": "hotspot_cell",
      "score": 187.987,
      "count": 502,
      "cell_deg": 0.5,
      "sources": {
        "GDELT": 502,
        "GDELT_DOC": 0,
        "DIRECT_FEED": 0,
        "USGS": 0,
        "GDACS": 0
      },
      "last7_score": 146.868,
      "prev7_score": 41.12,
      "trend": "up",
      "trend_arrow": "🔺",
      "change_pct": 257.2,
      "place": "Harghita, Romania"
    },
    {
      "lon": 24.25,
      "lat": 56.75,
      "type": "hotspot_cell",
      "score": 114.06,
      "count": 197,
      "cell_deg": 0.5,
      "sources": {
        "GDELT": 51,
        "GDELT_DOC": 0,
        "DIRECT_FEED": 146,
        "USGS": 0,
        "GDACS": 0
      },
      "last7_score": 110.382,
      "prev7_score": 3.678,
      "trend": "up",
      "trend_arrow": "🔺",
      "change_pct": 2900.9,
      "place": "Ķekavas novads, Latvia"
    },
    {
      "lon": 20.25,
      "lat": 47.25,
      "type": "hotspot_cell",
      "score": 91.842,
      "count": 256,
      "cell_deg": 0.5,
      "sources": {
        "GDELT": 256,
        "GDELT_DOC": 0,
        "DIRECT_FEED": 0,
        "USGS": 0,
        "GDACS": 0
      },
      "last7_score": 72.862,
      "prev7_score": 18.98,
      "trend": "up",
      "trend_arrow": "🔺",
      "change_pct": 283.9,
      "place": "Jász-Nagykun-Szolnok, Hungary"
    },
    {
      "lon": 21.25,
      "lat": 52.25,
      "type": "hotspot_cell",
      "score": 74.186,
      "count": 215,
      "cell_deg": 0.5,
      "sources": {
        "GDELT": 215,
        "GDELT_DOC": 0,
        "DIRECT_FEED": 0,
        "USGS": 0,
        "GDACS": 0
      },
      "last7_score": 56.766,
      "prev7_score": 17.42,
      "trend": "up",
      "trend_arrow": "🔺",
      "change_pct": 225.9,
      "place": "Warsaw, Poland"
    },
    {
      "lon": 15.25,
      "lat": 49.75,
      "type": "hotspot_cell",
      "score": 51.415,
      "count": 155,
      "cell_deg": 0.5,
      "sources": {
        "GDELT": 155,
        "GDELT_DOC": 0,
        "DIRECT_FEED": 0,
        "USGS": 0,
        "GDACS": 0
      },
      "last7_score": 40.112,
      "prev7_score": 11.303,
      "trend": "up",
      "trend_arrow": "🔺",
      "change_pct": 254.9,
      "place": "Vysočina Region, Czechia"
    }
  ]
}