{
  "generated_utc": "2026-03-11T13:07:48Z",
  "top": [
    {
      "lon": 26.25,
      "lat": 44.25,
      "type": "hotspot_cell",
      "score": 691.816,
      "count": 1035,
      "cell_deg": 0.5,
      "sources": {
        "GDELT": 173,
        "GDELT_DOC": 861,
        "DIRECT_FEED": 1,
        "USGS": 0,
        "GDACS": 0
      },
      "last7_score": 676.035,
      "prev7_score": 15.781,
      "trend": "up",
      "trend_arrow": "🔺",
      "change_pct": 4183.8,
      "place": "Giurgiu, Romania"
    },
    {
      "lon": 14.25,
      "lat": 50.25,
      "type": "hotspot_cell",
      "score": 512.361,
      "count": 886,
      "cell_deg": 0.5,
      "sources": {
        "GDELT": 140,
        "GDELT_DOC": 745,
        "DIRECT_FEED": 1,
        "USGS": 0,
        "GDACS": 0
      },
      "last7_score": 501.193,
      "prev7_score": 11.168,
      "trend": "up",
      "trend_arrow": "🔺",
      "change_pct": 4387.8,
      "place": "SO ORP Kralupy nad Vltavou, Czechia"
    },
    {
      "lon": 25.25,
      "lat": 54.75,
      "type": "hotspot_cell",
      "score": 469.685,
      "count": 666,
      "cell_deg": 0.5,
      "sources": {
        "GDELT": 70,
        "GDELT_DOC": 596,
        "DIRECT_FEED": 0,
        "USGS": 0,
        "GDACS": 0
      },
      "last7_score": 464.844,
      "prev7_score": 4.842,
      "trend": "up",
      "trend_arrow": "🔺",
      "change_pct": 9500.7,
      "place": "Vilnius County, Lithuania"
    },
    {
      "lon": 19.25,
      "lat": 47.75,
      "type": "hotspot_cell",
      "score": 263.632,
      "count": 522,
      "cell_deg": 0.5,
      "sources": {
        "GDELT": 392,
        "GDELT_DOC": 0,
        "DIRECT_FEED": 130,
        "USGS": 0,
        "GDACS": 0
      },
      "last7_score": 242.575,
      "prev7_score": 21.058,
      "trend": "up",
      "trend_arrow": "🔺",
      "change_pct": 1052.0,
      "place": "Pest, Hungary"
    },
    {
      "lon": 20.25,
      "lat": 52.25,
      "type": "hotspot_cell",
      "score": 157.181,
      "count": 495,
      "cell_deg": 0.5,
      "sources": {
        "GDELT": 495,
        "GDELT_DOC": 0,
        "DIRECT_FEED": 0,
        "USGS": 0,
        "GDACS": 0
      },
      "last7_score": 120.265,
      "prev7_score": 36.916,
      "trend": "up",
      "trend_arrow": "🔺",
      "change_pct": 225.8,
      "place": "Sochaczew County, Poland"
    },
    {
      "lon": 20.25,
      "lat": 47.25,
      "type": "hotspot_cell",
      "score": 122.865,
      "count": 324,
      "cell_deg": 0.5,
      "sources": {
        "GDELT": 324,
        "GDELT_DOC": 0,
        "DIRECT_FEED": 0,
        "USGS": 0,
        "GDACS": 0
      },
      "last7_score": 99.925,
      "prev7_score": 22.94,
      "trend": "up",
      "trend_arrow": "🔺",
      "change_pct": 335.6,
      "place": "Jász-Nagykun-Szolnok, Hungary"
    },
    {
      "lon": 24.25,
      "lat": 56.75,
      "type": "hotspot_cell",
      "score": 118.751,
      "count": 142,
      "cell_deg": 0.5,
      "sources": {
        "GDELT": 24,
        "GDELT_DOC": 0,
        "DIRECT_FEED": 118,
        "USGS": 0,
        "GDACS": 0
      },
      "last7_score": 117.429,
      "prev7_score": 1.322,
      "trend": "up",
      "trend_arrow": "🔺",
      "change_pct": 8784.1,
      "place": "Ķekavas novads, Latvia"
    },
    {
      "lon": 25.25,
      "lat": 46.25,
      "type": "hotspot_cell",
      "score": 117.475,
      "count": 308,
      "cell_deg": 0.5,
      "sources": {
        "GDELT": 308,
        "GDELT_DOC": 0,
        "DIRECT_FEED": 0,
        "USGS": 0,
        "GDACS": 0
      },
      "last7_score": 95.819,
      "prev7_score": 21.655,
      "trend": "up",
      "trend_arrow": "🔺",
      "change_pct": 342.5,
      "place": "Harghita, Romania"
    },
    {
      "lon": 21.25,
      "lat": 52.25,
      "type": "hotspot_cell",
      "score": 66.343,
      "count": 227,
      "cell_deg": 0.5,
      "sources": {
        "GDELT": 227,
        "GDELT_DOC": 0,
        "DIRECT_FEED": 0,
        "USGS": 0,
        "GDACS": 0
      },
      "last7_score": 48.667,
      "prev7_score": 17.675,
      "trend": "up",
      "trend_arrow": "🔺",
      "change_pct": 175.3,
      "place": "Warsaw, Poland"
    },
    {
      "lon": 15.25,
      "lat": 49.75,
      "type": "hotspot_cell",
      "score": 61.56,
      "count": 167,
      "cell_deg": 0.5,
      "sources": {
        "GDELT": 167,
        "GDELT_DOC": 0,
        "DIRECT_FEED": 0,
        "USGS": 0,
        "GDACS": 0
      },
      "last7_score": 50.498,
      "prev7_score": 11.062,
      "trend": "up",
      "trend_arrow": "🔺",
      "change_pct": 356.5,
      "place": "Vysočina Region, Czechia"
    }
  ]
}