{
  "generated_utc": "2026-05-21T09:50:07Z",
  "top": [
    {
      "lon": 26.25,
      "lat": 44.25,
      "type": "hotspot_cell",
      "score": 918.607,
      "count": 1508,
      "cell_deg": 0.5,
      "sources": {
        "GDELT": 188,
        "GDELT_DOC": 1316,
        "DIRECT_FEED": 4,
        "USGS": 0,
        "GDACS": 0
      },
      "last7_score": 894.573,
      "prev7_score": 24.034,
      "trend": "up",
      "trend_arrow": "🔺",
      "change_pct": 3622.1,
      "place": "Giurgiu, Romania"
    },
    {
      "lon": 14.25,
      "lat": 50.25,
      "type": "hotspot_cell",
      "score": 905.744,
      "count": 1516,
      "cell_deg": 0.5,
      "sources": {
        "GDELT": 109,
        "GDELT_DOC": 1399,
        "DIRECT_FEED": 8,
        "USGS": 0,
        "GDACS": 0
      },
      "last7_score": 897.1,
      "prev7_score": 8.644,
      "trend": "up",
      "trend_arrow": "🔺",
      "change_pct": 10278.8,
      "place": "SO ORP Kralupy nad Vltavou, Czechia"
    },
    {
      "lon": 25.25,
      "lat": 54.75,
      "type": "hotspot_cell",
      "score": 737.659,
      "count": 1149,
      "cell_deg": 0.5,
      "sources": {
        "GDELT": 96,
        "GDELT_DOC": 1052,
        "DIRECT_FEED": 1,
        "USGS": 0,
        "GDACS": 0
      },
      "last7_score": 731.1,
      "prev7_score": 6.559,
      "trend": "up",
      "trend_arrow": "🔺",
      "change_pct": 11046.2,
      "place": "Vilnius County, Lithuania"
    },
    {
      "lon": 20.25,
      "lat": 52.25,
      "type": "hotspot_cell",
      "score": 260.589,
      "count": 590,
      "cell_deg": 0.5,
      "sources": {
        "GDELT": 590,
        "GDELT_DOC": 0,
        "DIRECT_FEED": 0,
        "USGS": 0,
        "GDACS": 0
      },
      "last7_score": 222.066,
      "prev7_score": 38.523,
      "trend": "up",
      "trend_arrow": "🔺",
      "change_pct": 476.5,
      "place": "Sochaczew County, Poland"
    },
    {
      "lon": 19.25,
      "lat": 47.75,
      "type": "hotspot_cell",
      "score": 254.685,
      "count": 516,
      "cell_deg": 0.5,
      "sources": {
        "GDELT": 286,
        "GDELT_DOC": 0,
        "DIRECT_FEED": 230,
        "USGS": 0,
        "GDACS": 0
      },
      "last7_score": 228.513,
      "prev7_score": 26.172,
      "trend": "up",
      "trend_arrow": "🔺",
      "change_pct": 773.1,
      "place": "Pest, Hungary"
    },
    {
      "lon": 25.25,
      "lat": 46.25,
      "type": "hotspot_cell",
      "score": 124.483,
      "count": 285,
      "cell_deg": 0.5,
      "sources": {
        "GDELT": 285,
        "GDELT_DOC": 0,
        "DIRECT_FEED": 0,
        "USGS": 0,
        "GDACS": 0
      },
      "last7_score": 103.512,
      "prev7_score": 20.971,
      "trend": "up",
      "trend_arrow": "🔺",
      "change_pct": 393.6,
      "place": "Harghita, Romania"
    },
    {
      "lon": 24.25,
      "lat": 56.75,
      "type": "hotspot_cell",
      "score": 113.052,
      "count": 171,
      "cell_deg": 0.5,
      "sources": {
        "GDELT": 42,
        "GDELT_DOC": 0,
        "DIRECT_FEED": 129,
        "USGS": 0,
        "GDACS": 0
      },
      "last7_score": 110.063,
      "prev7_score": 2.989,
      "trend": "up",
      "trend_arrow": "🔺",
      "change_pct": 3582.5,
      "place": "Ķekavas novads, Latvia"
    },
    {
      "lon": 20.25,
      "lat": 47.25,
      "type": "hotspot_cell",
      "score": 102.526,
      "count": 286,
      "cell_deg": 0.5,
      "sources": {
        "GDELT": 286,
        "GDELT_DOC": 0,
        "DIRECT_FEED": 0,
        "USGS": 0,
        "GDACS": 0
      },
      "last7_score": 77.29,
      "prev7_score": 25.236,
      "trend": "up",
      "trend_arrow": "🔺",
      "change_pct": 206.3,
      "place": "Jász-Nagykun-Szolnok, Hungary"
    },
    {
      "lon": 21.25,
      "lat": 52.25,
      "type": "hotspot_cell",
      "score": 95.882,
      "count": 236,
      "cell_deg": 0.5,
      "sources": {
        "GDELT": 236,
        "GDELT_DOC": 0,
        "DIRECT_FEED": 0,
        "USGS": 0,
        "GDACS": 0
      },
      "last7_score": 80.369,
      "prev7_score": 15.513,
      "trend": "up",
      "trend_arrow": "🔺",
      "change_pct": 418.1,
      "place": "Warsaw, Poland"
    },
    {
      "lon": 25.25,
      "lat": 57.25,
      "type": "hotspot_cell",
      "score": 69.098,
      "count": 189,
      "cell_deg": 0.5,
      "sources": {
        "GDELT": 189,
        "GDELT_DOC": 0,
        "DIRECT_FEED": 0,
        "USGS": 0,
        "GDACS": 0
      },
      "last7_score": 47.542,
      "prev7_score": 21.556,
      "trend": "up",
      "trend_arrow": "🔺",
      "change_pct": 120.6,
      "place": "Cēsu novads, Latvia"
    }
  ]
}