{
  "generated_utc": "2026-05-18T10:11:35Z",
  "top": [
    {
      "lon": 26.25,
      "lat": 44.25,
      "type": "hotspot_cell",
      "score": 860.215,
      "count": 1453,
      "cell_deg": 0.5,
      "sources": {
        "GDELT": 224,
        "GDELT_DOC": 1225,
        "DIRECT_FEED": 4,
        "USGS": 0,
        "GDACS": 0
      },
      "last7_score": 848.666,
      "prev7_score": 11.549,
      "trend": "up",
      "trend_arrow": "🔺",
      "change_pct": 7248.3,
      "place": "Giurgiu, Romania"
    },
    {
      "lon": 14.25,
      "lat": 50.25,
      "type": "hotspot_cell",
      "score": 852.499,
      "count": 1557,
      "cell_deg": 0.5,
      "sources": {
        "GDELT": 113,
        "GDELT_DOC": 1439,
        "DIRECT_FEED": 5,
        "USGS": 0,
        "GDACS": 0
      },
      "last7_score": 845.166,
      "prev7_score": 7.334,
      "trend": "up",
      "trend_arrow": "🔺",
      "change_pct": 11424.4,
      "place": "SO ORP Kralupy nad Vltavou, Czechia"
    },
    {
      "lon": 25.25,
      "lat": 54.75,
      "type": "hotspot_cell",
      "score": 622.499,
      "count": 1040,
      "cell_deg": 0.5,
      "sources": {
        "GDELT": 69,
        "GDELT_DOC": 971,
        "DIRECT_FEED": 0,
        "USGS": 0,
        "GDACS": 0
      },
      "last7_score": 618.24,
      "prev7_score": 4.258,
      "trend": "up",
      "trend_arrow": "🔺",
      "change_pct": 14418.3,
      "place": "Vilnius County, Lithuania"
    },
    {
      "lon": 19.25,
      "lat": 47.75,
      "type": "hotspot_cell",
      "score": 223.792,
      "count": 524,
      "cell_deg": 0.5,
      "sources": {
        "GDELT": 296,
        "GDELT_DOC": 0,
        "DIRECT_FEED": 228,
        "USGS": 0,
        "GDACS": 0
      },
      "last7_score": 198.731,
      "prev7_score": 25.061,
      "trend": "up",
      "trend_arrow": "🔺",
      "change_pct": 693.0,
      "place": "Pest, Hungary"
    },
    {
      "lon": 20.25,
      "lat": 52.25,
      "type": "hotspot_cell",
      "score": 208.285,
      "count": 576,
      "cell_deg": 0.5,
      "sources": {
        "GDELT": 576,
        "GDELT_DOC": 0,
        "DIRECT_FEED": 0,
        "USGS": 0,
        "GDACS": 0
      },
      "last7_score": 172.795,
      "prev7_score": 35.49,
      "trend": "up",
      "trend_arrow": "🔺",
      "change_pct": 386.9,
      "place": "Sochaczew County, Poland"
    },
    {
      "lon": 24.25,
      "lat": 56.75,
      "type": "hotspot_cell",
      "score": 111.0,
      "count": 191,
      "cell_deg": 0.5,
      "sources": {
        "GDELT": 40,
        "GDELT_DOC": 0,
        "DIRECT_FEED": 151,
        "USGS": 0,
        "GDACS": 0
      },
      "last7_score": 109.433,
      "prev7_score": 1.567,
      "trend": "up",
      "trend_arrow": "🔺",
      "change_pct": 6881.6,
      "place": "Ķekavas novads, Latvia"
    },
    {
      "lon": 20.25,
      "lat": 47.25,
      "type": "hotspot_cell",
      "score": 87.998,
      "count": 276,
      "cell_deg": 0.5,
      "sources": {
        "GDELT": 276,
        "GDELT_DOC": 0,
        "DIRECT_FEED": 0,
        "USGS": 0,
        "GDACS": 0
      },
      "last7_score": 64.852,
      "prev7_score": 23.146,
      "trend": "up",
      "trend_arrow": "🔺",
      "change_pct": 180.2,
      "place": "Jász-Nagykun-Szolnok, Hungary"
    },
    {
      "lon": 25.25,
      "lat": 46.25,
      "type": "hotspot_cell",
      "score": 84.251,
      "count": 279,
      "cell_deg": 0.5,
      "sources": {
        "GDELT": 279,
        "GDELT_DOC": 0,
        "DIRECT_FEED": 0,
        "USGS": 0,
        "GDACS": 0
      },
      "last7_score": 66.961,
      "prev7_score": 17.29,
      "trend": "up",
      "trend_arrow": "🔺",
      "change_pct": 287.3,
      "place": "Harghita, Romania"
    },
    {
      "lon": 25.25,
      "lat": 57.25,
      "type": "hotspot_cell",
      "score": 78.751,
      "count": 178,
      "cell_deg": 0.5,
      "sources": {
        "GDELT": 178,
        "GDELT_DOC": 0,
        "DIRECT_FEED": 0,
        "USGS": 0,
        "GDACS": 0
      },
      "last7_score": 67.707,
      "prev7_score": 11.044,
      "trend": "up",
      "trend_arrow": "🔺",
      "change_pct": 513.1,
      "place": "Cēsu novads, Latvia"
    },
    {
      "lon": 21.25,
      "lat": 52.25,
      "type": "hotspot_cell",
      "score": 72.76,
      "count": 208,
      "cell_deg": 0.5,
      "sources": {
        "GDELT": 208,
        "GDELT_DOC": 0,
        "DIRECT_FEED": 0,
        "USGS": 0,
        "GDACS": 0
      },
      "last7_score": 59.078,
      "prev7_score": 13.682,
      "trend": "up",
      "trend_arrow": "🔺",
      "change_pct": 331.8,
      "place": "Warsaw, Poland"
    }
  ]
}