{
  "generated_utc": "2026-03-15T12:59:02Z",
  "top": [
    {
      "lon": 14.25,
      "lat": 50.25,
      "type": "hotspot_cell",
      "score": 765.316,
      "count": 1265,
      "cell_deg": 0.5,
      "sources": {
        "GDELT": 140,
        "GDELT_DOC": 1119,
        "DIRECT_FEED": 6,
        "USGS": 0,
        "GDACS": 0
      },
      "last7_score": 755.244,
      "prev7_score": 10.072,
      "trend": "up",
      "trend_arrow": "🔺",
      "change_pct": 7398.8,
      "place": "SO ORP Kralupy nad Vltavou, Czechia"
    },
    {
      "lon": 26.25,
      "lat": 44.25,
      "type": "hotspot_cell",
      "score": 745.074,
      "count": 1341,
      "cell_deg": 0.5,
      "sources": {
        "GDELT": 204,
        "GDELT_DOC": 1133,
        "DIRECT_FEED": 4,
        "USGS": 0,
        "GDACS": 0
      },
      "last7_score": 735.481,
      "prev7_score": 9.592,
      "trend": "up",
      "trend_arrow": "🔺",
      "change_pct": 7567.5,
      "place": "Giurgiu, Romania"
    },
    {
      "lon": 25.25,
      "lat": 54.75,
      "type": "hotspot_cell",
      "score": 536.908,
      "count": 901,
      "cell_deg": 0.5,
      "sources": {
        "GDELT": 74,
        "GDELT_DOC": 827,
        "DIRECT_FEED": 0,
        "USGS": 0,
        "GDACS": 0
      },
      "last7_score": 533.125,
      "prev7_score": 3.783,
      "trend": "up",
      "trend_arrow": "🔺",
      "change_pct": 13993.7,
      "place": "Vilnius County, Lithuania"
    },
    {
      "lon": 19.25,
      "lat": 47.75,
      "type": "hotspot_cell",
      "score": 251.561,
      "count": 592,
      "cell_deg": 0.5,
      "sources": {
        "GDELT": 413,
        "GDELT_DOC": 0,
        "DIRECT_FEED": 179,
        "USGS": 0,
        "GDACS": 0
      },
      "last7_score": 218.698,
      "prev7_score": 32.862,
      "trend": "up",
      "trend_arrow": "🔺",
      "change_pct": 565.5,
      "place": "Pest, Hungary"
    },
    {
      "lon": 20.25,
      "lat": 52.25,
      "type": "hotspot_cell",
      "score": 140.446,
      "count": 450,
      "cell_deg": 0.5,
      "sources": {
        "GDELT": 450,
        "GDELT_DOC": 0,
        "DIRECT_FEED": 0,
        "USGS": 0,
        "GDACS": 0
      },
      "last7_score": 108.96,
      "prev7_score": 31.486,
      "trend": "up",
      "trend_arrow": "🔺",
      "change_pct": 246.1,
      "place": "Sochaczew County, Poland"
    },
    {
      "lon": 20.25,
      "lat": 47.25,
      "type": "hotspot_cell",
      "score": 132.049,
      "count": 357,
      "cell_deg": 0.5,
      "sources": {
        "GDELT": 357,
        "GDELT_DOC": 0,
        "DIRECT_FEED": 0,
        "USGS": 0,
        "GDACS": 0
      },
      "last7_score": 109.898,
      "prev7_score": 22.151,
      "trend": "up",
      "trend_arrow": "🔺",
      "change_pct": 396.1,
      "place": "Jász-Nagykun-Szolnok, Hungary"
    },
    {
      "lon": 24.25,
      "lat": 56.75,
      "type": "hotspot_cell",
      "score": 117.107,
      "count": 193,
      "cell_deg": 0.5,
      "sources": {
        "GDELT": 31,
        "GDELT_DOC": 0,
        "DIRECT_FEED": 162,
        "USGS": 0,
        "GDACS": 0
      },
      "last7_score": 115.334,
      "prev7_score": 1.773,
      "trend": "up",
      "trend_arrow": "🔺",
      "change_pct": 6405.0,
      "place": "Ķekavas novads, Latvia"
    },
    {
      "lon": 25.25,
      "lat": 46.25,
      "type": "hotspot_cell",
      "score": 103.152,
      "count": 318,
      "cell_deg": 0.5,
      "sources": {
        "GDELT": 318,
        "GDELT_DOC": 0,
        "DIRECT_FEED": 0,
        "USGS": 0,
        "GDACS": 0
      },
      "last7_score": 86.996,
      "prev7_score": 16.155,
      "trend": "up",
      "trend_arrow": "🔺",
      "change_pct": 438.5,
      "place": "Harghita, Romania"
    },
    {
      "lon": 21.25,
      "lat": 52.25,
      "type": "hotspot_cell",
      "score": 76.541,
      "count": 224,
      "cell_deg": 0.5,
      "sources": {
        "GDELT": 224,
        "GDELT_DOC": 0,
        "DIRECT_FEED": 0,
        "USGS": 0,
        "GDACS": 0
      },
      "last7_score": 61.901,
      "prev7_score": 14.64,
      "trend": "up",
      "trend_arrow": "🔺",
      "change_pct": 322.8,
      "place": "Warsaw, Poland"
    },
    {
      "lon": 27.75,
      "lat": 47.25,
      "type": "hotspot_cell",
      "score": 54.107,
      "count": 83,
      "cell_deg": 0.5,
      "sources": {
        "GDELT": 0,
        "GDELT_DOC": 83,
        "DIRECT_FEED": 0,
        "USGS": 0,
        "GDACS": 0
      },
      "last7_score": 54.107,
      "prev7_score": 0.0,
      "trend": "new",
      "trend_arrow": "🆕",
      "change_pct": null,
      "place": "Iași, Romania"
    }
  ]
}