{
  "generated_utc": "2026-04-13T13:31:52Z",
  "top": [
    {
      "lon": 26.25,
      "lat": 44.25,
      "type": "hotspot_cell",
      "score": 875.838,
      "count": 1527,
      "cell_deg": 0.5,
      "sources": {
        "GDELT": 143,
        "GDELT_DOC": 1379,
        "DIRECT_FEED": 5,
        "USGS": 0,
        "GDACS": 0
      },
      "last7_score": 864.384,
      "prev7_score": 11.454,
      "trend": "up",
      "trend_arrow": "🔺",
      "change_pct": 7446.9,
      "place": "Giurgiu, Romania"
    },
    {
      "lon": 19.25,
      "lat": 47.75,
      "type": "hotspot_cell",
      "score": 755.205,
      "count": 1184,
      "cell_deg": 0.5,
      "sources": {
        "GDELT": 875,
        "GDELT_DOC": 0,
        "DIRECT_FEED": 309,
        "USGS": 0,
        "GDACS": 0
      },
      "last7_score": 735.882,
      "prev7_score": 19.323,
      "trend": "up",
      "trend_arrow": "🔺",
      "change_pct": 3708.3,
      "place": "Pest, Hungary"
    },
    {
      "lon": 14.25,
      "lat": 50.25,
      "type": "hotspot_cell",
      "score": 638.081,
      "count": 1149,
      "cell_deg": 0.5,
      "sources": {
        "GDELT": 81,
        "GDELT_DOC": 1068,
        "DIRECT_FEED": 0,
        "USGS": 0,
        "GDACS": 0
      },
      "last7_score": 632.421,
      "prev7_score": 5.66,
      "trend": "up",
      "trend_arrow": "🔺",
      "change_pct": 11072.7,
      "place": "SO ORP Kralupy nad Vltavou, Czechia"
    },
    {
      "lon": 25.25,
      "lat": 54.75,
      "type": "hotspot_cell",
      "score": 506.075,
      "count": 915,
      "cell_deg": 0.5,
      "sources": {
        "GDELT": 72,
        "GDELT_DOC": 841,
        "DIRECT_FEED": 2,
        "USGS": 0,
        "GDACS": 0
      },
      "last7_score": 502.136,
      "prev7_score": 3.939,
      "trend": "up",
      "trend_arrow": "🔺",
      "change_pct": 12647.3,
      "place": "Vilnius County, Lithuania"
    },
    {
      "lon": 20.25,
      "lat": 47.25,
      "type": "hotspot_cell",
      "score": 311.242,
      "count": 578,
      "cell_deg": 0.5,
      "sources": {
        "GDELT": 578,
        "GDELT_DOC": 0,
        "DIRECT_FEED": 0,
        "USGS": 0,
        "GDACS": 0
      },
      "last7_score": 287.659,
      "prev7_score": 23.584,
      "trend": "up",
      "trend_arrow": "🔺",
      "change_pct": 1119.7,
      "place": "Jász-Nagykun-Szolnok, Hungary"
    },
    {
      "lon": 20.25,
      "lat": 52.25,
      "type": "hotspot_cell",
      "score": 141.898,
      "count": 406,
      "cell_deg": 0.5,
      "sources": {
        "GDELT": 406,
        "GDELT_DOC": 0,
        "DIRECT_FEED": 0,
        "USGS": 0,
        "GDACS": 0
      },
      "last7_score": 119.628,
      "prev7_score": 22.269,
      "trend": "up",
      "trend_arrow": "🔺",
      "change_pct": 437.2,
      "place": "Sochaczew County, Poland"
    },
    {
      "lon": 24.25,
      "lat": 56.75,
      "type": "hotspot_cell",
      "score": 99.229,
      "count": 156,
      "cell_deg": 0.5,
      "sources": {
        "GDELT": 23,
        "GDELT_DOC": 0,
        "DIRECT_FEED": 133,
        "USGS": 0,
        "GDACS": 0
      },
      "last7_score": 98.482,
      "prev7_score": 0.747,
      "trend": "up",
      "trend_arrow": "🔺",
      "change_pct": 13086.1,
      "place": "Ķekavas novads, Latvia"
    },
    {
      "lon": 25.25,
      "lat": 46.25,
      "type": "hotspot_cell",
      "score": 62.652,
      "count": 237,
      "cell_deg": 0.5,
      "sources": {
        "GDELT": 237,
        "GDELT_DOC": 0,
        "DIRECT_FEED": 0,
        "USGS": 0,
        "GDACS": 0
      },
      "last7_score": 46.234,
      "prev7_score": 16.418,
      "trend": "up",
      "trend_arrow": "🔺",
      "change_pct": 181.6,
      "place": "Harghita, Romania"
    },
    {
      "lon": 15.25,
      "lat": 49.75,
      "type": "hotspot_cell",
      "score": 55.675,
      "count": 132,
      "cell_deg": 0.5,
      "sources": {
        "GDELT": 132,
        "GDELT_DOC": 0,
        "DIRECT_FEED": 0,
        "USGS": 0,
        "GDACS": 0
      },
      "last7_score": 48.698,
      "prev7_score": 6.977,
      "trend": "up",
      "trend_arrow": "🔺",
      "change_pct": 598.0,
      "place": "Vysočina Region, Czechia"
    },
    {
      "lon": 21.25,
      "lat": 52.25,
      "type": "hotspot_cell",
      "score": 48.525,
      "count": 127,
      "cell_deg": 0.5,
      "sources": {
        "GDELT": 127,
        "GDELT_DOC": 0,
        "DIRECT_FEED": 0,
        "USGS": 0,
        "GDACS": 0
      },
      "last7_score": 41.317,
      "prev7_score": 7.207,
      "trend": "up",
      "trend_arrow": "🔺",
      "change_pct": 473.3,
      "place": "Warsaw, Poland"
    }
  ]
}