{
  "generated_utc": "2026-05-09T02:57:33Z",
  "top": [
    {
      "lon": 14.25,
      "lat": 50.25,
      "type": "hotspot_cell",
      "score": 789.585,
      "count": 1352,
      "cell_deg": 0.5,
      "sources": {
        "GDELT": 155,
        "GDELT_DOC": 1194,
        "DIRECT_FEED": 3,
        "USGS": 0,
        "GDACS": 0
      },
      "last7_score": 776.846,
      "prev7_score": 12.74,
      "trend": "up",
      "trend_arrow": "🔺",
      "change_pct": 5997.9,
      "place": "SO ORP Kralupy nad Vltavou, Czechia"
    },
    {
      "lon": 26.25,
      "lat": 44.25,
      "type": "hotspot_cell",
      "score": 697.079,
      "count": 1185,
      "cell_deg": 0.5,
      "sources": {
        "GDELT": 154,
        "GDELT_DOC": 1022,
        "DIRECT_FEED": 9,
        "USGS": 0,
        "GDACS": 0
      },
      "last7_score": 689.029,
      "prev7_score": 8.049,
      "trend": "up",
      "trend_arrow": "🔺",
      "change_pct": 8460.0,
      "place": "Giurgiu, Romania"
    },
    {
      "lon": 25.25,
      "lat": 54.75,
      "type": "hotspot_cell",
      "score": 619.546,
      "count": 1033,
      "cell_deg": 0.5,
      "sources": {
        "GDELT": 70,
        "GDELT_DOC": 963,
        "DIRECT_FEED": 0,
        "USGS": 0,
        "GDACS": 0
      },
      "last7_score": 615.17,
      "prev7_score": 4.376,
      "trend": "up",
      "trend_arrow": "🔺",
      "change_pct": 13959.1,
      "place": "Vilnius County, Lithuania"
    },
    {
      "lon": 19.25,
      "lat": 47.75,
      "type": "hotspot_cell",
      "score": 238.942,
      "count": 409,
      "cell_deg": 0.5,
      "sources": {
        "GDELT": 224,
        "GDELT_DOC": 0,
        "DIRECT_FEED": 185,
        "USGS": 0,
        "GDACS": 0
      },
      "last7_score": 223.908,
      "prev7_score": 15.035,
      "trend": "up",
      "trend_arrow": "🔺",
      "change_pct": 1389.3,
      "place": "Pest, Hungary"
    },
    {
      "lon": 20.25,
      "lat": 52.25,
      "type": "hotspot_cell",
      "score": 207.819,
      "count": 502,
      "cell_deg": 0.5,
      "sources": {
        "GDELT": 502,
        "GDELT_DOC": 0,
        "DIRECT_FEED": 0,
        "USGS": 0,
        "GDACS": 0
      },
      "last7_score": 174.759,
      "prev7_score": 33.06,
      "trend": "up",
      "trend_arrow": "🔺",
      "change_pct": 428.6,
      "place": "Sochaczew County, Poland"
    },
    {
      "lon": 25.25,
      "lat": 46.25,
      "type": "hotspot_cell",
      "score": 125.275,
      "count": 347,
      "cell_deg": 0.5,
      "sources": {
        "GDELT": 347,
        "GDELT_DOC": 0,
        "DIRECT_FEED": 0,
        "USGS": 0,
        "GDACS": 0
      },
      "last7_score": 97.417,
      "prev7_score": 27.858,
      "trend": "up",
      "trend_arrow": "🔺",
      "change_pct": 249.7,
      "place": "Harghita, Romania"
    },
    {
      "lon": 24.25,
      "lat": 56.75,
      "type": "hotspot_cell",
      "score": 105.878,
      "count": 156,
      "cell_deg": 0.5,
      "sources": {
        "GDELT": 33,
        "GDELT_DOC": 0,
        "DIRECT_FEED": 123,
        "USGS": 0,
        "GDACS": 0
      },
      "last7_score": 104.603,
      "prev7_score": 1.275,
      "trend": "up",
      "trend_arrow": "🔺",
      "change_pct": 8103.1,
      "place": "Ķekavas novads, Latvia"
    },
    {
      "lon": 20.25,
      "lat": 47.25,
      "type": "hotspot_cell",
      "score": 102.945,
      "count": 289,
      "cell_deg": 0.5,
      "sources": {
        "GDELT": 289,
        "GDELT_DOC": 0,
        "DIRECT_FEED": 0,
        "USGS": 0,
        "GDACS": 0
      },
      "last7_score": 81.548,
      "prev7_score": 21.397,
      "trend": "up",
      "trend_arrow": "🔺",
      "change_pct": 281.1,
      "place": "Jász-Nagykun-Szolnok, Hungary"
    },
    {
      "lon": 21.25,
      "lat": 52.25,
      "type": "hotspot_cell",
      "score": 77.194,
      "count": 172,
      "cell_deg": 0.5,
      "sources": {
        "GDELT": 172,
        "GDELT_DOC": 0,
        "DIRECT_FEED": 0,
        "USGS": 0,
        "GDACS": 0
      },
      "last7_score": 66.231,
      "prev7_score": 10.963,
      "trend": "up",
      "trend_arrow": "🔺",
      "change_pct": 504.1,
      "place": "Warsaw, Poland"
    },
    {
      "lon": 27.75,
      "lat": 47.25,
      "type": "hotspot_cell",
      "score": 65.937,
      "count": 86,
      "cell_deg": 0.5,
      "sources": {
        "GDELT": 0,
        "GDELT_DOC": 86,
        "DIRECT_FEED": 0,
        "USGS": 0,
        "GDACS": 0
      },
      "last7_score": 65.937,
      "prev7_score": 0.0,
      "trend": "new",
      "trend_arrow": "🆕",
      "change_pct": null,
      "place": "Iași, Romania"
    }
  ]
}