{
  "generated_utc": "2026-03-14T02:09:11Z",
  "top": [
    {
      "lon": 26.25,
      "lat": 44.25,
      "type": "hotspot_cell",
      "score": 802.925,
      "count": 1325,
      "cell_deg": 0.5,
      "sources": {
        "GDELT": 196,
        "GDELT_DOC": 1125,
        "DIRECT_FEED": 4,
        "USGS": 0,
        "GDACS": 0
      },
      "last7_score": 790.047,
      "prev7_score": 12.878,
      "trend": "up",
      "trend_arrow": "🔺",
      "change_pct": 6035.0,
      "place": "Giurgiu, Romania"
    },
    {
      "lon": 14.25,
      "lat": 50.25,
      "type": "hotspot_cell",
      "score": 777.931,
      "count": 1251,
      "cell_deg": 0.5,
      "sources": {
        "GDELT": 135,
        "GDELT_DOC": 1110,
        "DIRECT_FEED": 6,
        "USGS": 0,
        "GDACS": 0
      },
      "last7_score": 764.85,
      "prev7_score": 13.082,
      "trend": "up",
      "trend_arrow": "🔺",
      "change_pct": 5746.7,
      "place": "SO ORP Kralupy nad Vltavou, Czechia"
    },
    {
      "lon": 25.25,
      "lat": 54.75,
      "type": "hotspot_cell",
      "score": 609.836,
      "count": 931,
      "cell_deg": 0.5,
      "sources": {
        "GDELT": 72,
        "GDELT_DOC": 859,
        "DIRECT_FEED": 0,
        "USGS": 0,
        "GDACS": 0
      },
      "last7_score": 604.802,
      "prev7_score": 5.035,
      "trend": "up",
      "trend_arrow": "🔺",
      "change_pct": 11913.1,
      "place": "Vilnius County, Lithuania"
    },
    {
      "lon": 19.25,
      "lat": 47.75,
      "type": "hotspot_cell",
      "score": 274.248,
      "count": 565,
      "cell_deg": 0.5,
      "sources": {
        "GDELT": 393,
        "GDELT_DOC": 0,
        "DIRECT_FEED": 172,
        "USGS": 0,
        "GDACS": 0
      },
      "last7_score": 235.265,
      "prev7_score": 38.983,
      "trend": "up",
      "trend_arrow": "🔺",
      "change_pct": 503.5,
      "place": "Pest, Hungary"
    },
    {
      "lon": 20.25,
      "lat": 52.25,
      "type": "hotspot_cell",
      "score": 171.311,
      "count": 454,
      "cell_deg": 0.5,
      "sources": {
        "GDELT": 454,
        "GDELT_DOC": 0,
        "DIRECT_FEED": 0,
        "USGS": 0,
        "GDACS": 0
      },
      "last7_score": 131.391,
      "prev7_score": 39.92,
      "trend": "up",
      "trend_arrow": "🔺",
      "change_pct": 229.1,
      "place": "Sochaczew County, Poland"
    },
    {
      "lon": 20.25,
      "lat": 47.25,
      "type": "hotspot_cell",
      "score": 146.049,
      "count": 344,
      "cell_deg": 0.5,
      "sources": {
        "GDELT": 344,
        "GDELT_DOC": 0,
        "DIRECT_FEED": 0,
        "USGS": 0,
        "GDACS": 0
      },
      "last7_score": 119.02,
      "prev7_score": 27.03,
      "trend": "up",
      "trend_arrow": "🔺",
      "change_pct": 340.3,
      "place": "Jász-Nagykun-Szolnok, Hungary"
    },
    {
      "lon": 24.25,
      "lat": 56.75,
      "type": "hotspot_cell",
      "score": 138.88,
      "count": 190,
      "cell_deg": 0.5,
      "sources": {
        "GDELT": 29,
        "GDELT_DOC": 0,
        "DIRECT_FEED": 161,
        "USGS": 0,
        "GDACS": 0
      },
      "last7_score": 136.751,
      "prev7_score": 2.129,
      "trend": "up",
      "trend_arrow": "🔺",
      "change_pct": 6322.7,
      "place": "Ķekavas novads, Latvia"
    },
    {
      "lon": 25.25,
      "lat": 46.25,
      "type": "hotspot_cell",
      "score": 131.908,
      "count": 317,
      "cell_deg": 0.5,
      "sources": {
        "GDELT": 317,
        "GDELT_DOC": 0,
        "DIRECT_FEED": 0,
        "USGS": 0,
        "GDACS": 0
      },
      "last7_score": 109.773,
      "prev7_score": 22.135,
      "trend": "up",
      "trend_arrow": "🔺",
      "change_pct": 395.9,
      "place": "Harghita, Romania"
    },
    {
      "lon": 21.25,
      "lat": 52.25,
      "type": "hotspot_cell",
      "score": 84.989,
      "count": 215,
      "cell_deg": 0.5,
      "sources": {
        "GDELT": 215,
        "GDELT_DOC": 0,
        "DIRECT_FEED": 0,
        "USGS": 0,
        "GDACS": 0
      },
      "last7_score": 65.73,
      "prev7_score": 19.26,
      "trend": "up",
      "trend_arrow": "🔺",
      "change_pct": 241.3,
      "place": "Warsaw, Poland"
    },
    {
      "lon": 15.25,
      "lat": 49.75,
      "type": "hotspot_cell",
      "score": 57.181,
      "count": 163,
      "cell_deg": 0.5,
      "sources": {
        "GDELT": 163,
        "GDELT_DOC": 0,
        "DIRECT_FEED": 0,
        "USGS": 0,
        "GDACS": 0
      },
      "last7_score": 43.223,
      "prev7_score": 13.959,
      "trend": "up",
      "trend_arrow": "🔺",
      "change_pct": 209.7,
      "place": "Vysočina Region, Czechia"
    }
  ]
}