{
  "generated_utc": "2026-07-12T08:12:48Z",
  "top": [
    {
      "lon": 14.25,
      "lat": 50.25,
      "type": "hotspot_cell",
      "score": 769.211,
      "count": 1279,
      "cell_deg": 0.5,
      "sources": {
        "GDELT": 106,
        "GDELT_DOC": 1167,
        "DIRECT_FEED": 6,
        "USGS": 0,
        "GDACS": 0
      },
      "last7_score": 761.643,
      "prev7_score": 7.568,
      "trend": "up",
      "trend_arrow": "🔺",
      "change_pct": 9964.4,
      "place": "SO ORP Kralupy nad Vltavou, Czechia"
    },
    {
      "lon": 25.25,
      "lat": 54.75,
      "type": "hotspot_cell",
      "score": 523.222,
      "count": 818,
      "cell_deg": 0.5,
      "sources": {
        "GDELT": 74,
        "GDELT_DOC": 742,
        "DIRECT_FEED": 2,
        "USGS": 0,
        "GDACS": 0
      },
      "last7_score": 518.535,
      "prev7_score": 4.687,
      "trend": "up",
      "trend_arrow": "🔺",
      "change_pct": 10962.2,
      "place": "Vilnius County, Lithuania"
    },
    {
      "lon": 26.25,
      "lat": 44.25,
      "type": "hotspot_cell",
      "score": 451.575,
      "count": 918,
      "cell_deg": 0.5,
      "sources": {
        "GDELT": 129,
        "GDELT_DOC": 785,
        "DIRECT_FEED": 4,
        "USGS": 0,
        "GDACS": 0
      },
      "last7_score": 443.862,
      "prev7_score": 7.713,
      "trend": "up",
      "trend_arrow": "🔺",
      "change_pct": 5654.5,
      "place": "Giurgiu, Romania"
    },
    {
      "lon": 19.25,
      "lat": 47.75,
      "type": "hotspot_cell",
      "score": 161.29,
      "count": 310,
      "cell_deg": 0.5,
      "sources": {
        "GDELT": 146,
        "GDELT_DOC": 0,
        "DIRECT_FEED": 164,
        "USGS": 0,
        "GDACS": 0
      },
      "last7_score": 153.326,
      "prev7_score": 7.965,
      "trend": "up",
      "trend_arrow": "🔺",
      "change_pct": 1825.1,
      "place": "Pest, Hungary"
    },
    {
      "lon": 20.25,
      "lat": 52.25,
      "type": "hotspot_cell",
      "score": 146.016,
      "count": 493,
      "cell_deg": 0.5,
      "sources": {
        "GDELT": 493,
        "GDELT_DOC": 0,
        "DIRECT_FEED": 0,
        "USGS": 0,
        "GDACS": 0
      },
      "last7_score": 113.7,
      "prev7_score": 32.316,
      "trend": "up",
      "trend_arrow": "🔺",
      "change_pct": 251.8,
      "place": "Sochaczew County, Poland"
    },
    {
      "lon": 25.25,
      "lat": 46.25,
      "type": "hotspot_cell",
      "score": 130.493,
      "count": 363,
      "cell_deg": 0.5,
      "sources": {
        "GDELT": 363,
        "GDELT_DOC": 0,
        "DIRECT_FEED": 0,
        "USGS": 0,
        "GDACS": 0
      },
      "last7_score": 110.377,
      "prev7_score": 20.116,
      "trend": "up",
      "trend_arrow": "🔺",
      "change_pct": 448.7,
      "place": "Harghita, Romania"
    },
    {
      "lon": 24.25,
      "lat": 56.75,
      "type": "hotspot_cell",
      "score": 87.245,
      "count": 145,
      "cell_deg": 0.5,
      "sources": {
        "GDELT": 21,
        "GDELT_DOC": 0,
        "DIRECT_FEED": 124,
        "USGS": 0,
        "GDACS": 0
      },
      "last7_score": 85.659,
      "prev7_score": 1.586,
      "trend": "up",
      "trend_arrow": "🔺",
      "change_pct": 5302.1,
      "place": "Ķekavas novads, Latvia"
    },
    {
      "lon": 21.25,
      "lat": 52.25,
      "type": "hotspot_cell",
      "score": 81.533,
      "count": 253,
      "cell_deg": 0.5,
      "sources": {
        "GDELT": 253,
        "GDELT_DOC": 0,
        "DIRECT_FEED": 0,
        "USGS": 0,
        "GDACS": 0
      },
      "last7_score": 61.258,
      "prev7_score": 20.275,
      "trend": "up",
      "trend_arrow": "🔺",
      "change_pct": 202.1,
      "place": "Warsaw, Poland"
    },
    {
      "lon": 20.25,
      "lat": 47.25,
      "type": "hotspot_cell",
      "score": 64.508,
      "count": 170,
      "cell_deg": 0.5,
      "sources": {
        "GDELT": 170,
        "GDELT_DOC": 0,
        "DIRECT_FEED": 0,
        "USGS": 0,
        "GDACS": 0
      },
      "last7_score": 55.876,
      "prev7_score": 8.633,
      "trend": "up",
      "trend_arrow": "🔺",
      "change_pct": 547.3,
      "place": "Jász-Nagykun-Szolnok, Hungary"
    },
    {
      "lon": 15.25,
      "lat": 49.75,
      "type": "hotspot_cell",
      "score": 59.434,
      "count": 173,
      "cell_deg": 0.5,
      "sources": {
        "GDELT": 173,
        "GDELT_DOC": 0,
        "DIRECT_FEED": 0,
        "USGS": 0,
        "GDACS": 0
      },
      "last7_score": 49.125,
      "prev7_score": 10.308,
      "trend": "up",
      "trend_arrow": "🔺",
      "change_pct": 376.6,
      "place": "Vysočina Region, Czechia"
    }
  ]
}