{
  "generated_utc": "2026-05-01T08:18:11Z",
  "top": [
    {
      "lon": 14.25,
      "lat": 50.25,
      "type": "hotspot_cell",
      "score": 874.868,
      "count": 1484,
      "cell_deg": 0.5,
      "sources": {
        "GDELT": 180,
        "GDELT_DOC": 1303,
        "DIRECT_FEED": 1,
        "USGS": 0,
        "GDACS": 0
      },
      "last7_score": 858.733,
      "prev7_score": 16.135,
      "trend": "up",
      "trend_arrow": "🔺",
      "change_pct": 5222.3,
      "place": "SO ORP Kralupy nad Vltavou, Czechia"
    },
    {
      "lon": 26.25,
      "lat": 44.25,
      "type": "hotspot_cell",
      "score": 854.148,
      "count": 1488,
      "cell_deg": 0.5,
      "sources": {
        "GDELT": 149,
        "GDELT_DOC": 1334,
        "DIRECT_FEED": 5,
        "USGS": 0,
        "GDACS": 0
      },
      "last7_score": 842.094,
      "prev7_score": 12.054,
      "trend": "up",
      "trend_arrow": "🔺",
      "change_pct": 6886.0,
      "place": "Giurgiu, Romania"
    },
    {
      "lon": 25.25,
      "lat": 54.75,
      "type": "hotspot_cell",
      "score": 600.44,
      "count": 1012,
      "cell_deg": 0.5,
      "sources": {
        "GDELT": 65,
        "GDELT_DOC": 947,
        "DIRECT_FEED": 0,
        "USGS": 0,
        "GDACS": 0
      },
      "last7_score": 595.749,
      "prev7_score": 4.691,
      "trend": "up",
      "trend_arrow": "🔺",
      "change_pct": 12600.7,
      "place": "Vilnius County, Lithuania"
    },
    {
      "lon": 19.25,
      "lat": 47.75,
      "type": "hotspot_cell",
      "score": 248.327,
      "count": 569,
      "cell_deg": 0.5,
      "sources": {
        "GDELT": 360,
        "GDELT_DOC": 0,
        "DIRECT_FEED": 209,
        "USGS": 0,
        "GDACS": 0
      },
      "last7_score": 212.729,
      "prev7_score": 35.598,
      "trend": "up",
      "trend_arrow": "🔺",
      "change_pct": 497.6,
      "place": "Pest, Hungary"
    },
    {
      "lon": 20.25,
      "lat": 52.25,
      "type": "hotspot_cell",
      "score": 167.73,
      "count": 449,
      "cell_deg": 0.5,
      "sources": {
        "GDELT": 449,
        "GDELT_DOC": 0,
        "DIRECT_FEED": 0,
        "USGS": 0,
        "GDACS": 0
      },
      "last7_score": 127.841,
      "prev7_score": 39.889,
      "trend": "up",
      "trend_arrow": "🔺",
      "change_pct": 220.5,
      "place": "Sochaczew County, Poland"
    },
    {
      "lon": 20.25,
      "lat": 47.25,
      "type": "hotspot_cell",
      "score": 160.83,
      "count": 516,
      "cell_deg": 0.5,
      "sources": {
        "GDELT": 516,
        "GDELT_DOC": 0,
        "DIRECT_FEED": 0,
        "USGS": 0,
        "GDACS": 0
      },
      "last7_score": 108.201,
      "prev7_score": 52.629,
      "trend": "up",
      "trend_arrow": "🔺",
      "change_pct": 105.6,
      "place": "Jász-Nagykun-Szolnok, Hungary"
    },
    {
      "lon": 25.25,
      "lat": 46.25,
      "type": "hotspot_cell",
      "score": 143.158,
      "count": 298,
      "cell_deg": 0.5,
      "sources": {
        "GDELT": 298,
        "GDELT_DOC": 0,
        "DIRECT_FEED": 0,
        "USGS": 0,
        "GDACS": 0
      },
      "last7_score": 122.724,
      "prev7_score": 20.433,
      "trend": "up",
      "trend_arrow": "🔺",
      "change_pct": 500.6,
      "place": "Harghita, Romania"
    },
    {
      "lon": 24.25,
      "lat": 56.75,
      "type": "hotspot_cell",
      "score": 119.481,
      "count": 165,
      "cell_deg": 0.5,
      "sources": {
        "GDELT": 24,
        "GDELT_DOC": 0,
        "DIRECT_FEED": 141,
        "USGS": 0,
        "GDACS": 0
      },
      "last7_score": 117.453,
      "prev7_score": 2.028,
      "trend": "up",
      "trend_arrow": "🔺",
      "change_pct": 5692.9,
      "place": "Ķekavas novads, Latvia"
    },
    {
      "lon": 15.25,
      "lat": 49.75,
      "type": "hotspot_cell",
      "score": 88.472,
      "count": 207,
      "cell_deg": 0.5,
      "sources": {
        "GDELT": 207,
        "GDELT_DOC": 0,
        "DIRECT_FEED": 0,
        "USGS": 0,
        "GDACS": 0
      },
      "last7_score": 74.689,
      "prev7_score": 13.783,
      "trend": "up",
      "trend_arrow": "🔺",
      "change_pct": 441.9,
      "place": "Vysočina Region, Czechia"
    },
    {
      "lon": 26.75,
      "lat": 47.75,
      "type": "hotspot_cell",
      "score": 61.924,
      "count": 155,
      "cell_deg": 0.5,
      "sources": {
        "GDELT": 1,
        "GDELT_DOC": 150,
        "DIRECT_FEED": 4,
        "USGS": 0,
        "GDACS": 0
      },
      "last7_score": 61.83,
      "prev7_score": 0.095,
      "trend": "up",
      "trend_arrow": "🔺",
      "change_pct": 65325.6,
      "place": "Botoșani, Romania"
    }
  ]
}