{
  "generated_utc": "2026-04-09T02:30:51Z",
  "top": [
    {
      "lon": 26.25,
      "lat": 44.25,
      "type": "hotspot_cell",
      "score": 833.113,
      "count": 1338,
      "cell_deg": 0.5,
      "sources": {
        "GDELT": 153,
        "GDELT_DOC": 1179,
        "DIRECT_FEED": 6,
        "USGS": 0,
        "GDACS": 0
      },
      "last7_score": 817.03,
      "prev7_score": 16.082,
      "trend": "up",
      "trend_arrow": "🔺",
      "change_pct": 4980.3,
      "place": "Giurgiu, Romania"
    },
    {
      "lon": 14.25,
      "lat": 50.25,
      "type": "hotspot_cell",
      "score": 634.94,
      "count": 1048,
      "cell_deg": 0.5,
      "sources": {
        "GDELT": 95,
        "GDELT_DOC": 952,
        "DIRECT_FEED": 1,
        "USGS": 0,
        "GDACS": 0
      },
      "last7_score": 626.192,
      "prev7_score": 8.748,
      "trend": "up",
      "trend_arrow": "🔺",
      "change_pct": 7058.1,
      "place": "SO ORP Kralupy nad Vltavou, Czechia"
    },
    {
      "lon": 25.25,
      "lat": 54.75,
      "type": "hotspot_cell",
      "score": 498.032,
      "count": 799,
      "cell_deg": 0.5,
      "sources": {
        "GDELT": 78,
        "GDELT_DOC": 721,
        "DIRECT_FEED": 0,
        "USGS": 0,
        "GDACS": 0
      },
      "last7_score": 490.201,
      "prev7_score": 7.832,
      "trend": "up",
      "trend_arrow": "🔺",
      "change_pct": 6159.2,
      "place": "Vilnius County, Lithuania"
    },
    {
      "lon": 19.25,
      "lat": 47.75,
      "type": "hotspot_cell",
      "score": 463.672,
      "count": 673,
      "cell_deg": 0.5,
      "sources": {
        "GDELT": 449,
        "GDELT_DOC": 0,
        "DIRECT_FEED": 224,
        "USGS": 0,
        "GDACS": 0
      },
      "last7_score": 445.919,
      "prev7_score": 17.752,
      "trend": "up",
      "trend_arrow": "🔺",
      "change_pct": 2411.9,
      "place": "Pest, Hungary"
    },
    {
      "lon": 20.25,
      "lat": 47.25,
      "type": "hotspot_cell",
      "score": 175.994,
      "count": 347,
      "cell_deg": 0.5,
      "sources": {
        "GDELT": 347,
        "GDELT_DOC": 0,
        "DIRECT_FEED": 0,
        "USGS": 0,
        "GDACS": 0
      },
      "last7_score": 151.761,
      "prev7_score": 24.233,
      "trend": "up",
      "trend_arrow": "🔺",
      "change_pct": 526.2,
      "place": "Jász-Nagykun-Szolnok, Hungary"
    },
    {
      "lon": 20.25,
      "lat": 52.25,
      "type": "hotspot_cell",
      "score": 135.944,
      "count": 418,
      "cell_deg": 0.5,
      "sources": {
        "GDELT": 418,
        "GDELT_DOC": 0,
        "DIRECT_FEED": 0,
        "USGS": 0,
        "GDACS": 0
      },
      "last7_score": 95.181,
      "prev7_score": 40.763,
      "trend": "up",
      "trend_arrow": "🔺",
      "change_pct": 133.5,
      "place": "Sochaczew County, Poland"
    },
    {
      "lon": 25.25,
      "lat": 46.25,
      "type": "hotspot_cell",
      "score": 101.383,
      "count": 250,
      "cell_deg": 0.5,
      "sources": {
        "GDELT": 250,
        "GDELT_DOC": 0,
        "DIRECT_FEED": 0,
        "USGS": 0,
        "GDACS": 0
      },
      "last7_score": 78.507,
      "prev7_score": 22.875,
      "trend": "up",
      "trend_arrow": "🔺",
      "change_pct": 243.2,
      "place": "Harghita, Romania"
    },
    {
      "lon": 24.25,
      "lat": 56.75,
      "type": "hotspot_cell",
      "score": 101.077,
      "count": 150,
      "cell_deg": 0.5,
      "sources": {
        "GDELT": 23,
        "GDELT_DOC": 0,
        "DIRECT_FEED": 127,
        "USGS": 0,
        "GDACS": 0
      },
      "last7_score": 97.977,
      "prev7_score": 3.1,
      "trend": "up",
      "trend_arrow": "🔺",
      "change_pct": 3060.9,
      "place": "Ķekavas novads, Latvia"
    },
    {
      "lon": 15.25,
      "lat": 49.75,
      "type": "hotspot_cell",
      "score": 44.078,
      "count": 114,
      "cell_deg": 0.5,
      "sources": {
        "GDELT": 114,
        "GDELT_DOC": 0,
        "DIRECT_FEED": 0,
        "USGS": 0,
        "GDACS": 0
      },
      "last7_score": 33.768,
      "prev7_score": 10.309,
      "trend": "up",
      "trend_arrow": "🔺",
      "change_pct": 227.6,
      "place": "Vysočina Region, Czechia"
    },
    {
      "lon": 21.25,
      "lat": 52.25,
      "type": "hotspot_cell",
      "score": 43.894,
      "count": 112,
      "cell_deg": 0.5,
      "sources": {
        "GDELT": 112,
        "GDELT_DOC": 0,
        "DIRECT_FEED": 0,
        "USGS": 0,
        "GDACS": 0
      },
      "last7_score": 33.211,
      "prev7_score": 10.684,
      "trend": "up",
      "trend_arrow": "🔺",
      "change_pct": 210.9,
      "place": "Warsaw, Poland"
    }
  ]
}