{
  "generated_utc": "2026-05-25T14:42:57Z",
  "top": [
    {
      "lon": 14.25,
      "lat": 50.25,
      "type": "hotspot_cell",
      "score": 967.62,
      "count": 1595,
      "cell_deg": 0.5,
      "sources": {
        "GDELT": 139,
        "GDELT_DOC": 1440,
        "DIRECT_FEED": 16,
        "USGS": 0,
        "GDACS": 0
      },
      "last7_score": 960.881,
      "prev7_score": 6.738,
      "trend": "up",
      "trend_arrow": "🔺",
      "change_pct": 14160.4,
      "place": "SO ORP Kralupy nad Vltavou, Czechia"
    },
    {
      "lon": 26.25,
      "lat": 44.25,
      "type": "hotspot_cell",
      "score": 716.506,
      "count": 1382,
      "cell_deg": 0.5,
      "sources": {
        "GDELT": 182,
        "GDELT_DOC": 1198,
        "DIRECT_FEED": 2,
        "USGS": 0,
        "GDACS": 0
      },
      "last7_score": 704.168,
      "prev7_score": 12.338,
      "trend": "up",
      "trend_arrow": "🔺",
      "change_pct": 5607.3,
      "place": "Giurgiu, Romania"
    },
    {
      "lon": 25.25,
      "lat": 54.75,
      "type": "hotspot_cell",
      "score": 653.532,
      "count": 1086,
      "cell_deg": 0.5,
      "sources": {
        "GDELT": 106,
        "GDELT_DOC": 977,
        "DIRECT_FEED": 3,
        "USGS": 0,
        "GDACS": 0
      },
      "last7_score": 649.102,
      "prev7_score": 4.43,
      "trend": "up",
      "trend_arrow": "🔺",
      "change_pct": 14551.9,
      "place": "Vilnius County, Lithuania"
    },
    {
      "lon": 20.25,
      "lat": 52.25,
      "type": "hotspot_cell",
      "score": 316.858,
      "count": 797,
      "cell_deg": 0.5,
      "sources": {
        "GDELT": 797,
        "GDELT_DOC": 0,
        "DIRECT_FEED": 0,
        "USGS": 0,
        "GDACS": 0
      },
      "last7_score": 278.127,
      "prev7_score": 38.732,
      "trend": "up",
      "trend_arrow": "🔺",
      "change_pct": 618.1,
      "place": "Sochaczew County, Poland"
    },
    {
      "lon": 19.25,
      "lat": 47.75,
      "type": "hotspot_cell",
      "score": 196.155,
      "count": 450,
      "cell_deg": 0.5,
      "sources": {
        "GDELT": 221,
        "GDELT_DOC": 0,
        "DIRECT_FEED": 229,
        "USGS": 0,
        "GDACS": 0
      },
      "last7_score": 180.849,
      "prev7_score": 15.306,
      "trend": "up",
      "trend_arrow": "🔺",
      "change_pct": 1081.6,
      "place": "Pest, Hungary"
    },
    {
      "lon": 25.25,
      "lat": 46.25,
      "type": "hotspot_cell",
      "score": 125.327,
      "count": 331,
      "cell_deg": 0.5,
      "sources": {
        "GDELT": 331,
        "GDELT_DOC": 0,
        "DIRECT_FEED": 0,
        "USGS": 0,
        "GDACS": 0
      },
      "last7_score": 109.1,
      "prev7_score": 16.227,
      "trend": "up",
      "trend_arrow": "🔺",
      "change_pct": 572.3,
      "place": "Harghita, Romania"
    },
    {
      "lon": 24.25,
      "lat": 56.75,
      "type": "hotspot_cell",
      "score": 97.09,
      "count": 171,
      "cell_deg": 0.5,
      "sources": {
        "GDELT": 52,
        "GDELT_DOC": 0,
        "DIRECT_FEED": 119,
        "USGS": 0,
        "GDACS": 0
      },
      "last7_score": 93.673,
      "prev7_score": 3.416,
      "trend": "up",
      "trend_arrow": "🔺",
      "change_pct": 2642.0,
      "place": "Ķekavas novads, Latvia"
    },
    {
      "lon": 21.25,
      "lat": 52.25,
      "type": "hotspot_cell",
      "score": 92.98,
      "count": 266,
      "cell_deg": 0.5,
      "sources": {
        "GDELT": 266,
        "GDELT_DOC": 0,
        "DIRECT_FEED": 0,
        "USGS": 0,
        "GDACS": 0
      },
      "last7_score": 79.899,
      "prev7_score": 13.081,
      "trend": "up",
      "trend_arrow": "🔺",
      "change_pct": 510.8,
      "place": "Warsaw, Poland"
    },
    {
      "lon": 20.25,
      "lat": 47.25,
      "type": "hotspot_cell",
      "score": 81.5,
      "count": 259,
      "cell_deg": 0.5,
      "sources": {
        "GDELT": 259,
        "GDELT_DOC": 0,
        "DIRECT_FEED": 0,
        "USGS": 0,
        "GDACS": 0
      },
      "last7_score": 64.853,
      "prev7_score": 16.647,
      "trend": "up",
      "trend_arrow": "🔺",
      "change_pct": 289.6,
      "place": "Jász-Nagykun-Szolnok, Hungary"
    },
    {
      "lon": 26.25,
      "lat": 59.25,
      "type": "hotspot_cell",
      "score": 58.555,
      "count": 157,
      "cell_deg": 0.5,
      "sources": {
        "GDELT": 157,
        "GDELT_DOC": 0,
        "DIRECT_FEED": 0,
        "USGS": 0,
        "GDACS": 0
      },
      "last7_score": 52.569,
      "prev7_score": 5.986,
      "trend": "up",
      "trend_arrow": "🔺",
      "change_pct": 778.2,
      "place": "Lääne-Viru County, Estonia"
    }
  ]
}