{
  "generated_utc": "2026-05-27T02:41:49Z",
  "top": [
    {
      "lon": 14.25,
      "lat": 50.25,
      "type": "hotspot_cell",
      "score": 957.339,
      "count": 1587,
      "cell_deg": 0.5,
      "sources": {
        "GDELT": 137,
        "GDELT_DOC": 1428,
        "DIRECT_FEED": 22,
        "USGS": 0,
        "GDACS": 0
      },
      "last7_score": 948.475,
      "prev7_score": 8.865,
      "trend": "up",
      "trend_arrow": "🔺",
      "change_pct": 10599.4,
      "place": "SO ORP Kralupy nad Vltavou, Czechia"
    },
    {
      "lon": 26.25,
      "lat": 44.25,
      "type": "hotspot_cell",
      "score": 776.391,
      "count": 1351,
      "cell_deg": 0.5,
      "sources": {
        "GDELT": 140,
        "GDELT_DOC": 1210,
        "DIRECT_FEED": 1,
        "USGS": 0,
        "GDACS": 0
      },
      "last7_score": 765.49,
      "prev7_score": 10.901,
      "trend": "up",
      "trend_arrow": "🔺",
      "change_pct": 6922.0,
      "place": "Giurgiu, Romania"
    },
    {
      "lon": 25.25,
      "lat": 54.75,
      "type": "hotspot_cell",
      "score": 615.902,
      "count": 1092,
      "cell_deg": 0.5,
      "sources": {
        "GDELT": 100,
        "GDELT_DOC": 989,
        "DIRECT_FEED": 3,
        "USGS": 0,
        "GDACS": 0
      },
      "last7_score": 604.325,
      "prev7_score": 11.577,
      "trend": "up",
      "trend_arrow": "🔺",
      "change_pct": 5120.3,
      "place": "Vilnius County, Lithuania"
    },
    {
      "lon": 20.25,
      "lat": 52.25,
      "type": "hotspot_cell",
      "score": 288.468,
      "count": 777,
      "cell_deg": 0.5,
      "sources": {
        "GDELT": 777,
        "GDELT_DOC": 0,
        "DIRECT_FEED": 0,
        "USGS": 0,
        "GDACS": 0
      },
      "last7_score": 234.546,
      "prev7_score": 53.922,
      "trend": "up",
      "trend_arrow": "🔺",
      "change_pct": 335.0,
      "place": "Sochaczew County, Poland"
    },
    {
      "lon": 19.25,
      "lat": 47.75,
      "type": "hotspot_cell",
      "score": 200.992,
      "count": 419,
      "cell_deg": 0.5,
      "sources": {
        "GDELT": 193,
        "GDELT_DOC": 0,
        "DIRECT_FEED": 226,
        "USGS": 0,
        "GDACS": 0
      },
      "last7_score": 183.73,
      "prev7_score": 17.262,
      "trend": "up",
      "trend_arrow": "🔺",
      "change_pct": 964.4,
      "place": "Pest, Hungary"
    },
    {
      "lon": 25.25,
      "lat": 46.25,
      "type": "hotspot_cell",
      "score": 120.535,
      "count": 307,
      "cell_deg": 0.5,
      "sources": {
        "GDELT": 307,
        "GDELT_DOC": 0,
        "DIRECT_FEED": 0,
        "USGS": 0,
        "GDACS": 0
      },
      "last7_score": 93.896,
      "prev7_score": 26.638,
      "trend": "up",
      "trend_arrow": "🔺",
      "change_pct": 252.5,
      "place": "Harghita, Romania"
    },
    {
      "lon": 24.25,
      "lat": 56.75,
      "type": "hotspot_cell",
      "score": 102.803,
      "count": 175,
      "cell_deg": 0.5,
      "sources": {
        "GDELT": 53,
        "GDELT_DOC": 0,
        "DIRECT_FEED": 122,
        "USGS": 0,
        "GDACS": 0
      },
      "last7_score": 97.938,
      "prev7_score": 4.865,
      "trend": "up",
      "trend_arrow": "🔺",
      "change_pct": 1913.0,
      "place": "Ķekavas novads, Latvia"
    },
    {
      "lon": 21.25,
      "lat": 52.25,
      "type": "hotspot_cell",
      "score": 87.24,
      "count": 258,
      "cell_deg": 0.5,
      "sources": {
        "GDELT": 258,
        "GDELT_DOC": 0,
        "DIRECT_FEED": 0,
        "USGS": 0,
        "GDACS": 0
      },
      "last7_score": 66.698,
      "prev7_score": 20.542,
      "trend": "up",
      "trend_arrow": "🔺",
      "change_pct": 224.7,
      "place": "Warsaw, Poland"
    },
    {
      "lon": 20.25,
      "lat": 47.25,
      "type": "hotspot_cell",
      "score": 76.582,
      "count": 232,
      "cell_deg": 0.5,
      "sources": {
        "GDELT": 232,
        "GDELT_DOC": 0,
        "DIRECT_FEED": 0,
        "USGS": 0,
        "GDACS": 0
      },
      "last7_score": 55.494,
      "prev7_score": 21.089,
      "trend": "up",
      "trend_arrow": "🔺",
      "change_pct": 163.1,
      "place": "Jász-Nagykun-Szolnok, Hungary"
    },
    {
      "lon": 26.25,
      "lat": 59.25,
      "type": "hotspot_cell",
      "score": 56.974,
      "count": 151,
      "cell_deg": 0.5,
      "sources": {
        "GDELT": 151,
        "GDELT_DOC": 0,
        "DIRECT_FEED": 0,
        "USGS": 0,
        "GDACS": 0
      },
      "last7_score": 42.194,
      "prev7_score": 14.78,
      "trend": "up",
      "trend_arrow": "🔺",
      "change_pct": 185.5,
      "place": "Lääne-Viru County, Estonia"
    }
  ]
}