{
  "generated_utc": "2026-07-03T02:11:19Z",
  "top": [
    {
      "lon": 26.25,
      "lat": 44.25,
      "type": "hotspot_cell",
      "score": 312.637,
      "count": 701,
      "cell_deg": 0.5,
      "sources": {
        "GDELT": 143,
        "GDELT_DOC": 555,
        "DIRECT_FEED": 3,
        "USGS": 0,
        "GDACS": 0
      },
      "last7_score": 300.654,
      "prev7_score": 11.983,
      "trend": "up",
      "trend_arrow": "🔺",
      "change_pct": 2409.0,
      "place": "Giurgiu, Romania"
    },
    {
      "lon": 14.25,
      "lat": 50.25,
      "type": "hotspot_cell",
      "score": 262.242,
      "count": 582,
      "cell_deg": 0.5,
      "sources": {
        "GDELT": 125,
        "GDELT_DOC": 456,
        "DIRECT_FEED": 1,
        "USGS": 0,
        "GDACS": 0
      },
      "last7_score": 252.354,
      "prev7_score": 9.888,
      "trend": "up",
      "trend_arrow": "🔺",
      "change_pct": 2452.0,
      "place": "SO ORP Kralupy nad Vltavou, Czechia"
    },
    {
      "lon": 25.25,
      "lat": 54.75,
      "type": "hotspot_cell",
      "score": 244.136,
      "count": 511,
      "cell_deg": 0.5,
      "sources": {
        "GDELT": 63,
        "GDELT_DOC": 448,
        "DIRECT_FEED": 0,
        "USGS": 0,
        "GDACS": 0
      },
      "last7_score": 239.783,
      "prev7_score": 4.353,
      "trend": "up",
      "trend_arrow": "🔺",
      "change_pct": 5408.8,
      "place": "Vilnius County, Lithuania"
    },
    {
      "lon": 20.25,
      "lat": 52.25,
      "type": "hotspot_cell",
      "score": 227.609,
      "count": 534,
      "cell_deg": 0.5,
      "sources": {
        "GDELT": 534,
        "GDELT_DOC": 0,
        "DIRECT_FEED": 0,
        "USGS": 0,
        "GDACS": 0
      },
      "last7_score": 182.736,
      "prev7_score": 44.874,
      "trend": "up",
      "trend_arrow": "🔺",
      "change_pct": 307.2,
      "place": "Sochaczew County, Poland"
    },
    {
      "lon": 19.25,
      "lat": 47.75,
      "type": "hotspot_cell",
      "score": 199.566,
      "count": 356,
      "cell_deg": 0.5,
      "sources": {
        "GDELT": 180,
        "GDELT_DOC": 0,
        "DIRECT_FEED": 176,
        "USGS": 0,
        "GDACS": 0
      },
      "last7_score": 183.477,
      "prev7_score": 16.089,
      "trend": "up",
      "trend_arrow": "🔺",
      "change_pct": 1040.4,
      "place": "Pest, Hungary"
    },
    {
      "lon": 25.25,
      "lat": 46.25,
      "type": "hotspot_cell",
      "score": 131.133,
      "count": 325,
      "cell_deg": 0.5,
      "sources": {
        "GDELT": 325,
        "GDELT_DOC": 0,
        "DIRECT_FEED": 0,
        "USGS": 0,
        "GDACS": 0
      },
      "last7_score": 101.392,
      "prev7_score": 29.742,
      "trend": "up",
      "trend_arrow": "🔺",
      "change_pct": 240.9,
      "place": "Harghita, Romania"
    },
    {
      "lon": 24.25,
      "lat": 56.75,
      "type": "hotspot_cell",
      "score": 118.495,
      "count": 172,
      "cell_deg": 0.5,
      "sources": {
        "GDELT": 25,
        "GDELT_DOC": 0,
        "DIRECT_FEED": 147,
        "USGS": 0,
        "GDACS": 0
      },
      "last7_score": 116.176,
      "prev7_score": 2.319,
      "trend": "up",
      "trend_arrow": "🔺",
      "change_pct": 4910.6,
      "place": "Ķekavas novads, Latvia"
    },
    {
      "lon": 21.25,
      "lat": 52.25,
      "type": "hotspot_cell",
      "score": 100.965,
      "count": 320,
      "cell_deg": 0.5,
      "sources": {
        "GDELT": 320,
        "GDELT_DOC": 0,
        "DIRECT_FEED": 0,
        "USGS": 0,
        "GDACS": 0
      },
      "last7_score": 71.37,
      "prev7_score": 29.595,
      "trend": "up",
      "trend_arrow": "🔺",
      "change_pct": 141.2,
      "place": "Warsaw, Poland"
    },
    {
      "lon": 15.25,
      "lat": 49.75,
      "type": "hotspot_cell",
      "score": 62.552,
      "count": 156,
      "cell_deg": 0.5,
      "sources": {
        "GDELT": 156,
        "GDELT_DOC": 0,
        "DIRECT_FEED": 0,
        "USGS": 0,
        "GDACS": 0
      },
      "last7_score": 49.283,
      "prev7_score": 13.269,
      "trend": "up",
      "trend_arrow": "🔺",
      "change_pct": 271.4,
      "place": "Vysočina Region, Czechia"
    },
    {
      "lon": 20.25,
      "lat": 47.25,
      "type": "hotspot_cell",
      "score": 59.968,
      "count": 173,
      "cell_deg": 0.5,
      "sources": {
        "GDELT": 173,
        "GDELT_DOC": 0,
        "DIRECT_FEED": 0,
        "USGS": 0,
        "GDACS": 0
      },
      "last7_score": 42.212,
      "prev7_score": 17.756,
      "trend": "up",
      "trend_arrow": "🔺",
      "change_pct": 137.7,
      "place": "Jász-Nagykun-Szolnok, Hungary"
    }
  ]
}