{
  "generated_utc": "2026-06-15T20:54:02Z",
  "top": [
    {
      "lon": 26.25,
      "lat": 44.25,
      "type": "hotspot_cell",
      "score": 515.936,
      "count": 939,
      "cell_deg": 0.5,
      "sources": {
        "GDELT": 182,
        "GDELT_DOC": 745,
        "DIRECT_FEED": 12,
        "USGS": 0,
        "GDACS": 0
      },
      "last7_score": 504.709,
      "prev7_score": 11.226,
      "trend": "up",
      "trend_arrow": "🔺",
      "change_pct": 4395.7,
      "place": "Giurgiu, Romania"
    },
    {
      "lon": 14.25,
      "lat": 50.25,
      "type": "hotspot_cell",
      "score": 422.406,
      "count": 808,
      "cell_deg": 0.5,
      "sources": {
        "GDELT": 97,
        "GDELT_DOC": 705,
        "DIRECT_FEED": 6,
        "USGS": 0,
        "GDACS": 0
      },
      "last7_score": 417.549,
      "prev7_score": 4.857,
      "trend": "up",
      "trend_arrow": "🔺",
      "change_pct": 8496.0,
      "place": "SO ORP Kralupy nad Vltavou, Czechia"
    },
    {
      "lon": 25.25,
      "lat": 54.75,
      "type": "hotspot_cell",
      "score": 407.052,
      "count": 648,
      "cell_deg": 0.5,
      "sources": {
        "GDELT": 62,
        "GDELT_DOC": 586,
        "DIRECT_FEED": 0,
        "USGS": 0,
        "GDACS": 0
      },
      "last7_score": 403.208,
      "prev7_score": 3.844,
      "trend": "up",
      "trend_arrow": "🔺",
      "change_pct": 10390.0,
      "place": "Vilnius County, Lithuania"
    },
    {
      "lon": 19.25,
      "lat": 47.75,
      "type": "hotspot_cell",
      "score": 177.476,
      "count": 373,
      "cell_deg": 0.5,
      "sources": {
        "GDELT": 202,
        "GDELT_DOC": 0,
        "DIRECT_FEED": 171,
        "USGS": 0,
        "GDACS": 0
      },
      "last7_score": 164.811,
      "prev7_score": 12.665,
      "trend": "up",
      "trend_arrow": "🔺",
      "change_pct": 1201.3,
      "place": "Pest, Hungary"
    },
    {
      "lon": 25.25,
      "lat": 46.25,
      "type": "hotspot_cell",
      "score": 153.21,
      "count": 452,
      "cell_deg": 0.5,
      "sources": {
        "GDELT": 452,
        "GDELT_DOC": 0,
        "DIRECT_FEED": 0,
        "USGS": 0,
        "GDACS": 0
      },
      "last7_score": 123.229,
      "prev7_score": 29.98,
      "trend": "up",
      "trend_arrow": "🔺",
      "change_pct": 311.0,
      "place": "Harghita, Romania"
    },
    {
      "lon": 20.25,
      "lat": 52.25,
      "type": "hotspot_cell",
      "score": 147.347,
      "count": 462,
      "cell_deg": 0.5,
      "sources": {
        "GDELT": 462,
        "GDELT_DOC": 0,
        "DIRECT_FEED": 0,
        "USGS": 0,
        "GDACS": 0
      },
      "last7_score": 120.571,
      "prev7_score": 26.776,
      "trend": "up",
      "trend_arrow": "🔺",
      "change_pct": 350.3,
      "place": "Sochaczew County, Poland"
    },
    {
      "lon": 24.25,
      "lat": 56.75,
      "type": "hotspot_cell",
      "score": 112.775,
      "count": 180,
      "cell_deg": 0.5,
      "sources": {
        "GDELT": 45,
        "GDELT_DOC": 0,
        "DIRECT_FEED": 135,
        "USGS": 0,
        "GDACS": 0
      },
      "last7_score": 110.047,
      "prev7_score": 2.728,
      "trend": "up",
      "trend_arrow": "🔺",
      "change_pct": 3933.9,
      "place": "Ķekavas novads, Latvia"
    },
    {
      "lon": 17.25,
      "lat": 48.25,
      "type": "hotspot_cell",
      "score": 90.238,
      "count": 114,
      "cell_deg": 0.5,
      "sources": {
        "GDELT": 114,
        "GDELT_DOC": 0,
        "DIRECT_FEED": 0,
        "USGS": 0,
        "GDACS": 0
      },
      "last7_score": 89.375,
      "prev7_score": 0.863,
      "trend": "up",
      "trend_arrow": "🔺",
      "change_pct": 10251.8,
      "place": "District of Pezinok, Slovakia"
    },
    {
      "lon": 20.25,
      "lat": 47.25,
      "type": "hotspot_cell",
      "score": 80.969,
      "count": 249,
      "cell_deg": 0.5,
      "sources": {
        "GDELT": 249,
        "GDELT_DOC": 0,
        "DIRECT_FEED": 0,
        "USGS": 0,
        "GDACS": 0
      },
      "last7_score": 66.413,
      "prev7_score": 14.556,
      "trend": "up",
      "trend_arrow": "🔺",
      "change_pct": 356.3,
      "place": "Jász-Nagykun-Szolnok, Hungary"
    },
    {
      "lon": 21.25,
      "lat": 52.25,
      "type": "hotspot_cell",
      "score": 53.906,
      "count": 174,
      "cell_deg": 0.5,
      "sources": {
        "GDELT": 174,
        "GDELT_DOC": 0,
        "DIRECT_FEED": 0,
        "USGS": 0,
        "GDACS": 0
      },
      "last7_score": 42.464,
      "prev7_score": 11.442,
      "trend": "up",
      "trend_arrow": "🔺",
      "change_pct": 271.1,
      "place": "Warsaw, Poland"
    }
  ]
}