{
  "generated_utc": "2026-04-13T19:19:39Z",
  "top": [
    {
      "lon": 19.25,
      "lat": 47.75,
      "type": "hotspot_cell",
      "score": 844.808,
      "count": 1293,
      "cell_deg": 0.5,
      "sources": {
        "GDELT": 965,
        "GDELT_DOC": 0,
        "DIRECT_FEED": 328,
        "USGS": 0,
        "GDACS": 0
      },
      "last7_score": 826.534,
      "prev7_score": 18.274,
      "trend": "up",
      "trend_arrow": "🔺",
      "change_pct": 4422.9,
      "place": "Pest, Hungary"
    },
    {
      "lon": 26.25,
      "lat": 44.25,
      "type": "hotspot_cell",
      "score": 821.438,
      "count": 1465,
      "cell_deg": 0.5,
      "sources": {
        "GDELT": 143,
        "GDELT_DOC": 1318,
        "DIRECT_FEED": 4,
        "USGS": 0,
        "GDACS": 0
      },
      "last7_score": 810.606,
      "prev7_score": 10.832,
      "trend": "up",
      "trend_arrow": "🔺",
      "change_pct": 7383.5,
      "place": "Giurgiu, Romania"
    },
    {
      "lon": 14.25,
      "lat": 50.25,
      "type": "hotspot_cell",
      "score": 686.759,
      "count": 1192,
      "cell_deg": 0.5,
      "sources": {
        "GDELT": 83,
        "GDELT_DOC": 1109,
        "DIRECT_FEED": 0,
        "USGS": 0,
        "GDACS": 0
      },
      "last7_score": 681.405,
      "prev7_score": 5.353,
      "trend": "up",
      "trend_arrow": "🔺",
      "change_pct": 12628.9,
      "place": "SO ORP Kralupy nad Vltavou, Czechia"
    },
    {
      "lon": 25.25,
      "lat": 54.75,
      "type": "hotspot_cell",
      "score": 506.898,
      "count": 910,
      "cell_deg": 0.5,
      "sources": {
        "GDELT": 75,
        "GDELT_DOC": 833,
        "DIRECT_FEED": 2,
        "USGS": 0,
        "GDACS": 0
      },
      "last7_score": 503.173,
      "prev7_score": 3.725,
      "trend": "up",
      "trend_arrow": "🔺",
      "change_pct": 13406.7,
      "place": "Vilnius County, Lithuania"
    },
    {
      "lon": 20.25,
      "lat": 47.25,
      "type": "hotspot_cell",
      "score": 325.433,
      "count": 606,
      "cell_deg": 0.5,
      "sources": {
        "GDELT": 606,
        "GDELT_DOC": 0,
        "DIRECT_FEED": 0,
        "USGS": 0,
        "GDACS": 0
      },
      "last7_score": 303.129,
      "prev7_score": 22.304,
      "trend": "up",
      "trend_arrow": "🔺",
      "change_pct": 1259.1,
      "place": "Jász-Nagykun-Szolnok, Hungary"
    },
    {
      "lon": 20.25,
      "lat": 52.25,
      "type": "hotspot_cell",
      "score": 144.126,
      "count": 415,
      "cell_deg": 0.5,
      "sources": {
        "GDELT": 415,
        "GDELT_DOC": 0,
        "DIRECT_FEED": 0,
        "USGS": 0,
        "GDACS": 0
      },
      "last7_score": 123.065,
      "prev7_score": 21.061,
      "trend": "up",
      "trend_arrow": "🔺",
      "change_pct": 484.3,
      "place": "Sochaczew County, Poland"
    },
    {
      "lon": 24.25,
      "lat": 56.75,
      "type": "hotspot_cell",
      "score": 98.526,
      "count": 158,
      "cell_deg": 0.5,
      "sources": {
        "GDELT": 24,
        "GDELT_DOC": 0,
        "DIRECT_FEED": 134,
        "USGS": 0,
        "GDACS": 0
      },
      "last7_score": 97.82,
      "prev7_score": 0.706,
      "trend": "up",
      "trend_arrow": "🔺",
      "change_pct": 13749.2,
      "place": "Ķekavas novads, Latvia"
    },
    {
      "lon": 25.25,
      "lat": 46.25,
      "type": "hotspot_cell",
      "score": 69.289,
      "count": 246,
      "cell_deg": 0.5,
      "sources": {
        "GDELT": 246,
        "GDELT_DOC": 0,
        "DIRECT_FEED": 0,
        "USGS": 0,
        "GDACS": 0
      },
      "last7_score": 53.762,
      "prev7_score": 15.527,
      "trend": "up",
      "trend_arrow": "🔺",
      "change_pct": 246.3,
      "place": "Harghita, Romania"
    },
    {
      "lon": 15.25,
      "lat": 49.75,
      "type": "hotspot_cell",
      "score": 60.748,
      "count": 139,
      "cell_deg": 0.5,
      "sources": {
        "GDELT": 139,
        "GDELT_DOC": 0,
        "DIRECT_FEED": 0,
        "USGS": 0,
        "GDACS": 0
      },
      "last7_score": 54.15,
      "prev7_score": 6.598,
      "trend": "up",
      "trend_arrow": "🔺",
      "change_pct": 720.7,
      "place": "Vysočina Region, Czechia"
    },
    {
      "lon": 21.25,
      "lat": 52.25,
      "type": "hotspot_cell",
      "score": 54.741,
      "count": 135,
      "cell_deg": 0.5,
      "sources": {
        "GDELT": 135,
        "GDELT_DOC": 0,
        "DIRECT_FEED": 0,
        "USGS": 0,
        "GDACS": 0
      },
      "last7_score": 47.925,
      "prev7_score": 6.816,
      "trend": "up",
      "trend_arrow": "🔺",
      "change_pct": 603.1,
      "place": "Warsaw, Poland"
    }
  ]
}