{
  "generated_utc": "2026-06-30T14:06:01Z",
  "top": [
    {
      "lon": 26.25,
      "lat": 44.25,
      "type": "hotspot_cell",
      "score": 517.685,
      "count": 941,
      "cell_deg": 0.5,
      "sources": {
        "GDELT": 143,
        "GDELT_DOC": 792,
        "DIRECT_FEED": 6,
        "USGS": 0,
        "GDACS": 0
      },
      "last7_score": 509.322,
      "prev7_score": 8.364,
      "trend": "up",
      "trend_arrow": "🔺",
      "change_pct": 5989.7,
      "place": "Giurgiu, Romania"
    },
    {
      "lon": 14.25,
      "lat": 50.25,
      "type": "hotspot_cell",
      "score": 494.627,
      "count": 999,
      "cell_deg": 0.5,
      "sources": {
        "GDELT": 128,
        "GDELT_DOC": 863,
        "DIRECT_FEED": 8,
        "USGS": 0,
        "GDACS": 0
      },
      "last7_score": 485.083,
      "prev7_score": 9.544,
      "trend": "up",
      "trend_arrow": "🔺",
      "change_pct": 4982.7,
      "place": "SO ORP Kralupy nad Vltavou, Czechia"
    },
    {
      "lon": 25.25,
      "lat": 54.75,
      "type": "hotspot_cell",
      "score": 447.811,
      "count": 684,
      "cell_deg": 0.5,
      "sources": {
        "GDELT": 66,
        "GDELT_DOC": 618,
        "DIRECT_FEED": 0,
        "USGS": 0,
        "GDACS": 0
      },
      "last7_score": 442.573,
      "prev7_score": 5.238,
      "trend": "up",
      "trend_arrow": "🔺",
      "change_pct": 8348.8,
      "place": "Vilnius County, Lithuania"
    },
    {
      "lon": 20.25,
      "lat": 52.25,
      "type": "hotspot_cell",
      "score": 184.706,
      "count": 519,
      "cell_deg": 0.5,
      "sources": {
        "GDELT": 519,
        "GDELT_DOC": 0,
        "DIRECT_FEED": 0,
        "USGS": 0,
        "GDACS": 0
      },
      "last7_score": 152.118,
      "prev7_score": 32.588,
      "trend": "up",
      "trend_arrow": "🔺",
      "change_pct": 366.8,
      "place": "Sochaczew County, Poland"
    },
    {
      "lon": 19.25,
      "lat": 47.75,
      "type": "hotspot_cell",
      "score": 183.97,
      "count": 348,
      "cell_deg": 0.5,
      "sources": {
        "GDELT": 187,
        "GDELT_DOC": 0,
        "DIRECT_FEED": 161,
        "USGS": 0,
        "GDACS": 0
      },
      "last7_score": 170.675,
      "prev7_score": 13.295,
      "trend": "up",
      "trend_arrow": "🔺",
      "change_pct": 1183.7,
      "place": "Pest, Hungary"
    },
    {
      "lon": 25.25,
      "lat": 46.25,
      "type": "hotspot_cell",
      "score": 133.412,
      "count": 369,
      "cell_deg": 0.5,
      "sources": {
        "GDELT": 369,
        "GDELT_DOC": 0,
        "DIRECT_FEED": 0,
        "USGS": 0,
        "GDACS": 0
      },
      "last7_score": 107.464,
      "prev7_score": 25.948,
      "trend": "up",
      "trend_arrow": "🔺",
      "change_pct": 314.2,
      "place": "Harghita, Romania"
    },
    {
      "lon": 24.25,
      "lat": 56.75,
      "type": "hotspot_cell",
      "score": 117.631,
      "count": 183,
      "cell_deg": 0.5,
      "sources": {
        "GDELT": 29,
        "GDELT_DOC": 0,
        "DIRECT_FEED": 154,
        "USGS": 0,
        "GDACS": 0
      },
      "last7_score": 114.829,
      "prev7_score": 2.801,
      "trend": "up",
      "trend_arrow": "🔺",
      "change_pct": 3998.9,
      "place": "Ķekavas novads, Latvia"
    },
    {
      "lon": 21.25,
      "lat": 52.25,
      "type": "hotspot_cell",
      "score": 107.521,
      "count": 358,
      "cell_deg": 0.5,
      "sources": {
        "GDELT": 358,
        "GDELT_DOC": 0,
        "DIRECT_FEED": 0,
        "USGS": 0,
        "GDACS": 0
      },
      "last7_score": 79.12,
      "prev7_score": 28.401,
      "trend": "up",
      "trend_arrow": "🔺",
      "change_pct": 178.6,
      "place": "Warsaw, Poland"
    },
    {
      "lon": 15.25,
      "lat": 49.75,
      "type": "hotspot_cell",
      "score": 63.258,
      "count": 160,
      "cell_deg": 0.5,
      "sources": {
        "GDELT": 160,
        "GDELT_DOC": 0,
        "DIRECT_FEED": 0,
        "USGS": 0,
        "GDACS": 0
      },
      "last7_score": 53.069,
      "prev7_score": 10.189,
      "trend": "up",
      "trend_arrow": "🔺",
      "change_pct": 420.8,
      "place": "Vysočina Region, Czechia"
    },
    {
      "lon": 20.25,
      "lat": 47.25,
      "type": "hotspot_cell",
      "score": 61.49,
      "count": 202,
      "cell_deg": 0.5,
      "sources": {
        "GDELT": 202,
        "GDELT_DOC": 0,
        "DIRECT_FEED": 0,
        "USGS": 0,
        "GDACS": 0
      },
      "last7_score": 44.603,
      "prev7_score": 16.887,
      "trend": "up",
      "trend_arrow": "🔺",
      "change_pct": 164.1,
      "place": "Jász-Nagykun-Szolnok, Hungary"
    }
  ]
}