{
  "generated_utc": "2026-07-22T01:57:09Z",
  "top": [
    {
      "lon": 26.25,
      "lat": 44.25,
      "type": "hotspot_cell",
      "score": 669.205,
      "count": 1023,
      "cell_deg": 0.5,
      "sources": {
        "GDELT": 122,
        "GDELT_DOC": 896,
        "DIRECT_FEED": 5,
        "USGS": 0,
        "GDACS": 0
      },
      "last7_score": 662.716,
      "prev7_score": 6.489,
      "trend": "up",
      "trend_arrow": "🔺",
      "change_pct": 10113.2,
      "place": "Giurgiu, Romania"
    },
    {
      "lon": 14.25,
      "lat": 50.25,
      "type": "hotspot_cell",
      "score": 638.908,
      "count": 1040,
      "cell_deg": 0.5,
      "sources": {
        "GDELT": 95,
        "GDELT_DOC": 943,
        "DIRECT_FEED": 2,
        "USGS": 0,
        "GDACS": 0
      },
      "last7_score": 630.479,
      "prev7_score": 8.429,
      "trend": "up",
      "trend_arrow": "🔺",
      "change_pct": 7379.5,
      "place": "SO ORP Kralupy nad Vltavou, Czechia"
    },
    {
      "lon": 25.25,
      "lat": 54.75,
      "type": "hotspot_cell",
      "score": 406.6,
      "count": 708,
      "cell_deg": 0.5,
      "sources": {
        "GDELT": 66,
        "GDELT_DOC": 642,
        "DIRECT_FEED": 0,
        "USGS": 0,
        "GDACS": 0
      },
      "last7_score": 400.096,
      "prev7_score": 6.504,
      "trend": "up",
      "trend_arrow": "🔺",
      "change_pct": 6051.2,
      "place": "Vilnius County, Lithuania"
    },
    {
      "lon": 25.25,
      "lat": 46.25,
      "type": "hotspot_cell",
      "score": 196.422,
      "count": 438,
      "cell_deg": 0.5,
      "sources": {
        "GDELT": 438,
        "GDELT_DOC": 0,
        "DIRECT_FEED": 0,
        "USGS": 0,
        "GDACS": 0
      },
      "last7_score": 162.566,
      "prev7_score": 33.856,
      "trend": "up",
      "trend_arrow": "🔺",
      "change_pct": 380.2,
      "place": "Harghita, Romania"
    },
    {
      "lon": 19.25,
      "lat": 47.75,
      "type": "hotspot_cell",
      "score": 178.483,
      "count": 356,
      "cell_deg": 0.5,
      "sources": {
        "GDELT": 178,
        "GDELT_DOC": 0,
        "DIRECT_FEED": 178,
        "USGS": 0,
        "GDACS": 0
      },
      "last7_score": 164.398,
      "prev7_score": 14.085,
      "trend": "up",
      "trend_arrow": "🔺",
      "change_pct": 1067.2,
      "place": "Pest, Hungary"
    },
    {
      "lon": 20.25,
      "lat": 52.25,
      "type": "hotspot_cell",
      "score": 148.635,
      "count": 392,
      "cell_deg": 0.5,
      "sources": {
        "GDELT": 392,
        "GDELT_DOC": 0,
        "DIRECT_FEED": 0,
        "USGS": 0,
        "GDACS": 0
      },
      "last7_score": 112.668,
      "prev7_score": 35.967,
      "trend": "up",
      "trend_arrow": "🔺",
      "change_pct": 213.3,
      "place": "Sochaczew County, Poland"
    },
    {
      "lon": 24.25,
      "lat": 56.75,
      "type": "hotspot_cell",
      "score": 102.815,
      "count": 153,
      "cell_deg": 0.5,
      "sources": {
        "GDELT": 18,
        "GDELT_DOC": 0,
        "DIRECT_FEED": 135,
        "USGS": 0,
        "GDACS": 0
      },
      "last7_score": 101.387,
      "prev7_score": 1.428,
      "trend": "up",
      "trend_arrow": "🔺",
      "change_pct": 6999.4,
      "place": "Ķekavas novads, Latvia"
    },
    {
      "lon": 20.25,
      "lat": 47.25,
      "type": "hotspot_cell",
      "score": 60.216,
      "count": 175,
      "cell_deg": 0.5,
      "sources": {
        "GDELT": 175,
        "GDELT_DOC": 0,
        "DIRECT_FEED": 0,
        "USGS": 0,
        "GDACS": 0
      },
      "last7_score": 45.842,
      "prev7_score": 14.374,
      "trend": "up",
      "trend_arrow": "🔺",
      "change_pct": 218.9,
      "place": "Jász-Nagykun-Szolnok, Hungary"
    },
    {
      "lon": 21.25,
      "lat": 52.25,
      "type": "hotspot_cell",
      "score": 59.08,
      "count": 190,
      "cell_deg": 0.5,
      "sources": {
        "GDELT": 190,
        "GDELT_DOC": 0,
        "DIRECT_FEED": 0,
        "USGS": 0,
        "GDACS": 0
      },
      "last7_score": 39.08,
      "prev7_score": 20.0,
      "trend": "up",
      "trend_arrow": "🔺",
      "change_pct": 95.4,
      "place": "Warsaw, Poland"
    },
    {
      "lon": 27.75,
      "lat": 47.25,
      "type": "hotspot_cell",
      "score": 53.726,
      "count": 67,
      "cell_deg": 0.5,
      "sources": {
        "GDELT": 0,
        "GDELT_DOC": 67,
        "DIRECT_FEED": 0,
        "USGS": 0,
        "GDACS": 0
      },
      "last7_score": 53.726,
      "prev7_score": 0.0,
      "trend": "new",
      "trend_arrow": "🆕",
      "change_pct": null,
      "place": "Iași, Romania"
    }
  ]
}