{
  "generated_utc": "2026-04-03T07:15:00Z",
  "top": [
    {
      "lon": 14.25,
      "lat": 50.25,
      "type": "hotspot_cell",
      "score": 962.786,
      "count": 1555,
      "cell_deg": 0.5,
      "sources": {
        "GDELT": 111,
        "GDELT_DOC": 1442,
        "DIRECT_FEED": 2,
        "USGS": 0,
        "GDACS": 0
      },
      "last7_score": 951.395,
      "prev7_score": 11.391,
      "trend": "up",
      "trend_arrow": "🔺",
      "change_pct": 8252.3,
      "place": "SO ORP Kralupy nad Vltavou, Czechia"
    },
    {
      "lon": 26.25,
      "lat": 44.25,
      "type": "hotspot_cell",
      "score": 879.764,
      "count": 1350,
      "cell_deg": 0.5,
      "sources": {
        "GDELT": 153,
        "GDELT_DOC": 1193,
        "DIRECT_FEED": 4,
        "USGS": 0,
        "GDACS": 0
      },
      "last7_score": 870.353,
      "prev7_score": 9.41,
      "trend": "up",
      "trend_arrow": "🔺",
      "change_pct": 9148.9,
      "place": "Giurgiu, Romania"
    },
    {
      "lon": 25.25,
      "lat": 54.75,
      "type": "hotspot_cell",
      "score": 678.676,
      "count": 1165,
      "cell_deg": 0.5,
      "sources": {
        "GDELT": 83,
        "GDELT_DOC": 1082,
        "DIRECT_FEED": 0,
        "USGS": 0,
        "GDACS": 0
      },
      "last7_score": 670.856,
      "prev7_score": 7.82,
      "trend": "up",
      "trend_arrow": "🔺",
      "change_pct": 8478.5,
      "place": "Vilnius County, Lithuania"
    },
    {
      "lon": 19.25,
      "lat": 47.75,
      "type": "hotspot_cell",
      "score": 251.369,
      "count": 484,
      "cell_deg": 0.5,
      "sources": {
        "GDELT": 256,
        "GDELT_DOC": 0,
        "DIRECT_FEED": 228,
        "USGS": 0,
        "GDACS": 0
      },
      "last7_score": 225.568,
      "prev7_score": 25.801,
      "trend": "up",
      "trend_arrow": "🔺",
      "change_pct": 774.3,
      "place": "Pest, Hungary"
    },
    {
      "lon": 20.25,
      "lat": 52.25,
      "type": "hotspot_cell",
      "score": 184.873,
      "count": 443,
      "cell_deg": 0.5,
      "sources": {
        "GDELT": 443,
        "GDELT_DOC": 0,
        "DIRECT_FEED": 0,
        "USGS": 0,
        "GDACS": 0
      },
      "last7_score": 152.725,
      "prev7_score": 32.148,
      "trend": "up",
      "trend_arrow": "🔺",
      "change_pct": 375.1,
      "place": "Sochaczew County, Poland"
    },
    {
      "lon": 20.25,
      "lat": 47.25,
      "type": "hotspot_cell",
      "score": 118.727,
      "count": 305,
      "cell_deg": 0.5,
      "sources": {
        "GDELT": 305,
        "GDELT_DOC": 0,
        "DIRECT_FEED": 0,
        "USGS": 0,
        "GDACS": 0
      },
      "last7_score": 93.313,
      "prev7_score": 25.414,
      "trend": "up",
      "trend_arrow": "🔺",
      "change_pct": 267.2,
      "place": "Jász-Nagykun-Szolnok, Hungary"
    },
    {
      "lon": 24.25,
      "lat": 56.75,
      "type": "hotspot_cell",
      "score": 118.522,
      "count": 177,
      "cell_deg": 0.5,
      "sources": {
        "GDELT": 43,
        "GDELT_DOC": 0,
        "DIRECT_FEED": 134,
        "USGS": 0,
        "GDACS": 0
      },
      "last7_score": 114.363,
      "prev7_score": 4.159,
      "trend": "up",
      "trend_arrow": "🔺",
      "change_pct": 2649.9,
      "place": "Ķekavas novads, Latvia"
    },
    {
      "lon": 25.25,
      "lat": 46.25,
      "type": "hotspot_cell",
      "score": 115.97,
      "count": 298,
      "cell_deg": 0.5,
      "sources": {
        "GDELT": 298,
        "GDELT_DOC": 0,
        "DIRECT_FEED": 0,
        "USGS": 0,
        "GDACS": 0
      },
      "last7_score": 88.637,
      "prev7_score": 27.333,
      "trend": "up",
      "trend_arrow": "🔺",
      "change_pct": 224.3,
      "place": "Harghita, Romania"
    },
    {
      "lon": 27.75,
      "lat": 47.25,
      "type": "hotspot_cell",
      "score": 62.458,
      "count": 91,
      "cell_deg": 0.5,
      "sources": {
        "GDELT": 0,
        "GDELT_DOC": 91,
        "DIRECT_FEED": 0,
        "USGS": 0,
        "GDACS": 0
      },
      "last7_score": 62.458,
      "prev7_score": 0.0,
      "trend": "new",
      "trend_arrow": "🆕",
      "change_pct": null,
      "place": "Iași, Romania"
    },
    {
      "lon": 15.25,
      "lat": 49.75,
      "type": "hotspot_cell",
      "score": 51.951,
      "count": 139,
      "cell_deg": 0.5,
      "sources": {
        "GDELT": 139,
        "GDELT_DOC": 0,
        "DIRECT_FEED": 0,
        "USGS": 0,
        "GDACS": 0
      },
      "last7_score": 39.984,
      "prev7_score": 11.967,
      "trend": "up",
      "trend_arrow": "🔺",
      "change_pct": 234.1,
      "place": "Vysočina Region, Czechia"
    }
  ]
}