{
  "generated_utc": "2026-03-08T12:57:23Z",
  "top": [
    {
      "lon": 14.25,
      "lat": 50.25,
      "type": "hotspot_cell",
      "score": 452.625,
      "count": 577,
      "cell_deg": 0.5,
      "sources": {
        "GDELT": 160,
        "GDELT_DOC": 417,
        "DIRECT_FEED": 0,
        "USGS": 0,
        "GDACS": 0
      },
      "last7_score": 444.339,
      "prev7_score": 8.286,
      "trend": "up",
      "trend_arrow": "🔺",
      "change_pct": 5262.4,
      "place": "SO ORP Kralupy nad Vltavou, Czechia"
    },
    {
      "lon": 26.25,
      "lat": 44.25,
      "type": "hotspot_cell",
      "score": 381.437,
      "count": 516,
      "cell_deg": 0.5,
      "sources": {
        "GDELT": 179,
        "GDELT_DOC": 337,
        "DIRECT_FEED": 0,
        "USGS": 0,
        "GDACS": 0
      },
      "last7_score": 372.092,
      "prev7_score": 9.345,
      "trend": "up",
      "trend_arrow": "🔺",
      "change_pct": 3881.7,
      "place": "Giurgiu, Romania"
    },
    {
      "lon": 25.25,
      "lat": 54.75,
      "type": "hotspot_cell",
      "score": 264.961,
      "count": 332,
      "cell_deg": 0.5,
      "sources": {
        "GDELT": 75,
        "GDELT_DOC": 257,
        "DIRECT_FEED": 0,
        "USGS": 0,
        "GDACS": 0
      },
      "last7_score": 260.366,
      "prev7_score": 4.596,
      "trend": "up",
      "trend_arrow": "🔺",
      "change_pct": 5565.3,
      "place": "Vilnius County, Lithuania"
    },
    {
      "lon": 19.25,
      "lat": 47.75,
      "type": "hotspot_cell",
      "score": 226.893,
      "count": 520,
      "cell_deg": 0.5,
      "sources": {
        "GDELT": 466,
        "GDELT_DOC": 0,
        "DIRECT_FEED": 54,
        "USGS": 0,
        "GDACS": 0
      },
      "last7_score": 202.595,
      "prev7_score": 24.298,
      "trend": "up",
      "trend_arrow": "🔺",
      "change_pct": 733.8,
      "place": "Pest, Hungary"
    },
    {
      "lon": 20.25,
      "lat": 52.25,
      "type": "hotspot_cell",
      "score": 186.916,
      "count": 554,
      "cell_deg": 0.5,
      "sources": {
        "GDELT": 554,
        "GDELT_DOC": 0,
        "DIRECT_FEED": 0,
        "USGS": 0,
        "GDACS": 0
      },
      "last7_score": 151.72,
      "prev7_score": 35.195,
      "trend": "up",
      "trend_arrow": "🔺",
      "change_pct": 331.1,
      "place": "Sochaczew County, Poland"
    },
    {
      "lon": 20.25,
      "lat": 47.25,
      "type": "hotspot_cell",
      "score": 132.218,
      "count": 411,
      "cell_deg": 0.5,
      "sources": {
        "GDELT": 411,
        "GDELT_DOC": 0,
        "DIRECT_FEED": 0,
        "USGS": 0,
        "GDACS": 0
      },
      "last7_score": 106.468,
      "prev7_score": 25.75,
      "trend": "up",
      "trend_arrow": "🔺",
      "change_pct": 313.5,
      "place": "Jász-Nagykun-Szolnok, Hungary"
    },
    {
      "lon": 25.25,
      "lat": 46.25,
      "type": "hotspot_cell",
      "score": 98.165,
      "count": 325,
      "cell_deg": 0.5,
      "sources": {
        "GDELT": 325,
        "GDELT_DOC": 0,
        "DIRECT_FEED": 0,
        "USGS": 0,
        "GDACS": 0
      },
      "last7_score": 79.144,
      "prev7_score": 19.021,
      "trend": "up",
      "trend_arrow": "🔺",
      "change_pct": 316.1,
      "place": "Harghita, Romania"
    },
    {
      "lon": 21.25,
      "lat": 52.25,
      "type": "hotspot_cell",
      "score": 86.043,
      "count": 246,
      "cell_deg": 0.5,
      "sources": {
        "GDELT": 246,
        "GDELT_DOC": 0,
        "DIRECT_FEED": 0,
        "USGS": 0,
        "GDACS": 0
      },
      "last7_score": 70.245,
      "prev7_score": 15.799,
      "trend": "up",
      "trend_arrow": "🔺",
      "change_pct": 344.6,
      "place": "Warsaw, Poland"
    },
    {
      "lon": 15.25,
      "lat": 49.75,
      "type": "hotspot_cell",
      "score": 63.453,
      "count": 170,
      "cell_deg": 0.5,
      "sources": {
        "GDELT": 170,
        "GDELT_DOC": 0,
        "DIRECT_FEED": 0,
        "USGS": 0,
        "GDACS": 0
      },
      "last7_score": 53.599,
      "prev7_score": 9.854,
      "trend": "up",
      "trend_arrow": "🔺",
      "change_pct": 443.9,
      "place": "Vysočina Region, Czechia"
    },
    {
      "lon": 24.25,
      "lat": 56.25,
      "type": "hotspot_cell",
      "score": 53.109,
      "count": 156,
      "cell_deg": 0.5,
      "sources": {
        "GDELT": 156,
        "GDELT_DOC": 0,
        "DIRECT_FEED": 0,
        "USGS": 0,
        "GDACS": 0
      },
      "last7_score": 44.235,
      "prev7_score": 8.875,
      "trend": "up",
      "trend_arrow": "🔺",
      "change_pct": 398.4,
      "place": "Namišių seniūnija, Lithuania"
    }
  ]
}