{
  "generated_utc": "2026-05-17T08:27:23Z",
  "top": [
    {
      "lon": 14.25,
      "lat": 50.25,
      "type": "hotspot_cell",
      "score": 945.69,
      "count": 1629,
      "cell_deg": 0.5,
      "sources": {
        "GDELT": 119,
        "GDELT_DOC": 1506,
        "DIRECT_FEED": 4,
        "USGS": 0,
        "GDACS": 0
      },
      "last7_score": 938.765,
      "prev7_score": 6.924,
      "trend": "up",
      "trend_arrow": "🔺",
      "change_pct": 13457.9,
      "place": "SO ORP Kralupy nad Vltavou, Czechia"
    },
    {
      "lon": 26.25,
      "lat": 44.25,
      "type": "hotspot_cell",
      "score": 830.231,
      "count": 1442,
      "cell_deg": 0.5,
      "sources": {
        "GDELT": 227,
        "GDELT_DOC": 1209,
        "DIRECT_FEED": 6,
        "USGS": 0,
        "GDACS": 0
      },
      "last7_score": 820.514,
      "prev7_score": 9.717,
      "trend": "up",
      "trend_arrow": "🔺",
      "change_pct": 8343.9,
      "place": "Giurgiu, Romania"
    },
    {
      "lon": 25.25,
      "lat": 54.75,
      "type": "hotspot_cell",
      "score": 655.891,
      "count": 1031,
      "cell_deg": 0.5,
      "sources": {
        "GDELT": 73,
        "GDELT_DOC": 958,
        "DIRECT_FEED": 0,
        "USGS": 0,
        "GDACS": 0
      },
      "last7_score": 651.019,
      "prev7_score": 4.872,
      "trend": "up",
      "trend_arrow": "🔺",
      "change_pct": 13262.6,
      "place": "Vilnius County, Lithuania"
    },
    {
      "lon": 19.25,
      "lat": 47.75,
      "type": "hotspot_cell",
      "score": 240.764,
      "count": 527,
      "cell_deg": 0.5,
      "sources": {
        "GDELT": 298,
        "GDELT_DOC": 0,
        "DIRECT_FEED": 229,
        "USGS": 0,
        "GDACS": 0
      },
      "last7_score": 217.284,
      "prev7_score": 23.48,
      "trend": "up",
      "trend_arrow": "🔺",
      "change_pct": 825.4,
      "place": "Pest, Hungary"
    },
    {
      "lon": 20.25,
      "lat": 52.25,
      "type": "hotspot_cell",
      "score": 238.67,
      "count": 599,
      "cell_deg": 0.5,
      "sources": {
        "GDELT": 599,
        "GDELT_DOC": 0,
        "DIRECT_FEED": 0,
        "USGS": 0,
        "GDACS": 0
      },
      "last7_score": 202.716,
      "prev7_score": 35.954,
      "trend": "up",
      "trend_arrow": "🔺",
      "change_pct": 463.8,
      "place": "Sochaczew County, Poland"
    },
    {
      "lon": 24.25,
      "lat": 56.75,
      "type": "hotspot_cell",
      "score": 123.61,
      "count": 201,
      "cell_deg": 0.5,
      "sources": {
        "GDELT": 44,
        "GDELT_DOC": 0,
        "DIRECT_FEED": 157,
        "USGS": 0,
        "GDACS": 0
      },
      "last7_score": 121.281,
      "prev7_score": 2.329,
      "trend": "up",
      "trend_arrow": "🔺",
      "change_pct": 5107.0,
      "place": "Ķekavas novads, Latvia"
    },
    {
      "lon": 25.25,
      "lat": 46.25,
      "type": "hotspot_cell",
      "score": 100.004,
      "count": 299,
      "cell_deg": 0.5,
      "sources": {
        "GDELT": 299,
        "GDELT_DOC": 0,
        "DIRECT_FEED": 0,
        "USGS": 0,
        "GDACS": 0
      },
      "last7_score": 84.162,
      "prev7_score": 15.843,
      "trend": "up",
      "trend_arrow": "🔺",
      "change_pct": 431.2,
      "place": "Harghita, Romania"
    },
    {
      "lon": 20.25,
      "lat": 47.25,
      "type": "hotspot_cell",
      "score": 99.103,
      "count": 290,
      "cell_deg": 0.5,
      "sources": {
        "GDELT": 290,
        "GDELT_DOC": 0,
        "DIRECT_FEED": 0,
        "USGS": 0,
        "GDACS": 0
      },
      "last7_score": 80.753,
      "prev7_score": 18.349,
      "trend": "up",
      "trend_arrow": "🔺",
      "change_pct": 340.1,
      "place": "Jász-Nagykun-Szolnok, Hungary"
    },
    {
      "lon": 21.25,
      "lat": 52.25,
      "type": "hotspot_cell",
      "score": 87.783,
      "count": 216,
      "cell_deg": 0.5,
      "sources": {
        "GDELT": 216,
        "GDELT_DOC": 0,
        "DIRECT_FEED": 0,
        "USGS": 0,
        "GDACS": 0
      },
      "last7_score": 74.4,
      "prev7_score": 13.382,
      "trend": "up",
      "trend_arrow": "🔺",
      "change_pct": 456.0,
      "place": "Warsaw, Poland"
    },
    {
      "lon": 25.25,
      "lat": 57.25,
      "type": "hotspot_cell",
      "score": 84.878,
      "count": 167,
      "cell_deg": 0.5,
      "sources": {
        "GDELT": 167,
        "GDELT_DOC": 0,
        "DIRECT_FEED": 0,
        "USGS": 0,
        "GDACS": 0
      },
      "last7_score": 78.415,
      "prev7_score": 6.463,
      "trend": "up",
      "trend_arrow": "🔺",
      "change_pct": 1113.3,
      "place": "Cēsu novads, Latvia"
    }
  ]
}