{
  "generated_utc": "2026-04-05T02:37:17Z",
  "top": [
    {
      "lon": 26.25,
      "lat": 44.25,
      "type": "hotspot_cell",
      "score": 790.387,
      "count": 1393,
      "cell_deg": 0.5,
      "sources": {
        "GDELT": 163,
        "GDELT_DOC": 1225,
        "DIRECT_FEED": 5,
        "USGS": 0,
        "GDACS": 0
      },
      "last7_score": 783.607,
      "prev7_score": 6.78,
      "trend": "up",
      "trend_arrow": "🔺",
      "change_pct": 11457.9,
      "place": "Giurgiu, Romania"
    },
    {
      "lon": 14.25,
      "lat": 50.25,
      "type": "hotspot_cell",
      "score": 785.427,
      "count": 1430,
      "cell_deg": 0.5,
      "sources": {
        "GDELT": 107,
        "GDELT_DOC": 1321,
        "DIRECT_FEED": 2,
        "USGS": 0,
        "GDACS": 0
      },
      "last7_score": 776.743,
      "prev7_score": 8.685,
      "trend": "up",
      "trend_arrow": "🔺",
      "change_pct": 8843.8,
      "place": "SO ORP Kralupy nad Vltavou, Czechia"
    },
    {
      "lon": 25.25,
      "lat": 54.75,
      "type": "hotspot_cell",
      "score": 583.413,
      "count": 1094,
      "cell_deg": 0.5,
      "sources": {
        "GDELT": 90,
        "GDELT_DOC": 1004,
        "DIRECT_FEED": 0,
        "USGS": 0,
        "GDACS": 0
      },
      "last7_score": 577.691,
      "prev7_score": 5.722,
      "trend": "up",
      "trend_arrow": "🔺",
      "change_pct": 9996.0,
      "place": "Vilnius County, Lithuania"
    },
    {
      "lon": 19.25,
      "lat": 47.75,
      "type": "hotspot_cell",
      "score": 219.829,
      "count": 484,
      "cell_deg": 0.5,
      "sources": {
        "GDELT": 268,
        "GDELT_DOC": 0,
        "DIRECT_FEED": 216,
        "USGS": 0,
        "GDACS": 0
      },
      "last7_score": 200.043,
      "prev7_score": 19.786,
      "trend": "up",
      "trend_arrow": "🔺",
      "change_pct": 911.0,
      "place": "Pest, Hungary"
    },
    {
      "lon": 20.25,
      "lat": 52.25,
      "type": "hotspot_cell",
      "score": 164.451,
      "count": 466,
      "cell_deg": 0.5,
      "sources": {
        "GDELT": 466,
        "GDELT_DOC": 0,
        "DIRECT_FEED": 0,
        "USGS": 0,
        "GDACS": 0
      },
      "last7_score": 131.357,
      "prev7_score": 33.094,
      "trend": "up",
      "trend_arrow": "🔺",
      "change_pct": 296.9,
      "place": "Sochaczew County, Poland"
    },
    {
      "lon": 20.25,
      "lat": 47.25,
      "type": "hotspot_cell",
      "score": 97.611,
      "count": 299,
      "cell_deg": 0.5,
      "sources": {
        "GDELT": 299,
        "GDELT_DOC": 0,
        "DIRECT_FEED": 0,
        "USGS": 0,
        "GDACS": 0
      },
      "last7_score": 79.275,
      "prev7_score": 18.336,
      "trend": "up",
      "trend_arrow": "🔺",
      "change_pct": 332.3,
      "place": "Jász-Nagykun-Szolnok, Hungary"
    },
    {
      "lon": 24.25,
      "lat": 56.75,
      "type": "hotspot_cell",
      "score": 96.794,
      "count": 171,
      "cell_deg": 0.5,
      "sources": {
        "GDELT": 42,
        "GDELT_DOC": 0,
        "DIRECT_FEED": 129,
        "USGS": 0,
        "GDACS": 0
      },
      "last7_score": 93.635,
      "prev7_score": 3.159,
      "trend": "up",
      "trend_arrow": "🔺",
      "change_pct": 2864.0,
      "place": "Ķekavas novads, Latvia"
    },
    {
      "lon": 25.25,
      "lat": 46.25,
      "type": "hotspot_cell",
      "score": 92.918,
      "count": 300,
      "cell_deg": 0.5,
      "sources": {
        "GDELT": 300,
        "GDELT_DOC": 0,
        "DIRECT_FEED": 0,
        "USGS": 0,
        "GDACS": 0
      },
      "last7_score": 73.979,
      "prev7_score": 18.939,
      "trend": "up",
      "trend_arrow": "🔺",
      "change_pct": 290.6,
      "place": "Harghita, Romania"
    },
    {
      "lon": 27.75,
      "lat": 47.25,
      "type": "hotspot_cell",
      "score": 52.331,
      "count": 89,
      "cell_deg": 0.5,
      "sources": {
        "GDELT": 0,
        "GDELT_DOC": 89,
        "DIRECT_FEED": 0,
        "USGS": 0,
        "GDACS": 0
      },
      "last7_score": 52.331,
      "prev7_score": 0.0,
      "trend": "new",
      "trend_arrow": "🆕",
      "change_pct": null,
      "place": "Iași, Romania"
    },
    {
      "lon": 21.25,
      "lat": 52.25,
      "type": "hotspot_cell",
      "score": 44.919,
      "count": 130,
      "cell_deg": 0.5,
      "sources": {
        "GDELT": 130,
        "GDELT_DOC": 0,
        "DIRECT_FEED": 0,
        "USGS": 0,
        "GDACS": 0
      },
      "last7_score": 35.985,
      "prev7_score": 8.934,
      "trend": "up",
      "trend_arrow": "🔺",
      "change_pct": 302.8,
      "place": "Warsaw, Poland"
    }
  ]
}