{
  "generated_utc": "2026-04-23T08:02:10Z",
  "top": [
    {
      "lon": 14.25,
      "lat": 50.25,
      "type": "hotspot_cell",
      "score": 983.625,
      "count": 1477,
      "cell_deg": 0.5,
      "sources": {
        "GDELT": 152,
        "GDELT_DOC": 1321,
        "DIRECT_FEED": 4,
        "USGS": 0,
        "GDACS": 0
      },
      "last7_score": 972.638,
      "prev7_score": 10.987,
      "trend": "up",
      "trend_arrow": "🔺",
      "change_pct": 8752.5,
      "place": "SO ORP Kralupy nad Vltavou, Czechia"
    },
    {
      "lon": 26.25,
      "lat": 44.25,
      "type": "hotspot_cell",
      "score": 830.954,
      "count": 1313,
      "cell_deg": 0.5,
      "sources": {
        "GDELT": 122,
        "GDELT_DOC": 1187,
        "DIRECT_FEED": 4,
        "USGS": 0,
        "GDACS": 0
      },
      "last7_score": 822.749,
      "prev7_score": 8.204,
      "trend": "up",
      "trend_arrow": "🔺",
      "change_pct": 9928.1,
      "place": "Giurgiu, Romania"
    },
    {
      "lon": 25.25,
      "lat": 54.75,
      "type": "hotspot_cell",
      "score": 667.664,
      "count": 1028,
      "cell_deg": 0.5,
      "sources": {
        "GDELT": 70,
        "GDELT_DOC": 958,
        "DIRECT_FEED": 0,
        "USGS": 0,
        "GDACS": 0
      },
      "last7_score": 661.094,
      "prev7_score": 6.57,
      "trend": "up",
      "trend_arrow": "🔺",
      "change_pct": 9962.3,
      "place": "Vilnius County, Lithuania"
    },
    {
      "lon": 19.25,
      "lat": 47.75,
      "type": "hotspot_cell",
      "score": 459.031,
      "count": 1276,
      "cell_deg": 0.5,
      "sources": {
        "GDELT": 1020,
        "GDELT_DOC": 0,
        "DIRECT_FEED": 256,
        "USGS": 0,
        "GDACS": 0
      },
      "last7_score": 358.813,
      "prev7_score": 100.219,
      "trend": "up",
      "trend_arrow": "🔺",
      "change_pct": 258.0,
      "place": "Pest, Hungary"
    },
    {
      "lon": 20.25,
      "lat": 47.25,
      "type": "hotspot_cell",
      "score": 281.056,
      "count": 827,
      "cell_deg": 0.5,
      "sources": {
        "GDELT": 827,
        "GDELT_DOC": 0,
        "DIRECT_FEED": 0,
        "USGS": 0,
        "GDACS": 0
      },
      "last7_score": 206.399,
      "prev7_score": 74.658,
      "trend": "up",
      "trend_arrow": "🔺",
      "change_pct": 176.5,
      "place": "Jász-Nagykun-Szolnok, Hungary"
    },
    {
      "lon": 20.25,
      "lat": 52.25,
      "type": "hotspot_cell",
      "score": 178.508,
      "count": 428,
      "cell_deg": 0.5,
      "sources": {
        "GDELT": 428,
        "GDELT_DOC": 0,
        "DIRECT_FEED": 0,
        "USGS": 0,
        "GDACS": 0
      },
      "last7_score": 148.384,
      "prev7_score": 30.124,
      "trend": "up",
      "trend_arrow": "🔺",
      "change_pct": 392.6,
      "place": "Sochaczew County, Poland"
    },
    {
      "lon": 24.25,
      "lat": 56.75,
      "type": "hotspot_cell",
      "score": 120.917,
      "count": 174,
      "cell_deg": 0.5,
      "sources": {
        "GDELT": 30,
        "GDELT_DOC": 0,
        "DIRECT_FEED": 144,
        "USGS": 0,
        "GDACS": 0
      },
      "last7_score": 117.559,
      "prev7_score": 3.358,
      "trend": "up",
      "trend_arrow": "🔺",
      "change_pct": 3401.1,
      "place": "Ķekavas novads, Latvia"
    },
    {
      "lon": 25.25,
      "lat": 46.25,
      "type": "hotspot_cell",
      "score": 91.736,
      "count": 230,
      "cell_deg": 0.5,
      "sources": {
        "GDELT": 230,
        "GDELT_DOC": 0,
        "DIRECT_FEED": 0,
        "USGS": 0,
        "GDACS": 0
      },
      "last7_score": 70.313,
      "prev7_score": 21.423,
      "trend": "up",
      "trend_arrow": "🔺",
      "change_pct": 228.2,
      "place": "Harghita, Romania"
    },
    {
      "lon": 15.25,
      "lat": 49.75,
      "type": "hotspot_cell",
      "score": 76.231,
      "count": 198,
      "cell_deg": 0.5,
      "sources": {
        "GDELT": 198,
        "GDELT_DOC": 0,
        "DIRECT_FEED": 0,
        "USGS": 0,
        "GDACS": 0
      },
      "last7_score": 62.205,
      "prev7_score": 14.026,
      "trend": "up",
      "trend_arrow": "🔺",
      "change_pct": 343.5,
      "place": "Vysočina Region, Czechia"
    },
    {
      "lon": 27.75,
      "lat": 47.25,
      "type": "hotspot_cell",
      "score": 70.623,
      "count": 89,
      "cell_deg": 0.5,
      "sources": {
        "GDELT": 0,
        "GDELT_DOC": 89,
        "DIRECT_FEED": 0,
        "USGS": 0,
        "GDACS": 0
      },
      "last7_score": 70.623,
      "prev7_score": 0.0,
      "trend": "new",
      "trend_arrow": "🆕",
      "change_pct": null,
      "place": "Iași, Romania"
    }
  ]
}