{
  "generated_utc": "2026-04-19T13:11:45Z",
  "top": [
    {
      "lon": 14.25,
      "lat": 50.25,
      "type": "hotspot_cell",
      "score": 793.44,
      "count": 1403,
      "cell_deg": 0.5,
      "sources": {
        "GDELT": 125,
        "GDELT_DOC": 1277,
        "DIRECT_FEED": 1,
        "USGS": 0,
        "GDACS": 0
      },
      "last7_score": 788.862,
      "prev7_score": 4.578,
      "trend": "up",
      "trend_arrow": "🔺",
      "change_pct": 17132.5,
      "place": "SO ORP Kralupy nad Vltavou, Czechia"
    },
    {
      "lon": 26.25,
      "lat": 44.25,
      "type": "hotspot_cell",
      "score": 701.456,
      "count": 1239,
      "cell_deg": 0.5,
      "sources": {
        "GDELT": 106,
        "GDELT_DOC": 1131,
        "DIRECT_FEED": 2,
        "USGS": 0,
        "GDACS": 0
      },
      "last7_score": 696.698,
      "prev7_score": 4.759,
      "trend": "up",
      "trend_arrow": "🔺",
      "change_pct": 14540.9,
      "place": "Giurgiu, Romania"
    },
    {
      "lon": 19.25,
      "lat": 47.75,
      "type": "hotspot_cell",
      "score": 515.253,
      "count": 1505,
      "cell_deg": 0.5,
      "sources": {
        "GDELT": 1190,
        "GDELT_DOC": 0,
        "DIRECT_FEED": 315,
        "USGS": 0,
        "GDACS": 0
      },
      "last7_score": 432.532,
      "prev7_score": 82.721,
      "trend": "up",
      "trend_arrow": "🔺",
      "change_pct": 422.9,
      "place": "Pest, Hungary"
    },
    {
      "lon": 25.25,
      "lat": 54.75,
      "type": "hotspot_cell",
      "score": 456.326,
      "count": 794,
      "cell_deg": 0.5,
      "sources": {
        "GDELT": 75,
        "GDELT_DOC": 719,
        "DIRECT_FEED": 0,
        "USGS": 0,
        "GDACS": 0
      },
      "last7_score": 452.473,
      "prev7_score": 3.853,
      "trend": "up",
      "trend_arrow": "🔺",
      "change_pct": 11644.0,
      "place": "Vilnius County, Lithuania"
    },
    {
      "lon": 20.25,
      "lat": 47.25,
      "type": "hotspot_cell",
      "score": 271.317,
      "count": 806,
      "cell_deg": 0.5,
      "sources": {
        "GDELT": 806,
        "GDELT_DOC": 0,
        "DIRECT_FEED": 0,
        "USGS": 0,
        "GDACS": 0
      },
      "last7_score": 222.743,
      "prev7_score": 48.574,
      "trend": "up",
      "trend_arrow": "🔺",
      "change_pct": 358.6,
      "place": "Jász-Nagykun-Szolnok, Hungary"
    },
    {
      "lon": 20.25,
      "lat": 52.25,
      "type": "hotspot_cell",
      "score": 150.359,
      "count": 403,
      "cell_deg": 0.5,
      "sources": {
        "GDELT": 403,
        "GDELT_DOC": 0,
        "DIRECT_FEED": 0,
        "USGS": 0,
        "GDACS": 0
      },
      "last7_score": 127.494,
      "prev7_score": 22.865,
      "trend": "up",
      "trend_arrow": "🔺",
      "change_pct": 457.6,
      "place": "Sochaczew County, Poland"
    },
    {
      "lon": 24.25,
      "lat": 56.75,
      "type": "hotspot_cell",
      "score": 91.925,
      "count": 157,
      "cell_deg": 0.5,
      "sources": {
        "GDELT": 32,
        "GDELT_DOC": 0,
        "DIRECT_FEED": 125,
        "USGS": 0,
        "GDACS": 0
      },
      "last7_score": 90.411,
      "prev7_score": 1.514,
      "trend": "up",
      "trend_arrow": "🔺",
      "change_pct": 5873.1,
      "place": "Ķekavas novads, Latvia"
    },
    {
      "lon": 25.25,
      "lat": 46.25,
      "type": "hotspot_cell",
      "score": 86.687,
      "count": 258,
      "cell_deg": 0.5,
      "sources": {
        "GDELT": 258,
        "GDELT_DOC": 0,
        "DIRECT_FEED": 0,
        "USGS": 0,
        "GDACS": 0
      },
      "last7_score": 75.149,
      "prev7_score": 11.538,
      "trend": "up",
      "trend_arrow": "🔺",
      "change_pct": 551.3,
      "place": "Harghita, Romania"
    },
    {
      "lon": 15.25,
      "lat": 49.75,
      "type": "hotspot_cell",
      "score": 70.569,
      "count": 179,
      "cell_deg": 0.5,
      "sources": {
        "GDELT": 179,
        "GDELT_DOC": 0,
        "DIRECT_FEED": 0,
        "USGS": 0,
        "GDACS": 0
      },
      "last7_score": 61.32,
      "prev7_score": 9.249,
      "trend": "up",
      "trend_arrow": "🔺",
      "change_pct": 563.0,
      "place": "Vysočina Region, Czechia"
    },
    {
      "lon": 21.25,
      "lat": 52.25,
      "type": "hotspot_cell",
      "score": 66.506,
      "count": 177,
      "cell_deg": 0.5,
      "sources": {
        "GDELT": 177,
        "GDELT_DOC": 0,
        "DIRECT_FEED": 0,
        "USGS": 0,
        "GDACS": 0
      },
      "last7_score": 60.559,
      "prev7_score": 5.947,
      "trend": "up",
      "trend_arrow": "🔺",
      "change_pct": 918.4,
      "place": "Warsaw, Poland"
    }
  ]
}