{
  "generated_utc": "2026-06-04T09:51:35Z",
  "top": [
    {
      "lon": 26.25,
      "lat": 44.25,
      "type": "hotspot_cell",
      "score": 671.931,
      "count": 1124,
      "cell_deg": 0.5,
      "sources": {
        "GDELT": 221,
        "GDELT_DOC": 891,
        "DIRECT_FEED": 12,
        "USGS": 0,
        "GDACS": 0
      },
      "last7_score": 662.546,
      "prev7_score": 9.385,
      "trend": "up",
      "trend_arrow": "🔺",
      "change_pct": 6959.8,
      "place": "Giurgiu, Romania"
    },
    {
      "lon": 14.25,
      "lat": 50.25,
      "type": "hotspot_cell",
      "score": 639.272,
      "count": 1129,
      "cell_deg": 0.5,
      "sources": {
        "GDELT": 139,
        "GDELT_DOC": 983,
        "DIRECT_FEED": 7,
        "USGS": 0,
        "GDACS": 0
      },
      "last7_score": 628.065,
      "prev7_score": 11.206,
      "trend": "up",
      "trend_arrow": "🔺",
      "change_pct": 5504.5,
      "place": "SO ORP Kralupy nad Vltavou, Czechia"
    },
    {
      "lon": 25.25,
      "lat": 54.75,
      "type": "hotspot_cell",
      "score": 582.967,
      "count": 1031,
      "cell_deg": 0.5,
      "sources": {
        "GDELT": 84,
        "GDELT_DOC": 945,
        "DIRECT_FEED": 2,
        "USGS": 0,
        "GDACS": 0
      },
      "last7_score": 576.172,
      "prev7_score": 6.795,
      "trend": "up",
      "trend_arrow": "🔺",
      "change_pct": 8379.9,
      "place": "Vilnius County, Lithuania"
    },
    {
      "lon": 19.25,
      "lat": 47.75,
      "type": "hotspot_cell",
      "score": 243.815,
      "count": 432,
      "cell_deg": 0.5,
      "sources": {
        "GDELT": 243,
        "GDELT_DOC": 0,
        "DIRECT_FEED": 189,
        "USGS": 0,
        "GDACS": 0
      },
      "last7_score": 229.732,
      "prev7_score": 14.083,
      "trend": "up",
      "trend_arrow": "🔺",
      "change_pct": 1531.3,
      "place": "Pest, Hungary"
    },
    {
      "lon": 20.25,
      "lat": 52.25,
      "type": "hotspot_cell",
      "score": 209.19,
      "count": 681,
      "cell_deg": 0.5,
      "sources": {
        "GDELT": 681,
        "GDELT_DOC": 0,
        "DIRECT_FEED": 0,
        "USGS": 0,
        "GDACS": 0
      },
      "last7_score": 157.42,
      "prev7_score": 51.77,
      "trend": "up",
      "trend_arrow": "🔺",
      "change_pct": 204.1,
      "place": "Sochaczew County, Poland"
    },
    {
      "lon": 25.25,
      "lat": 46.25,
      "type": "hotspot_cell",
      "score": 194.26,
      "count": 460,
      "cell_deg": 0.5,
      "sources": {
        "GDELT": 460,
        "GDELT_DOC": 0,
        "DIRECT_FEED": 0,
        "USGS": 0,
        "GDACS": 0
      },
      "last7_score": 171.707,
      "prev7_score": 22.554,
      "trend": "up",
      "trend_arrow": "🔺",
      "change_pct": 661.3,
      "place": "Harghita, Romania"
    },
    {
      "lon": 24.25,
      "lat": 56.75,
      "type": "hotspot_cell",
      "score": 128.586,
      "count": 194,
      "cell_deg": 0.5,
      "sources": {
        "GDELT": 42,
        "GDELT_DOC": 0,
        "DIRECT_FEED": 152,
        "USGS": 0,
        "GDACS": 0
      },
      "last7_score": 124.579,
      "prev7_score": 4.007,
      "trend": "up",
      "trend_arrow": "🔺",
      "change_pct": 3008.8,
      "place": "Ķekavas novads, Latvia"
    },
    {
      "lon": 20.25,
      "lat": 47.25,
      "type": "hotspot_cell",
      "score": 101.054,
      "count": 258,
      "cell_deg": 0.5,
      "sources": {
        "GDELT": 258,
        "GDELT_DOC": 0,
        "DIRECT_FEED": 0,
        "USGS": 0,
        "GDACS": 0
      },
      "last7_score": 82.013,
      "prev7_score": 19.041,
      "trend": "up",
      "trend_arrow": "🔺",
      "change_pct": 330.7,
      "place": "Jász-Nagykun-Szolnok, Hungary"
    },
    {
      "lon": 21.25,
      "lat": 52.25,
      "type": "hotspot_cell",
      "score": 89.702,
      "count": 247,
      "cell_deg": 0.5,
      "sources": {
        "GDELT": 247,
        "GDELT_DOC": 0,
        "DIRECT_FEED": 0,
        "USGS": 0,
        "GDACS": 0
      },
      "last7_score": 73.409,
      "prev7_score": 16.293,
      "trend": "up",
      "trend_arrow": "🔺",
      "change_pct": 350.6,
      "place": "Warsaw, Poland"
    },
    {
      "lon": 24.25,
      "lat": 56.25,
      "type": "hotspot_cell",
      "score": 57.35,
      "count": 142,
      "cell_deg": 0.5,
      "sources": {
        "GDELT": 142,
        "GDELT_DOC": 0,
        "DIRECT_FEED": 0,
        "USGS": 0,
        "GDACS": 0
      },
      "last7_score": 45.253,
      "prev7_score": 12.097,
      "trend": "up",
      "trend_arrow": "🔺",
      "change_pct": 274.1,
      "place": "Namišių seniūnija, Lithuania"
    }
  ]
}