{
  "generated_utc": "2026-05-09T13:23:50Z",
  "top": [
    {
      "lon": 14.25,
      "lat": 50.25,
      "type": "hotspot_cell",
      "score": 810.858,
      "count": 1410,
      "cell_deg": 0.5,
      "sources": {
        "GDELT": 155,
        "GDELT_DOC": 1252,
        "DIRECT_FEED": 3,
        "USGS": 0,
        "GDACS": 0
      },
      "last7_score": 799.336,
      "prev7_score": 11.522,
      "trend": "up",
      "trend_arrow": "🔺",
      "change_pct": 6837.7,
      "place": "SO ORP Kralupy nad Vltavou, Czechia"
    },
    {
      "lon": 26.25,
      "lat": 44.25,
      "type": "hotspot_cell",
      "score": 675.899,
      "count": 1126,
      "cell_deg": 0.5,
      "sources": {
        "GDELT": 154,
        "GDELT_DOC": 963,
        "DIRECT_FEED": 9,
        "USGS": 0,
        "GDACS": 0
      },
      "last7_score": 668.619,
      "prev7_score": 7.28,
      "trend": "up",
      "trend_arrow": "🔺",
      "change_pct": 9084.5,
      "place": "Giurgiu, Romania"
    },
    {
      "lon": 25.25,
      "lat": 54.75,
      "type": "hotspot_cell",
      "score": 654.876,
      "count": 1039,
      "cell_deg": 0.5,
      "sources": {
        "GDELT": 70,
        "GDELT_DOC": 969,
        "DIRECT_FEED": 0,
        "USGS": 0,
        "GDACS": 0
      },
      "last7_score": 650.919,
      "prev7_score": 3.957,
      "trend": "up",
      "trend_arrow": "🔺",
      "change_pct": 16348.7,
      "place": "Vilnius County, Lithuania"
    },
    {
      "lon": 19.25,
      "lat": 47.75,
      "type": "hotspot_cell",
      "score": 240.223,
      "count": 421,
      "cell_deg": 0.5,
      "sources": {
        "GDELT": 238,
        "GDELT_DOC": 0,
        "DIRECT_FEED": 183,
        "USGS": 0,
        "GDACS": 0
      },
      "last7_score": 226.626,
      "prev7_score": 13.597,
      "trend": "up",
      "trend_arrow": "🔺",
      "change_pct": 1566.7,
      "place": "Pest, Hungary"
    },
    {
      "lon": 20.25,
      "lat": 52.25,
      "type": "hotspot_cell",
      "score": 207.948,
      "count": 519,
      "cell_deg": 0.5,
      "sources": {
        "GDELT": 519,
        "GDELT_DOC": 0,
        "DIRECT_FEED": 0,
        "USGS": 0,
        "GDACS": 0
      },
      "last7_score": 178.049,
      "prev7_score": 29.9,
      "trend": "up",
      "trend_arrow": "🔺",
      "change_pct": 495.5,
      "place": "Sochaczew County, Poland"
    },
    {
      "lon": 25.25,
      "lat": 46.25,
      "type": "hotspot_cell",
      "score": 113.299,
      "count": 347,
      "cell_deg": 0.5,
      "sources": {
        "GDELT": 347,
        "GDELT_DOC": 0,
        "DIRECT_FEED": 0,
        "USGS": 0,
        "GDACS": 0
      },
      "last7_score": 88.104,
      "prev7_score": 25.195,
      "trend": "up",
      "trend_arrow": "🔺",
      "change_pct": 249.7,
      "place": "Harghita, Romania"
    },
    {
      "lon": 20.25,
      "lat": 47.25,
      "type": "hotspot_cell",
      "score": 102.359,
      "count": 297,
      "cell_deg": 0.5,
      "sources": {
        "GDELT": 297,
        "GDELT_DOC": 0,
        "DIRECT_FEED": 0,
        "USGS": 0,
        "GDACS": 0
      },
      "last7_score": 83.008,
      "prev7_score": 19.352,
      "trend": "up",
      "trend_arrow": "🔺",
      "change_pct": 328.9,
      "place": "Jász-Nagykun-Szolnok, Hungary"
    },
    {
      "lon": 24.25,
      "lat": 56.75,
      "type": "hotspot_cell",
      "score": 100.448,
      "count": 156,
      "cell_deg": 0.5,
      "sources": {
        "GDELT": 33,
        "GDELT_DOC": 0,
        "DIRECT_FEED": 123,
        "USGS": 0,
        "GDACS": 0
      },
      "last7_score": 99.295,
      "prev7_score": 1.153,
      "trend": "up",
      "trend_arrow": "🔺",
      "change_pct": 8509.9,
      "place": "Ķekavas novads, Latvia"
    },
    {
      "lon": 21.25,
      "lat": 52.25,
      "type": "hotspot_cell",
      "score": 73.242,
      "count": 175,
      "cell_deg": 0.5,
      "sources": {
        "GDELT": 175,
        "GDELT_DOC": 0,
        "DIRECT_FEED": 0,
        "USGS": 0,
        "GDACS": 0
      },
      "last7_score": 63.327,
      "prev7_score": 9.915,
      "trend": "up",
      "trend_arrow": "🔺",
      "change_pct": 538.7,
      "place": "Warsaw, Poland"
    },
    {
      "lon": 27.75,
      "lat": 47.25,
      "type": "hotspot_cell",
      "score": 62.947,
      "count": 89,
      "cell_deg": 0.5,
      "sources": {
        "GDELT": 0,
        "GDELT_DOC": 89,
        "DIRECT_FEED": 0,
        "USGS": 0,
        "GDACS": 0
      },
      "last7_score": 62.947,
      "prev7_score": 0.0,
      "trend": "new",
      "trend_arrow": "🆕",
      "change_pct": null,
      "place": "Iași, Romania"
    }
  ]
}