{
  "generated_utc": "2026-03-28T02:19:09Z",
  "top": [
    {
      "lon": 14.25,
      "lat": 50.25,
      "type": "hotspot_cell",
      "score": 990.59,
      "count": 1469,
      "cell_deg": 0.5,
      "sources": {
        "GDELT": 127,
        "GDELT_DOC": 1339,
        "DIRECT_FEED": 3,
        "USGS": 0,
        "GDACS": 0
      },
      "last7_score": 980.256,
      "prev7_score": 10.335,
      "trend": "up",
      "trend_arrow": "🔺",
      "change_pct": 9384.9,
      "place": "SO ORP Kralupy nad Vltavou, Czechia"
    },
    {
      "lon": 25.25,
      "lat": 54.75,
      "type": "hotspot_cell",
      "score": 658.427,
      "count": 1044,
      "cell_deg": 0.5,
      "sources": {
        "GDELT": 91,
        "GDELT_DOC": 953,
        "DIRECT_FEED": 0,
        "USGS": 0,
        "GDACS": 0
      },
      "last7_score": 650.957,
      "prev7_score": 7.469,
      "trend": "up",
      "trend_arrow": "🔺",
      "change_pct": 8615.1,
      "place": "Vilnius County, Lithuania"
    },
    {
      "lon": 26.25,
      "lat": 44.25,
      "type": "hotspot_cell",
      "score": 609.31,
      "count": 1109,
      "cell_deg": 0.5,
      "sources": {
        "GDELT": 140,
        "GDELT_DOC": 967,
        "DIRECT_FEED": 2,
        "USGS": 0,
        "GDACS": 0
      },
      "last7_score": 599.107,
      "prev7_score": 10.203,
      "trend": "up",
      "trend_arrow": "🔺",
      "change_pct": 5772.1,
      "place": "Giurgiu, Romania"
    },
    {
      "lon": 19.25,
      "lat": 47.75,
      "type": "hotspot_cell",
      "score": 284.54,
      "count": 570,
      "cell_deg": 0.5,
      "sources": {
        "GDELT": 356,
        "GDELT_DOC": 0,
        "DIRECT_FEED": 214,
        "USGS": 0,
        "GDACS": 0
      },
      "last7_score": 257.416,
      "prev7_score": 27.124,
      "trend": "up",
      "trend_arrow": "🔺",
      "change_pct": 849.0,
      "place": "Pest, Hungary"
    },
    {
      "lon": 20.25,
      "lat": 52.25,
      "type": "hotspot_cell",
      "score": 168.715,
      "count": 421,
      "cell_deg": 0.5,
      "sources": {
        "GDELT": 421,
        "GDELT_DOC": 0,
        "DIRECT_FEED": 0,
        "USGS": 0,
        "GDACS": 0
      },
      "last7_score": 134.89,
      "prev7_score": 33.825,
      "trend": "up",
      "trend_arrow": "🔺",
      "change_pct": 298.8,
      "place": "Sochaczew County, Poland"
    },
    {
      "lon": 20.25,
      "lat": 47.25,
      "type": "hotspot_cell",
      "score": 136.343,
      "count": 382,
      "cell_deg": 0.5,
      "sources": {
        "GDELT": 382,
        "GDELT_DOC": 0,
        "DIRECT_FEED": 0,
        "USGS": 0,
        "GDACS": 0
      },
      "last7_score": 103.675,
      "prev7_score": 32.668,
      "trend": "up",
      "trend_arrow": "🔺",
      "change_pct": 217.4,
      "place": "Jász-Nagykun-Szolnok, Hungary"
    },
    {
      "lon": 25.25,
      "lat": 46.25,
      "type": "hotspot_cell",
      "score": 134.992,
      "count": 328,
      "cell_deg": 0.5,
      "sources": {
        "GDELT": 328,
        "GDELT_DOC": 0,
        "DIRECT_FEED": 0,
        "USGS": 0,
        "GDACS": 0
      },
      "last7_score": 111.771,
      "prev7_score": 23.221,
      "trend": "up",
      "trend_arrow": "🔺",
      "change_pct": 381.3,
      "place": "Harghita, Romania"
    },
    {
      "lon": 24.25,
      "lat": 56.75,
      "type": "hotspot_cell",
      "score": 134.598,
      "count": 193,
      "cell_deg": 0.5,
      "sources": {
        "GDELT": 42,
        "GDELT_DOC": 0,
        "DIRECT_FEED": 151,
        "USGS": 0,
        "GDACS": 0
      },
      "last7_score": 131.758,
      "prev7_score": 2.84,
      "trend": "up",
      "trend_arrow": "🔺",
      "change_pct": 4539.0,
      "place": "Ķekavas novads, Latvia"
    },
    {
      "lon": 15.25,
      "lat": 49.75,
      "type": "hotspot_cell",
      "score": 63.621,
      "count": 176,
      "cell_deg": 0.5,
      "sources": {
        "GDELT": 176,
        "GDELT_DOC": 0,
        "DIRECT_FEED": 0,
        "USGS": 0,
        "GDACS": 0
      },
      "last7_score": 47.085,
      "prev7_score": 16.536,
      "trend": "up",
      "trend_arrow": "🔺",
      "change_pct": 184.7,
      "place": "Vysočina Region, Czechia"
    },
    {
      "lon": 22.25,
      "lat": 55.25,
      "type": "hotspot_cell",
      "score": 59.527,
      "count": 77,
      "cell_deg": 0.5,
      "sources": {
        "GDELT": 0,
        "GDELT_DOC": 76,
        "DIRECT_FEED": 1,
        "USGS": 0,
        "GDACS": 0
      },
      "last7_score": 59.527,
      "prev7_score": 0.0,
      "trend": "new",
      "trend_arrow": "🆕",
      "change_pct": null,
      "place": "Tauragės seniūnija, Lithuania"
    }
  ]
}