{
  "generated_utc": "2026-03-14T06:54:56Z",
  "top": [
    {
      "lon": 26.25,
      "lat": 44.25,
      "type": "hotspot_cell",
      "score": 786.197,
      "count": 1332,
      "cell_deg": 0.5,
      "sources": {
        "GDELT": 196,
        "GDELT_DOC": 1132,
        "DIRECT_FEED": 4,
        "USGS": 0,
        "GDACS": 0
      },
      "last7_score": 773.897,
      "prev7_score": 12.301,
      "trend": "up",
      "trend_arrow": "🔺",
      "change_pct": 6191.5,
      "place": "Giurgiu, Romania"
    },
    {
      "lon": 14.25,
      "lat": 50.25,
      "type": "hotspot_cell",
      "score": 756.511,
      "count": 1228,
      "cell_deg": 0.5,
      "sources": {
        "GDELT": 135,
        "GDELT_DOC": 1087,
        "DIRECT_FEED": 6,
        "USGS": 0,
        "GDACS": 0
      },
      "last7_score": 744.015,
      "prev7_score": 12.495,
      "trend": "up",
      "trend_arrow": "🔺",
      "change_pct": 5854.3,
      "place": "SO ORP Kralupy nad Vltavou, Czechia"
    },
    {
      "lon": 25.25,
      "lat": 54.75,
      "type": "hotspot_cell",
      "score": 582.412,
      "count": 912,
      "cell_deg": 0.5,
      "sources": {
        "GDELT": 72,
        "GDELT_DOC": 840,
        "DIRECT_FEED": 0,
        "USGS": 0,
        "GDACS": 0
      },
      "last7_score": 577.603,
      "prev7_score": 4.809,
      "trend": "up",
      "trend_arrow": "🔺",
      "change_pct": 11911.1,
      "place": "Vilnius County, Lithuania"
    },
    {
      "lon": 19.25,
      "lat": 47.75,
      "type": "hotspot_cell",
      "score": 263.348,
      "count": 562,
      "cell_deg": 0.5,
      "sources": {
        "GDELT": 393,
        "GDELT_DOC": 0,
        "DIRECT_FEED": 169,
        "USGS": 0,
        "GDACS": 0
      },
      "last7_score": 226.112,
      "prev7_score": 37.236,
      "trend": "up",
      "trend_arrow": "🔺",
      "change_pct": 507.2,
      "place": "Pest, Hungary"
    },
    {
      "lon": 20.25,
      "lat": 52.25,
      "type": "hotspot_cell",
      "score": 168.499,
      "count": 458,
      "cell_deg": 0.5,
      "sources": {
        "GDELT": 458,
        "GDELT_DOC": 0,
        "DIRECT_FEED": 0,
        "USGS": 0,
        "GDACS": 0
      },
      "last7_score": 130.368,
      "prev7_score": 38.131,
      "trend": "up",
      "trend_arrow": "🔺",
      "change_pct": 241.9,
      "place": "Sochaczew County, Poland"
    },
    {
      "lon": 20.25,
      "lat": 47.25,
      "type": "hotspot_cell",
      "score": 139.504,
      "count": 344,
      "cell_deg": 0.5,
      "sources": {
        "GDELT": 344,
        "GDELT_DOC": 0,
        "DIRECT_FEED": 0,
        "USGS": 0,
        "GDACS": 0
      },
      "last7_score": 113.686,
      "prev7_score": 25.818,
      "trend": "up",
      "trend_arrow": "🔺",
      "change_pct": 340.3,
      "place": "Jász-Nagykun-Szolnok, Hungary"
    },
    {
      "lon": 24.25,
      "lat": 56.75,
      "type": "hotspot_cell",
      "score": 133.732,
      "count": 190,
      "cell_deg": 0.5,
      "sources": {
        "GDELT": 29,
        "GDELT_DOC": 0,
        "DIRECT_FEED": 161,
        "USGS": 0,
        "GDACS": 0
      },
      "last7_score": 131.698,
      "prev7_score": 2.034,
      "trend": "up",
      "trend_arrow": "🔺",
      "change_pct": 6375.6,
      "place": "Ķekavas novads, Latvia"
    },
    {
      "lon": 25.25,
      "lat": 46.25,
      "type": "hotspot_cell",
      "score": 127.213,
      "count": 318,
      "cell_deg": 0.5,
      "sources": {
        "GDELT": 318,
        "GDELT_DOC": 0,
        "DIRECT_FEED": 0,
        "USGS": 0,
        "GDACS": 0
      },
      "last7_score": 106.07,
      "prev7_score": 21.143,
      "trend": "up",
      "trend_arrow": "🔺",
      "change_pct": 401.7,
      "place": "Harghita, Romania"
    },
    {
      "lon": 21.25,
      "lat": 52.25,
      "type": "hotspot_cell",
      "score": 81.181,
      "count": 215,
      "cell_deg": 0.5,
      "sources": {
        "GDELT": 215,
        "GDELT_DOC": 0,
        "DIRECT_FEED": 0,
        "USGS": 0,
        "GDACS": 0
      },
      "last7_score": 62.784,
      "prev7_score": 18.396,
      "trend": "up",
      "trend_arrow": "🔺",
      "change_pct": 241.3,
      "place": "Warsaw, Poland"
    },
    {
      "lon": 15.25,
      "lat": 49.75,
      "type": "hotspot_cell",
      "score": 56.278,
      "count": 164,
      "cell_deg": 0.5,
      "sources": {
        "GDELT": 164,
        "GDELT_DOC": 0,
        "DIRECT_FEED": 0,
        "USGS": 0,
        "GDACS": 0
      },
      "last7_score": 42.945,
      "prev7_score": 13.333,
      "trend": "up",
      "trend_arrow": "🔺",
      "change_pct": 222.1,
      "place": "Vysočina Region, Czechia"
    }
  ]
}