{
  "generated_utc": "2026-07-11T13:05:50Z",
  "top": [
    {
      "lon": 14.25,
      "lat": 50.25,
      "type": "hotspot_cell",
      "score": 822.348,
      "count": 1217,
      "cell_deg": 0.5,
      "sources": {
        "GDELT": 110,
        "GDELT_DOC": 1102,
        "DIRECT_FEED": 5,
        "USGS": 0,
        "GDACS": 0
      },
      "last7_score": 814.646,
      "prev7_score": 7.701,
      "trend": "up",
      "trend_arrow": "🔺",
      "change_pct": 10478.2,
      "place": "SO ORP Kralupy nad Vltavou, Czechia"
    },
    {
      "lon": 25.25,
      "lat": 54.75,
      "type": "hotspot_cell",
      "score": 585.893,
      "count": 818,
      "cell_deg": 0.5,
      "sources": {
        "GDELT": 75,
        "GDELT_DOC": 741,
        "DIRECT_FEED": 2,
        "USGS": 0,
        "GDACS": 0
      },
      "last7_score": 580.741,
      "prev7_score": 5.152,
      "trend": "up",
      "trend_arrow": "🔺",
      "change_pct": 11171.5,
      "place": "Vilnius County, Lithuania"
    },
    {
      "lon": 26.25,
      "lat": 44.25,
      "type": "hotspot_cell",
      "score": 545.012,
      "count": 944,
      "cell_deg": 0.5,
      "sources": {
        "GDELT": 131,
        "GDELT_DOC": 809,
        "DIRECT_FEED": 4,
        "USGS": 0,
        "GDACS": 0
      },
      "last7_score": 536.029,
      "prev7_score": 8.983,
      "trend": "up",
      "trend_arrow": "🔺",
      "change_pct": 5867.2,
      "place": "Giurgiu, Romania"
    },
    {
      "lon": 19.25,
      "lat": 47.75,
      "type": "hotspot_cell",
      "score": 173.058,
      "count": 311,
      "cell_deg": 0.5,
      "sources": {
        "GDELT": 151,
        "GDELT_DOC": 0,
        "DIRECT_FEED": 160,
        "USGS": 0,
        "GDACS": 0
      },
      "last7_score": 163.568,
      "prev7_score": 9.49,
      "trend": "up",
      "trend_arrow": "🔺",
      "change_pct": 1623.7,
      "place": "Pest, Hungary"
    },
    {
      "lon": 20.25,
      "lat": 52.25,
      "type": "hotspot_cell",
      "score": 172.051,
      "count": 515,
      "cell_deg": 0.5,
      "sources": {
        "GDELT": 515,
        "GDELT_DOC": 0,
        "DIRECT_FEED": 0,
        "USGS": 0,
        "GDACS": 0
      },
      "last7_score": 135.487,
      "prev7_score": 36.564,
      "trend": "up",
      "trend_arrow": "🔺",
      "change_pct": 270.5,
      "place": "Sochaczew County, Poland"
    },
    {
      "lon": 25.25,
      "lat": 46.25,
      "type": "hotspot_cell",
      "score": 149.77,
      "count": 370,
      "cell_deg": 0.5,
      "sources": {
        "GDELT": 370,
        "GDELT_DOC": 0,
        "DIRECT_FEED": 0,
        "USGS": 0,
        "GDACS": 0
      },
      "last7_score": 126.676,
      "prev7_score": 23.094,
      "trend": "up",
      "trend_arrow": "🔺",
      "change_pct": 448.5,
      "place": "Harghita, Romania"
    },
    {
      "lon": 24.25,
      "lat": 56.75,
      "type": "hotspot_cell",
      "score": 98.862,
      "count": 151,
      "cell_deg": 0.5,
      "sources": {
        "GDELT": 21,
        "GDELT_DOC": 0,
        "DIRECT_FEED": 130,
        "USGS": 0,
        "GDACS": 0
      },
      "last7_score": 97.271,
      "prev7_score": 1.591,
      "trend": "up",
      "trend_arrow": "🔺",
      "change_pct": 6014.2,
      "place": "Ķekavas novads, Latvia"
    },
    {
      "lon": 21.25,
      "lat": 52.25,
      "type": "hotspot_cell",
      "score": 87.188,
      "count": 256,
      "cell_deg": 0.5,
      "sources": {
        "GDELT": 256,
        "GDELT_DOC": 0,
        "DIRECT_FEED": 0,
        "USGS": 0,
        "GDACS": 0
      },
      "last7_score": 64.816,
      "prev7_score": 22.372,
      "trend": "up",
      "trend_arrow": "🔺",
      "change_pct": 189.7,
      "place": "Warsaw, Poland"
    },
    {
      "lon": 20.25,
      "lat": 47.25,
      "type": "hotspot_cell",
      "score": 70.106,
      "count": 171,
      "cell_deg": 0.5,
      "sources": {
        "GDELT": 171,
        "GDELT_DOC": 0,
        "DIRECT_FEED": 0,
        "USGS": 0,
        "GDACS": 0
      },
      "last7_score": 60.495,
      "prev7_score": 9.611,
      "trend": "up",
      "trend_arrow": "🔺",
      "change_pct": 529.4,
      "place": "Jász-Nagykun-Szolnok, Hungary"
    },
    {
      "lon": 15.25,
      "lat": 49.75,
      "type": "hotspot_cell",
      "score": 64.505,
      "count": 176,
      "cell_deg": 0.5,
      "sources": {
        "GDELT": 176,
        "GDELT_DOC": 0,
        "DIRECT_FEED": 0,
        "USGS": 0,
        "GDACS": 0
      },
      "last7_score": 53.069,
      "prev7_score": 11.436,
      "trend": "up",
      "trend_arrow": "🔺",
      "change_pct": 364.1,
      "place": "Vysočina Region, Czechia"
    }
  ]
}