{
  "generated_utc": "2026-04-25T07:26:06Z",
  "top": [
    {
      "lon": 14.25,
      "lat": 50.25,
      "type": "hotspot_cell",
      "score": 1095.846,
      "count": 1652,
      "cell_deg": 0.5,
      "sources": {
        "GDELT": 180,
        "GDELT_DOC": 1468,
        "DIRECT_FEED": 4,
        "USGS": 0,
        "GDACS": 0
      },
      "last7_score": 1080.55,
      "prev7_score": 15.296,
      "trend": "up",
      "trend_arrow": "🔺",
      "change_pct": 6964.2,
      "place": "SO ORP Kralupy nad Vltavou, Czechia"
    },
    {
      "lon": 26.25,
      "lat": 44.25,
      "type": "hotspot_cell",
      "score": 910.177,
      "count": 1391,
      "cell_deg": 0.5,
      "sources": {
        "GDELT": 135,
        "GDELT_DOC": 1250,
        "DIRECT_FEED": 6,
        "USGS": 0,
        "GDACS": 0
      },
      "last7_score": 902.225,
      "prev7_score": 7.952,
      "trend": "up",
      "trend_arrow": "🔺",
      "change_pct": 11246.1,
      "place": "Giurgiu, Romania"
    },
    {
      "lon": 25.25,
      "lat": 54.75,
      "type": "hotspot_cell",
      "score": 748.415,
      "count": 1179,
      "cell_deg": 0.5,
      "sources": {
        "GDELT": 74,
        "GDELT_DOC": 1105,
        "DIRECT_FEED": 0,
        "USGS": 0,
        "GDACS": 0
      },
      "last7_score": 742.554,
      "prev7_score": 5.861,
      "trend": "up",
      "trend_arrow": "🔺",
      "change_pct": 12569.9,
      "place": "Vilnius County, Lithuania"
    },
    {
      "lon": 19.25,
      "lat": 47.75,
      "type": "hotspot_cell",
      "score": 383.353,
      "count": 1214,
      "cell_deg": 0.5,
      "sources": {
        "GDELT": 961,
        "GDELT_DOC": 0,
        "DIRECT_FEED": 253,
        "USGS": 0,
        "GDACS": 0
      },
      "last7_score": 311.753,
      "prev7_score": 71.6,
      "trend": "up",
      "trend_arrow": "🔺",
      "change_pct": 335.4,
      "place": "Pest, Hungary"
    },
    {
      "lon": 20.25,
      "lat": 47.25,
      "type": "hotspot_cell",
      "score": 271.652,
      "count": 858,
      "cell_deg": 0.5,
      "sources": {
        "GDELT": 858,
        "GDELT_DOC": 0,
        "DIRECT_FEED": 0,
        "USGS": 0,
        "GDACS": 0
      },
      "last7_score": 211.458,
      "prev7_score": 60.194,
      "trend": "up",
      "trend_arrow": "🔺",
      "change_pct": 251.3,
      "place": "Jász-Nagykun-Szolnok, Hungary"
    },
    {
      "lon": 20.25,
      "lat": 52.25,
      "type": "hotspot_cell",
      "score": 193.85,
      "count": 466,
      "cell_deg": 0.5,
      "sources": {
        "GDELT": 466,
        "GDELT_DOC": 0,
        "DIRECT_FEED": 0,
        "USGS": 0,
        "GDACS": 0
      },
      "last7_score": 162.573,
      "prev7_score": 31.276,
      "trend": "up",
      "trend_arrow": "🔺",
      "change_pct": 419.8,
      "place": "Sochaczew County, Poland"
    },
    {
      "lon": 24.25,
      "lat": 56.75,
      "type": "hotspot_cell",
      "score": 114.386,
      "count": 169,
      "cell_deg": 0.5,
      "sources": {
        "GDELT": 33,
        "GDELT_DOC": 0,
        "DIRECT_FEED": 136,
        "USGS": 0,
        "GDACS": 0
      },
      "last7_score": 111.499,
      "prev7_score": 2.887,
      "trend": "up",
      "trend_arrow": "🔺",
      "change_pct": 3761.6,
      "place": "Ķekavas novads, Latvia"
    },
    {
      "lon": 25.25,
      "lat": 46.25,
      "type": "hotspot_cell",
      "score": 100.759,
      "count": 266,
      "cell_deg": 0.5,
      "sources": {
        "GDELT": 266,
        "GDELT_DOC": 0,
        "DIRECT_FEED": 0,
        "USGS": 0,
        "GDACS": 0
      },
      "last7_score": 81.254,
      "prev7_score": 19.506,
      "trend": "up",
      "trend_arrow": "🔺",
      "change_pct": 316.6,
      "place": "Harghita, Romania"
    },
    {
      "lon": 27.75,
      "lat": 47.25,
      "type": "hotspot_cell",
      "score": 97.142,
      "count": 131,
      "cell_deg": 0.5,
      "sources": {
        "GDELT": 0,
        "GDELT_DOC": 131,
        "DIRECT_FEED": 0,
        "USGS": 0,
        "GDACS": 0
      },
      "last7_score": 97.142,
      "prev7_score": 0.0,
      "trend": "new",
      "trend_arrow": "🆕",
      "change_pct": null,
      "place": "Iași, Romania"
    },
    {
      "lon": 15.25,
      "lat": 49.75,
      "type": "hotspot_cell",
      "score": 68.168,
      "count": 200,
      "cell_deg": 0.5,
      "sources": {
        "GDELT": 200,
        "GDELT_DOC": 0,
        "DIRECT_FEED": 0,
        "USGS": 0,
        "GDACS": 0
      },
      "last7_score": 53.281,
      "prev7_score": 14.887,
      "trend": "up",
      "trend_arrow": "🔺",
      "change_pct": 257.9,
      "place": "Vysočina Region, Czechia"
    }
  ]
}