{
  "generated_utc": "2026-07-16T13:30:44Z",
  "top": [
    {
      "lon": 14.25,
      "lat": 50.25,
      "type": "hotspot_cell",
      "score": 769.956,
      "count": 1230,
      "cell_deg": 0.5,
      "sources": {
        "GDELT": 104,
        "GDELT_DOC": 1120,
        "DIRECT_FEED": 6,
        "USGS": 0,
        "GDACS": 0
      },
      "last7_score": 763.775,
      "prev7_score": 6.182,
      "trend": "up",
      "trend_arrow": "🔺",
      "change_pct": 12255.3,
      "place": "SO ORP Kralupy nad Vltavou, Czechia"
    },
    {
      "lon": 25.25,
      "lat": 54.75,
      "type": "hotspot_cell",
      "score": 460.464,
      "count": 777,
      "cell_deg": 0.5,
      "sources": {
        "GDELT": 78,
        "GDELT_DOC": 698,
        "DIRECT_FEED": 1,
        "USGS": 0,
        "GDACS": 0
      },
      "last7_score": 455.441,
      "prev7_score": 5.022,
      "trend": "up",
      "trend_arrow": "🔺",
      "change_pct": 8968.7,
      "place": "Vilnius County, Lithuania"
    },
    {
      "lon": 26.25,
      "lat": 44.25,
      "type": "hotspot_cell",
      "score": 423.45,
      "count": 682,
      "cell_deg": 0.5,
      "sources": {
        "GDELT": 95,
        "GDELT_DOC": 584,
        "DIRECT_FEED": 3,
        "USGS": 0,
        "GDACS": 0
      },
      "last7_score": 415.271,
      "prev7_score": 8.18,
      "trend": "up",
      "trend_arrow": "🔺",
      "change_pct": 4977.0,
      "place": "Giurgiu, Romania"
    },
    {
      "lon": 19.25,
      "lat": 47.75,
      "type": "hotspot_cell",
      "score": 202.437,
      "count": 334,
      "cell_deg": 0.5,
      "sources": {
        "GDELT": 152,
        "GDELT_DOC": 0,
        "DIRECT_FEED": 182,
        "USGS": 0,
        "GDACS": 0
      },
      "last7_score": 191.123,
      "prev7_score": 11.314,
      "trend": "up",
      "trend_arrow": "🔺",
      "change_pct": 1589.3,
      "place": "Pest, Hungary"
    },
    {
      "lon": 20.25,
      "lat": 52.25,
      "type": "hotspot_cell",
      "score": 178.01,
      "count": 462,
      "cell_deg": 0.5,
      "sources": {
        "GDELT": 462,
        "GDELT_DOC": 0,
        "DIRECT_FEED": 0,
        "USGS": 0,
        "GDACS": 0
      },
      "last7_score": 142.072,
      "prev7_score": 35.939,
      "trend": "up",
      "trend_arrow": "🔺",
      "change_pct": 295.3,
      "place": "Sochaczew County, Poland"
    },
    {
      "lon": 25.25,
      "lat": 46.25,
      "type": "hotspot_cell",
      "score": 164.494,
      "count": 391,
      "cell_deg": 0.5,
      "sources": {
        "GDELT": 391,
        "GDELT_DOC": 0,
        "DIRECT_FEED": 0,
        "USGS": 0,
        "GDACS": 0
      },
      "last7_score": 138.128,
      "prev7_score": 26.366,
      "trend": "up",
      "trend_arrow": "🔺",
      "change_pct": 423.9,
      "place": "Harghita, Romania"
    },
    {
      "lon": 24.25,
      "lat": 56.75,
      "type": "hotspot_cell",
      "score": 111.831,
      "count": 153,
      "cell_deg": 0.5,
      "sources": {
        "GDELT": 19,
        "GDELT_DOC": 0,
        "DIRECT_FEED": 134,
        "USGS": 0,
        "GDACS": 0
      },
      "last7_score": 110.652,
      "prev7_score": 1.179,
      "trend": "up",
      "trend_arrow": "🔺",
      "change_pct": 9285.6,
      "place": "Ķekavas novads, Latvia"
    },
    {
      "lon": 21.25,
      "lat": 52.25,
      "type": "hotspot_cell",
      "score": 100.7,
      "count": 260,
      "cell_deg": 0.5,
      "sources": {
        "GDELT": 260,
        "GDELT_DOC": 0,
        "DIRECT_FEED": 0,
        "USGS": 0,
        "GDACS": 0
      },
      "last7_score": 83.05,
      "prev7_score": 17.65,
      "trend": "up",
      "trend_arrow": "🔺",
      "change_pct": 370.5,
      "place": "Warsaw, Poland"
    },
    {
      "lon": 20.25,
      "lat": 47.25,
      "type": "hotspot_cell",
      "score": 71.716,
      "count": 187,
      "cell_deg": 0.5,
      "sources": {
        "GDELT": 187,
        "GDELT_DOC": 0,
        "DIRECT_FEED": 0,
        "USGS": 0,
        "GDACS": 0
      },
      "last7_score": 58.009,
      "prev7_score": 13.707,
      "trend": "up",
      "trend_arrow": "🔺",
      "change_pct": 323.2,
      "place": "Jász-Nagykun-Szolnok, Hungary"
    },
    {
      "lon": 24.25,
      "lat": 56.25,
      "type": "hotspot_cell",
      "score": 62.028,
      "count": 147,
      "cell_deg": 0.5,
      "sources": {
        "GDELT": 147,
        "GDELT_DOC": 0,
        "DIRECT_FEED": 0,
        "USGS": 0,
        "GDACS": 0
      },
      "last7_score": 49.959,
      "prev7_score": 12.069,
      "trend": "up",
      "trend_arrow": "🔺",
      "change_pct": 313.9,
      "place": "Namišių seniūnija, Lithuania"
    }
  ]
}