{
  "generated_utc": "2026-04-30T14:00:20Z",
  "top": [
    {
      "lon": 14.25,
      "lat": 50.25,
      "type": "hotspot_cell",
      "score": 940.706,
      "count": 1612,
      "cell_deg": 0.5,
      "sources": {
        "GDELT": 197,
        "GDELT_DOC": 1414,
        "DIRECT_FEED": 1,
        "USGS": 0,
        "GDACS": 0
      },
      "last7_score": 926.487,
      "prev7_score": 14.219,
      "trend": "up",
      "trend_arrow": "🔺",
      "change_pct": 6415.9,
      "place": "SO ORP Kralupy nad Vltavou, Czechia"
    },
    {
      "lon": 26.25,
      "lat": 44.25,
      "type": "hotspot_cell",
      "score": 882.825,
      "count": 1549,
      "cell_deg": 0.5,
      "sources": {
        "GDELT": 156,
        "GDELT_DOC": 1387,
        "DIRECT_FEED": 6,
        "USGS": 0,
        "GDACS": 0
      },
      "last7_score": 869.998,
      "prev7_score": 12.827,
      "trend": "up",
      "trend_arrow": "🔺",
      "change_pct": 6682.8,
      "place": "Giurgiu, Romania"
    },
    {
      "lon": 25.25,
      "lat": 54.75,
      "type": "hotspot_cell",
      "score": 666.851,
      "count": 1103,
      "cell_deg": 0.5,
      "sources": {
        "GDELT": 68,
        "GDELT_DOC": 1035,
        "DIRECT_FEED": 0,
        "USGS": 0,
        "GDACS": 0
      },
      "last7_score": 662.447,
      "prev7_score": 4.404,
      "trend": "up",
      "trend_arrow": "🔺",
      "change_pct": 14941.5,
      "place": "Vilnius County, Lithuania"
    },
    {
      "lon": 19.25,
      "lat": 47.75,
      "type": "hotspot_cell",
      "score": 268.371,
      "count": 605,
      "cell_deg": 0.5,
      "sources": {
        "GDELT": 384,
        "GDELT_DOC": 0,
        "DIRECT_FEED": 221,
        "USGS": 0,
        "GDACS": 0
      },
      "last7_score": 228.667,
      "prev7_score": 39.703,
      "trend": "up",
      "trend_arrow": "🔺",
      "change_pct": 475.9,
      "place": "Pest, Hungary"
    },
    {
      "lon": 20.25,
      "lat": 52.25,
      "type": "hotspot_cell",
      "score": 180.28,
      "count": 476,
      "cell_deg": 0.5,
      "sources": {
        "GDELT": 476,
        "GDELT_DOC": 0,
        "DIRECT_FEED": 0,
        "USGS": 0,
        "GDACS": 0
      },
      "last7_score": 143.81,
      "prev7_score": 36.469,
      "trend": "up",
      "trend_arrow": "🔺",
      "change_pct": 294.3,
      "place": "Sochaczew County, Poland"
    },
    {
      "lon": 20.25,
      "lat": 47.25,
      "type": "hotspot_cell",
      "score": 170.279,
      "count": 550,
      "cell_deg": 0.5,
      "sources": {
        "GDELT": 550,
        "GDELT_DOC": 0,
        "DIRECT_FEED": 0,
        "USGS": 0,
        "GDACS": 0
      },
      "last7_score": 117.35,
      "prev7_score": 52.929,
      "trend": "up",
      "trend_arrow": "🔺",
      "change_pct": 121.7,
      "place": "Jász-Nagykun-Szolnok, Hungary"
    },
    {
      "lon": 25.25,
      "lat": 46.25,
      "type": "hotspot_cell",
      "score": 143.557,
      "count": 300,
      "cell_deg": 0.5,
      "sources": {
        "GDELT": 300,
        "GDELT_DOC": 0,
        "DIRECT_FEED": 0,
        "USGS": 0,
        "GDACS": 0
      },
      "last7_score": 125.508,
      "prev7_score": 18.049,
      "trend": "up",
      "trend_arrow": "🔺",
      "change_pct": 595.4,
      "place": "Harghita, Romania"
    },
    {
      "lon": 24.25,
      "lat": 56.75,
      "type": "hotspot_cell",
      "score": 119.1,
      "count": 166,
      "cell_deg": 0.5,
      "sources": {
        "GDELT": 27,
        "GDELT_DOC": 0,
        "DIRECT_FEED": 139,
        "USGS": 0,
        "GDACS": 0
      },
      "last7_score": 117.666,
      "prev7_score": 1.434,
      "trend": "up",
      "trend_arrow": "🔺",
      "change_pct": 8105.5,
      "place": "Ķekavas novads, Latvia"
    },
    {
      "lon": 15.25,
      "lat": 49.75,
      "type": "hotspot_cell",
      "score": 92.957,
      "count": 219,
      "cell_deg": 0.5,
      "sources": {
        "GDELT": 219,
        "GDELT_DOC": 0,
        "DIRECT_FEED": 0,
        "USGS": 0,
        "GDACS": 0
      },
      "last7_score": 79.08,
      "prev7_score": 13.877,
      "trend": "up",
      "trend_arrow": "🔺",
      "change_pct": 469.9,
      "place": "Vysočina Region, Czechia"
    },
    {
      "lon": 26.75,
      "lat": 47.75,
      "type": "hotspot_cell",
      "score": 70.779,
      "count": 156,
      "cell_deg": 0.5,
      "sources": {
        "GDELT": 2,
        "GDELT_DOC": 150,
        "DIRECT_FEED": 4,
        "USGS": 0,
        "GDACS": 0
      },
      "last7_score": 70.605,
      "prev7_score": 0.175,
      "trend": "up",
      "trend_arrow": "🔺",
      "change_pct": 40315.5,
      "place": "Botoșani, Romania"
    }
  ]
}