{
  "generated_utc": "2026-04-20T19:11:08Z",
  "top": [
    {
      "lon": 26.25,
      "lat": 44.25,
      "type": "hotspot_cell",
      "score": 768.211,
      "count": 1269,
      "cell_deg": 0.5,
      "sources": {
        "GDELT": 112,
        "GDELT_DOC": 1154,
        "DIRECT_FEED": 3,
        "USGS": 0,
        "GDACS": 0
      },
      "last7_score": 764.396,
      "prev7_score": 3.815,
      "trend": "up",
      "trend_arrow": "🔺",
      "change_pct": 19938.0,
      "place": "Giurgiu, Romania"
    },
    {
      "lon": 14.25,
      "lat": 50.25,
      "type": "hotspot_cell",
      "score": 741.141,
      "count": 1385,
      "cell_deg": 0.5,
      "sources": {
        "GDELT": 137,
        "GDELT_DOC": 1246,
        "DIRECT_FEED": 2,
        "USGS": 0,
        "GDACS": 0
      },
      "last7_score": 737.113,
      "prev7_score": 4.028,
      "trend": "up",
      "trend_arrow": "🔺",
      "change_pct": 18199.7,
      "place": "SO ORP Kralupy nad Vltavou, Czechia"
    },
    {
      "lon": 25.25,
      "lat": 54.75,
      "type": "hotspot_cell",
      "score": 579.706,
      "count": 926,
      "cell_deg": 0.5,
      "sources": {
        "GDELT": 81,
        "GDELT_DOC": 845,
        "DIRECT_FEED": 0,
        "USGS": 0,
        "GDACS": 0
      },
      "last7_score": 574.91,
      "prev7_score": 4.796,
      "trend": "up",
      "trend_arrow": "🔺",
      "change_pct": 11887.5,
      "place": "Vilnius County, Lithuania"
    },
    {
      "lon": 19.25,
      "lat": 47.75,
      "type": "hotspot_cell",
      "score": 478.146,
      "count": 1482,
      "cell_deg": 0.5,
      "sources": {
        "GDELT": 1203,
        "GDELT_DOC": 0,
        "DIRECT_FEED": 279,
        "USGS": 0,
        "GDACS": 0
      },
      "last7_score": 356.922,
      "prev7_score": 121.224,
      "trend": "up",
      "trend_arrow": "🔺",
      "change_pct": 194.4,
      "place": "Pest, Hungary"
    },
    {
      "lon": 20.25,
      "lat": 47.25,
      "type": "hotspot_cell",
      "score": 267.697,
      "count": 838,
      "cell_deg": 0.5,
      "sources": {
        "GDELT": 838,
        "GDELT_DOC": 0,
        "DIRECT_FEED": 0,
        "USGS": 0,
        "GDACS": 0
      },
      "last7_score": 201.893,
      "prev7_score": 65.804,
      "trend": "up",
      "trend_arrow": "🔺",
      "change_pct": 206.8,
      "place": "Jász-Nagykun-Szolnok, Hungary"
    },
    {
      "lon": 20.25,
      "lat": 52.25,
      "type": "hotspot_cell",
      "score": 153.532,
      "count": 429,
      "cell_deg": 0.5,
      "sources": {
        "GDELT": 429,
        "GDELT_DOC": 0,
        "DIRECT_FEED": 0,
        "USGS": 0,
        "GDACS": 0
      },
      "last7_score": 127.75,
      "prev7_score": 25.782,
      "trend": "up",
      "trend_arrow": "🔺",
      "change_pct": 395.5,
      "place": "Sochaczew County, Poland"
    },
    {
      "lon": 24.25,
      "lat": 56.75,
      "type": "hotspot_cell",
      "score": 99.493,
      "count": 164,
      "cell_deg": 0.5,
      "sources": {
        "GDELT": 33,
        "GDELT_DOC": 0,
        "DIRECT_FEED": 131,
        "USGS": 0,
        "GDACS": 0
      },
      "last7_score": 97.458,
      "prev7_score": 2.035,
      "trend": "up",
      "trend_arrow": "🔺",
      "change_pct": 4689.7,
      "place": "Ķekavas novads, Latvia"
    },
    {
      "lon": 25.25,
      "lat": 46.25,
      "type": "hotspot_cell",
      "score": 87.319,
      "count": 256,
      "cell_deg": 0.5,
      "sources": {
        "GDELT": 256,
        "GDELT_DOC": 0,
        "DIRECT_FEED": 0,
        "USGS": 0,
        "GDACS": 0
      },
      "last7_score": 76.149,
      "prev7_score": 11.17,
      "trend": "up",
      "trend_arrow": "🔺",
      "change_pct": 581.7,
      "place": "Harghita, Romania"
    },
    {
      "lon": 15.25,
      "lat": 49.75,
      "type": "hotspot_cell",
      "score": 79.586,
      "count": 195,
      "cell_deg": 0.5,
      "sources": {
        "GDELT": 195,
        "GDELT_DOC": 0,
        "DIRECT_FEED": 0,
        "USGS": 0,
        "GDACS": 0
      },
      "last7_score": 68.612,
      "prev7_score": 10.974,
      "trend": "up",
      "trend_arrow": "🔺",
      "change_pct": 525.2,
      "place": "Vysočina Region, Czechia"
    },
    {
      "lon": 21.25,
      "lat": 52.25,
      "type": "hotspot_cell",
      "score": 63.195,
      "count": 181,
      "cell_deg": 0.5,
      "sources": {
        "GDELT": 181,
        "GDELT_DOC": 0,
        "DIRECT_FEED": 0,
        "USGS": 0,
        "GDACS": 0
      },
      "last7_score": 52.986,
      "prev7_score": 10.209,
      "trend": "up",
      "trend_arrow": "🔺",
      "change_pct": 419.0,
      "place": "Warsaw, Poland"
    }
  ]
}