{
  "generated_utc": "2026-05-17T13:28:05Z",
  "top": [
    {
      "lon": 14.25,
      "lat": 50.25,
      "type": "hotspot_cell",
      "score": 886.363,
      "count": 1564,
      "cell_deg": 0.5,
      "sources": {
        "GDELT": 120,
        "GDELT_DOC": 1441,
        "DIRECT_FEED": 3,
        "USGS": 0,
        "GDACS": 0
      },
      "last7_score": 879.765,
      "prev7_score": 6.598,
      "trend": "up",
      "trend_arrow": "🔺",
      "change_pct": 13233.9,
      "place": "SO ORP Kralupy nad Vltavou, Czechia"
    },
    {
      "lon": 26.25,
      "lat": 44.25,
      "type": "hotspot_cell",
      "score": 857.26,
      "count": 1449,
      "cell_deg": 0.5,
      "sources": {
        "GDELT": 228,
        "GDELT_DOC": 1215,
        "DIRECT_FEED": 6,
        "USGS": 0,
        "GDACS": 0
      },
      "last7_score": 848.001,
      "prev7_score": 9.26,
      "trend": "up",
      "trend_arrow": "🔺",
      "change_pct": 9058.1,
      "place": "Giurgiu, Romania"
    },
    {
      "lon": 25.25,
      "lat": 54.75,
      "type": "hotspot_cell",
      "score": 616.806,
      "count": 997,
      "cell_deg": 0.5,
      "sources": {
        "GDELT": 73,
        "GDELT_DOC": 924,
        "DIRECT_FEED": 0,
        "USGS": 0,
        "GDACS": 0
      },
      "last7_score": 612.163,
      "prev7_score": 4.642,
      "trend": "up",
      "trend_arrow": "🔺",
      "change_pct": 13086.1,
      "place": "Vilnius County, Lithuania"
    },
    {
      "lon": 19.25,
      "lat": 47.75,
      "type": "hotspot_cell",
      "score": 235.817,
      "count": 524,
      "cell_deg": 0.5,
      "sources": {
        "GDELT": 300,
        "GDELT_DOC": 0,
        "DIRECT_FEED": 224,
        "USGS": 0,
        "GDACS": 0
      },
      "last7_score": 213.443,
      "prev7_score": 22.374,
      "trend": "up",
      "trend_arrow": "🔺",
      "change_pct": 854.0,
      "place": "Pest, Hungary"
    },
    {
      "lon": 20.25,
      "lat": 52.25,
      "type": "hotspot_cell",
      "score": 232.11,
      "count": 603,
      "cell_deg": 0.5,
      "sources": {
        "GDELT": 603,
        "GDELT_DOC": 0,
        "DIRECT_FEED": 0,
        "USGS": 0,
        "GDACS": 0
      },
      "last7_score": 197.85,
      "prev7_score": 34.261,
      "trend": "up",
      "trend_arrow": "🔺",
      "change_pct": 477.5,
      "place": "Sochaczew County, Poland"
    },
    {
      "lon": 24.25,
      "lat": 56.75,
      "type": "hotspot_cell",
      "score": 118.372,
      "count": 198,
      "cell_deg": 0.5,
      "sources": {
        "GDELT": 44,
        "GDELT_DOC": 0,
        "DIRECT_FEED": 154,
        "USGS": 0,
        "GDACS": 0
      },
      "last7_score": 116.153,
      "prev7_score": 2.219,
      "trend": "up",
      "trend_arrow": "🔺",
      "change_pct": 5133.4,
      "place": "Ķekavas novads, Latvia"
    },
    {
      "lon": 25.25,
      "lat": 46.25,
      "type": "hotspot_cell",
      "score": 96.436,
      "count": 300,
      "cell_deg": 0.5,
      "sources": {
        "GDELT": 300,
        "GDELT_DOC": 0,
        "DIRECT_FEED": 0,
        "USGS": 0,
        "GDACS": 0
      },
      "last7_score": 81.34,
      "prev7_score": 15.096,
      "trend": "up",
      "trend_arrow": "🔺",
      "change_pct": 438.8,
      "place": "Harghita, Romania"
    },
    {
      "lon": 20.25,
      "lat": 47.25,
      "type": "hotspot_cell",
      "score": 95.577,
      "count": 291,
      "cell_deg": 0.5,
      "sources": {
        "GDELT": 291,
        "GDELT_DOC": 0,
        "DIRECT_FEED": 0,
        "USGS": 0,
        "GDACS": 0
      },
      "last7_score": 78.092,
      "prev7_score": 17.485,
      "trend": "up",
      "trend_arrow": "🔺",
      "change_pct": 346.6,
      "place": "Jász-Nagykun-Szolnok, Hungary"
    },
    {
      "lon": 25.25,
      "lat": 57.25,
      "type": "hotspot_cell",
      "score": 85.813,
      "count": 171,
      "cell_deg": 0.5,
      "sources": {
        "GDELT": 171,
        "GDELT_DOC": 0,
        "DIRECT_FEED": 0,
        "USGS": 0,
        "GDACS": 0
      },
      "last7_score": 79.655,
      "prev7_score": 6.159,
      "trend": "up",
      "trend_arrow": "🔺",
      "change_pct": 1193.4,
      "place": "Cēsu novads, Latvia"
    },
    {
      "lon": 21.25,
      "lat": 52.25,
      "type": "hotspot_cell",
      "score": 84.79,
      "count": 217,
      "cell_deg": 0.5,
      "sources": {
        "GDELT": 217,
        "GDELT_DOC": 0,
        "DIRECT_FEED": 0,
        "USGS": 0,
        "GDACS": 0
      },
      "last7_score": 72.038,
      "prev7_score": 12.752,
      "trend": "up",
      "trend_arrow": "🔺",
      "change_pct": 464.9,
      "place": "Warsaw, Poland"
    }
  ]
}