{
  "generated_utc": "2026-03-26T02:34:02Z",
  "top": [
    {
      "lon": 14.25,
      "lat": 50.25,
      "type": "hotspot_cell",
      "score": 821.504,
      "count": 1279,
      "cell_deg": 0.5,
      "sources": {
        "GDELT": 109,
        "GDELT_DOC": 1167,
        "DIRECT_FEED": 3,
        "USGS": 0,
        "GDACS": 0
      },
      "last7_score": 812.169,
      "prev7_score": 9.334,
      "trend": "up",
      "trend_arrow": "🔺",
      "change_pct": 8600.9,
      "place": "SO ORP Kralupy nad Vltavou, Czechia"
    },
    {
      "lon": 26.25,
      "lat": 44.25,
      "type": "hotspot_cell",
      "score": 794.139,
      "count": 1258,
      "cell_deg": 0.5,
      "sources": {
        "GDELT": 160,
        "GDELT_DOC": 1096,
        "DIRECT_FEED": 2,
        "USGS": 0,
        "GDACS": 0
      },
      "last7_score": 780.962,
      "prev7_score": 13.177,
      "trend": "up",
      "trend_arrow": "🔺",
      "change_pct": 5826.9,
      "place": "Giurgiu, Romania"
    },
    {
      "lon": 25.25,
      "lat": 54.75,
      "type": "hotspot_cell",
      "score": 586.73,
      "count": 935,
      "cell_deg": 0.5,
      "sources": {
        "GDELT": 80,
        "GDELT_DOC": 855,
        "DIRECT_FEED": 0,
        "USGS": 0,
        "GDACS": 0
      },
      "last7_score": 580.918,
      "prev7_score": 5.811,
      "trend": "up",
      "trend_arrow": "🔺",
      "change_pct": 9896.3,
      "place": "Vilnius County, Lithuania"
    },
    {
      "lon": 19.25,
      "lat": 47.75,
      "type": "hotspot_cell",
      "score": 277.35,
      "count": 545,
      "cell_deg": 0.5,
      "sources": {
        "GDELT": 324,
        "GDELT_DOC": 0,
        "DIRECT_FEED": 221,
        "USGS": 0,
        "GDACS": 0
      },
      "last7_score": 246.034,
      "prev7_score": 31.316,
      "trend": "up",
      "trend_arrow": "🔺",
      "change_pct": 685.7,
      "place": "Pest, Hungary"
    },
    {
      "lon": 20.25,
      "lat": 52.25,
      "type": "hotspot_cell",
      "score": 151.535,
      "count": 407,
      "cell_deg": 0.5,
      "sources": {
        "GDELT": 407,
        "GDELT_DOC": 0,
        "DIRECT_FEED": 0,
        "USGS": 0,
        "GDACS": 0
      },
      "last7_score": 115.324,
      "prev7_score": 36.211,
      "trend": "up",
      "trend_arrow": "🔺",
      "change_pct": 218.5,
      "place": "Sochaczew County, Poland"
    },
    {
      "lon": 20.25,
      "lat": 47.25,
      "type": "hotspot_cell",
      "score": 147.518,
      "count": 387,
      "cell_deg": 0.5,
      "sources": {
        "GDELT": 387,
        "GDELT_DOC": 0,
        "DIRECT_FEED": 0,
        "USGS": 0,
        "GDACS": 0
      },
      "last7_score": 112.457,
      "prev7_score": 35.061,
      "trend": "up",
      "trend_arrow": "🔺",
      "change_pct": 220.8,
      "place": "Jász-Nagykun-Szolnok, Hungary"
    },
    {
      "lon": 25.25,
      "lat": 46.25,
      "type": "hotspot_cell",
      "score": 137.952,
      "count": 306,
      "cell_deg": 0.5,
      "sources": {
        "GDELT": 306,
        "GDELT_DOC": 0,
        "DIRECT_FEED": 0,
        "USGS": 0,
        "GDACS": 0
      },
      "last7_score": 113.286,
      "prev7_score": 24.666,
      "trend": "up",
      "trend_arrow": "🔺",
      "change_pct": 359.3,
      "place": "Harghita, Romania"
    },
    {
      "lon": 24.25,
      "lat": 56.75,
      "type": "hotspot_cell",
      "score": 134.481,
      "count": 186,
      "cell_deg": 0.5,
      "sources": {
        "GDELT": 41,
        "GDELT_DOC": 0,
        "DIRECT_FEED": 145,
        "USGS": 0,
        "GDACS": 0
      },
      "last7_score": 131.946,
      "prev7_score": 2.535,
      "trend": "up",
      "trend_arrow": "🔺",
      "change_pct": 5105.1,
      "place": "Ķekavas novads, Latvia"
    },
    {
      "lon": 27.75,
      "lat": 47.25,
      "type": "hotspot_cell",
      "score": 72.469,
      "count": 99,
      "cell_deg": 0.5,
      "sources": {
        "GDELT": 0,
        "GDELT_DOC": 99,
        "DIRECT_FEED": 0,
        "USGS": 0,
        "GDACS": 0
      },
      "last7_score": 72.469,
      "prev7_score": 0.0,
      "trend": "new",
      "trend_arrow": "🆕",
      "change_pct": null,
      "place": "Iași, Romania"
    },
    {
      "lon": 22.25,
      "lat": 55.25,
      "type": "hotspot_cell",
      "score": 70.209,
      "count": 64,
      "cell_deg": 0.5,
      "sources": {
        "GDELT": 0,
        "GDELT_DOC": 63,
        "DIRECT_FEED": 1,
        "USGS": 0,
        "GDACS": 0
      },
      "last7_score": 70.209,
      "prev7_score": 0.0,
      "trend": "new",
      "trend_arrow": "🆕",
      "change_pct": null,
      "place": "Tauragės seniūnija, Lithuania"
    }
  ]
}