{
  "generated_utc": "2026-05-13T14:40:30Z",
  "top": [
    {
      "lon": 14.25,
      "lat": 50.25,
      "type": "hotspot_cell",
      "score": 921.603,
      "count": 1468,
      "cell_deg": 0.5,
      "sources": {
        "GDELT": 125,
        "GDELT_DOC": 1340,
        "DIRECT_FEED": 3,
        "USGS": 0,
        "GDACS": 0
      },
      "last7_score": 911.81,
      "prev7_score": 9.794,
      "trend": "up",
      "trend_arrow": "🔺",
      "change_pct": 9209.9,
      "place": "SO ORP Kralupy nad Vltavou, Czechia"
    },
    {
      "lon": 26.25,
      "lat": 44.25,
      "type": "hotspot_cell",
      "score": 902.011,
      "count": 1385,
      "cell_deg": 0.5,
      "sources": {
        "GDELT": 178,
        "GDELT_DOC": 1200,
        "DIRECT_FEED": 7,
        "USGS": 0,
        "GDACS": 0
      },
      "last7_score": 889.288,
      "prev7_score": 12.723,
      "trend": "up",
      "trend_arrow": "🔺",
      "change_pct": 6889.4,
      "place": "Giurgiu, Romania"
    },
    {
      "lon": 25.25,
      "lat": 54.75,
      "type": "hotspot_cell",
      "score": 556.933,
      "count": 933,
      "cell_deg": 0.5,
      "sources": {
        "GDELT": 63,
        "GDELT_DOC": 870,
        "DIRECT_FEED": 0,
        "USGS": 0,
        "GDACS": 0
      },
      "last7_score": 553.846,
      "prev7_score": 3.087,
      "trend": "up",
      "trend_arrow": "🔺",
      "change_pct": 17842.4,
      "place": "Vilnius County, Lithuania"
    },
    {
      "lon": 19.25,
      "lat": 47.75,
      "type": "hotspot_cell",
      "score": 274.545,
      "count": 487,
      "cell_deg": 0.5,
      "sources": {
        "GDELT": 263,
        "GDELT_DOC": 0,
        "DIRECT_FEED": 224,
        "USGS": 0,
        "GDACS": 0
      },
      "last7_score": 261.031,
      "prev7_score": 13.514,
      "trend": "up",
      "trend_arrow": "🔺",
      "change_pct": 1831.5,
      "place": "Pest, Hungary"
    },
    {
      "lon": 20.25,
      "lat": 52.25,
      "type": "hotspot_cell",
      "score": 193.513,
      "count": 531,
      "cell_deg": 0.5,
      "sources": {
        "GDELT": 531,
        "GDELT_DOC": 0,
        "DIRECT_FEED": 0,
        "USGS": 0,
        "GDACS": 0
      },
      "last7_score": 153.972,
      "prev7_score": 39.541,
      "trend": "up",
      "trend_arrow": "🔺",
      "change_pct": 289.4,
      "place": "Sochaczew County, Poland"
    },
    {
      "lon": 25.25,
      "lat": 46.25,
      "type": "hotspot_cell",
      "score": 115.777,
      "count": 323,
      "cell_deg": 0.5,
      "sources": {
        "GDELT": 323,
        "GDELT_DOC": 0,
        "DIRECT_FEED": 0,
        "USGS": 0,
        "GDACS": 0
      },
      "last7_score": 90.499,
      "prev7_score": 25.278,
      "trend": "up",
      "trend_arrow": "🔺",
      "change_pct": 258.0,
      "place": "Harghita, Romania"
    },
    {
      "lon": 20.25,
      "lat": 47.25,
      "type": "hotspot_cell",
      "score": 115.598,
      "count": 279,
      "cell_deg": 0.5,
      "sources": {
        "GDELT": 279,
        "GDELT_DOC": 0,
        "DIRECT_FEED": 0,
        "USGS": 0,
        "GDACS": 0
      },
      "last7_score": 99.897,
      "prev7_score": 15.701,
      "trend": "up",
      "trend_arrow": "🔺",
      "change_pct": 536.3,
      "place": "Jász-Nagykun-Szolnok, Hungary"
    },
    {
      "lon": 24.25,
      "lat": 56.75,
      "type": "hotspot_cell",
      "score": 114.885,
      "count": 168,
      "cell_deg": 0.5,
      "sources": {
        "GDELT": 26,
        "GDELT_DOC": 0,
        "DIRECT_FEED": 142,
        "USGS": 0,
        "GDACS": 0
      },
      "last7_score": 111.39,
      "prev7_score": 3.495,
      "trend": "up",
      "trend_arrow": "🔺",
      "change_pct": 3086.7,
      "place": "Ķekavas novads, Latvia"
    },
    {
      "lon": 21.25,
      "lat": 52.25,
      "type": "hotspot_cell",
      "score": 64.514,
      "count": 165,
      "cell_deg": 0.5,
      "sources": {
        "GDELT": 165,
        "GDELT_DOC": 0,
        "DIRECT_FEED": 0,
        "USGS": 0,
        "GDACS": 0
      },
      "last7_score": 54.561,
      "prev7_score": 9.953,
      "trend": "up",
      "trend_arrow": "🔺",
      "change_pct": 448.2,
      "place": "Warsaw, Poland"
    },
    {
      "lon": 27.75,
      "lat": 47.25,
      "type": "hotspot_cell",
      "score": 64.24,
      "count": 107,
      "cell_deg": 0.5,
      "sources": {
        "GDELT": 0,
        "GDELT_DOC": 107,
        "DIRECT_FEED": 0,
        "USGS": 0,
        "GDACS": 0
      },
      "last7_score": 64.24,
      "prev7_score": 0.0,
      "trend": "new",
      "trend_arrow": "🆕",
      "change_pct": null,
      "place": "Iași, Romania"
    }
  ]
}