{
  "generated_utc": "2026-05-16T08:11:28Z",
  "top": [
    {
      "lon": 14.25,
      "lat": 50.25,
      "type": "hotspot_cell",
      "score": 1014.861,
      "count": 1618,
      "cell_deg": 0.5,
      "sources": {
        "GDELT": 119,
        "GDELT_DOC": 1495,
        "DIRECT_FEED": 4,
        "USGS": 0,
        "GDACS": 0
      },
      "last7_score": 1006.537,
      "prev7_score": 8.324,
      "trend": "up",
      "trend_arrow": "🔺",
      "change_pct": 11992.7,
      "place": "SO ORP Kralupy nad Vltavou, Czechia"
    },
    {
      "lon": 26.25,
      "lat": 44.25,
      "type": "hotspot_cell",
      "score": 828.376,
      "count": 1404,
      "cell_deg": 0.5,
      "sources": {
        "GDELT": 228,
        "GDELT_DOC": 1170,
        "DIRECT_FEED": 6,
        "USGS": 0,
        "GDACS": 0
      },
      "last7_score": 816.577,
      "prev7_score": 11.799,
      "trend": "up",
      "trend_arrow": "🔺",
      "change_pct": 6820.9,
      "place": "Giurgiu, Romania"
    },
    {
      "lon": 25.25,
      "lat": 54.75,
      "type": "hotspot_cell",
      "score": 676.76,
      "count": 1071,
      "cell_deg": 0.5,
      "sources": {
        "GDELT": 73,
        "GDELT_DOC": 998,
        "DIRECT_FEED": 0,
        "USGS": 0,
        "GDACS": 0
      },
      "last7_score": 670.877,
      "prev7_score": 5.883,
      "trend": "up",
      "trend_arrow": "🔺",
      "change_pct": 11303.3,
      "place": "Vilnius County, Lithuania"
    },
    {
      "lon": 19.25,
      "lat": 47.75,
      "type": "hotspot_cell",
      "score": 270.084,
      "count": 520,
      "cell_deg": 0.5,
      "sources": {
        "GDELT": 295,
        "GDELT_DOC": 0,
        "DIRECT_FEED": 225,
        "USGS": 0,
        "GDACS": 0
      },
      "last7_score": 245.826,
      "prev7_score": 24.257,
      "trend": "up",
      "trend_arrow": "🔺",
      "change_pct": 913.4,
      "place": "Pest, Hungary"
    },
    {
      "lon": 20.25,
      "lat": 52.25,
      "type": "hotspot_cell",
      "score": 257.111,
      "count": 605,
      "cell_deg": 0.5,
      "sources": {
        "GDELT": 605,
        "GDELT_DOC": 0,
        "DIRECT_FEED": 0,
        "USGS": 0,
        "GDACS": 0
      },
      "last7_score": 217.479,
      "prev7_score": 39.632,
      "trend": "up",
      "trend_arrow": "🔺",
      "change_pct": 448.7,
      "place": "Sochaczew County, Poland"
    },
    {
      "lon": 24.25,
      "lat": 56.75,
      "type": "hotspot_cell",
      "score": 128.121,
      "count": 190,
      "cell_deg": 0.5,
      "sources": {
        "GDELT": 39,
        "GDELT_DOC": 0,
        "DIRECT_FEED": 151,
        "USGS": 0,
        "GDACS": 0
      },
      "last7_score": 125.479,
      "prev7_score": 2.642,
      "trend": "up",
      "trend_arrow": "🔺",
      "change_pct": 4649.9,
      "place": "Ķekavas novads, Latvia"
    },
    {
      "lon": 20.25,
      "lat": 47.25,
      "type": "hotspot_cell",
      "score": 114.418,
      "count": 289,
      "cell_deg": 0.5,
      "sources": {
        "GDELT": 289,
        "GDELT_DOC": 0,
        "DIRECT_FEED": 0,
        "USGS": 0,
        "GDACS": 0
      },
      "last7_score": 94.242,
      "prev7_score": 20.177,
      "trend": "up",
      "trend_arrow": "🔺",
      "change_pct": 367.1,
      "place": "Jász-Nagykun-Szolnok, Hungary"
    },
    {
      "lon": 25.25,
      "lat": 46.25,
      "type": "hotspot_cell",
      "score": 111.025,
      "count": 301,
      "cell_deg": 0.5,
      "sources": {
        "GDELT": 301,
        "GDELT_DOC": 0,
        "DIRECT_FEED": 0,
        "USGS": 0,
        "GDACS": 0
      },
      "last7_score": 91.643,
      "prev7_score": 19.382,
      "trend": "up",
      "trend_arrow": "🔺",
      "change_pct": 372.8,
      "place": "Harghita, Romania"
    },
    {
      "lon": 21.25,
      "lat": 52.25,
      "type": "hotspot_cell",
      "score": 100.456,
      "count": 213,
      "cell_deg": 0.5,
      "sources": {
        "GDELT": 213,
        "GDELT_DOC": 0,
        "DIRECT_FEED": 0,
        "USGS": 0,
        "GDACS": 0
      },
      "last7_score": 85.153,
      "prev7_score": 15.303,
      "trend": "up",
      "trend_arrow": "🔺",
      "change_pct": 456.4,
      "place": "Warsaw, Poland"
    },
    {
      "lon": 25.25,
      "lat": 57.25,
      "type": "hotspot_cell",
      "score": 94.681,
      "count": 162,
      "cell_deg": 0.5,
      "sources": {
        "GDELT": 162,
        "GDELT_DOC": 0,
        "DIRECT_FEED": 0,
        "USGS": 0,
        "GDACS": 0
      },
      "last7_score": 88.129,
      "prev7_score": 6.552,
      "trend": "up",
      "trend_arrow": "🔺",
      "change_pct": 1245.1,
      "place": "Cēsu novads, Latvia"
    }
  ]
}