{
  "generated_utc": "2026-03-05T13:06:13Z",
  "top": [
    {
      "lon": 21.25,
      "lat": 52.25,
      "type": "hotspot_cell",
      "score": 17.684,
      "count": 47,
      "cell_deg": 0.5,
      "sources": {
        "GDELT": 47,
        "USGS": 0,
        "GDACS": 0
      },
      "last7_score": 14.479,
      "prev7_score": 3.205,
      "trend": "up",
      "trend_arrow": "🔺",
      "change_pct": 351.7,
      "place": "Warsaw, Poland"
    },
    {
      "lon": 20.25,
      "lat": 52.25,
      "type": "hotspot_cell",
      "score": 16.742,
      "count": 47,
      "cell_deg": 0.5,
      "sources": {
        "GDELT": 47,
        "USGS": 0,
        "GDACS": 0
      },
      "last7_score": 13.55,
      "prev7_score": 3.192,
      "trend": "up",
      "trend_arrow": "🔺",
      "change_pct": 324.6,
      "place": "Sochaczew County, Poland"
    },
    {
      "lon": 20.25,
      "lat": 47.25,
      "type": "hotspot_cell",
      "score": 16.379,
      "count": 42,
      "cell_deg": 0.5,
      "sources": {
        "GDELT": 42,
        "USGS": 0,
        "GDACS": 0
      },
      "last7_score": 13.718,
      "prev7_score": 2.66,
      "trend": "up",
      "trend_arrow": "🔺",
      "change_pct": 415.7,
      "place": "Jász-Nagykun-Szolnok, Hungary"
    },
    {
      "lon": 19.25,
      "lat": 47.75,
      "type": "hotspot_cell",
      "score": 15.932,
      "count": 41,
      "cell_deg": 0.5,
      "sources": {
        "GDELT": 41,
        "USGS": 0,
        "GDACS": 0
      },
      "last7_score": 13.239,
      "prev7_score": 2.693,
      "trend": "up",
      "trend_arrow": "🔺",
      "change_pct": 391.7,
      "place": "Pest, Hungary"
    },
    {
      "lon": 26.25,
      "lat": 59.25,
      "type": "hotspot_cell",
      "score": 15.702,
      "count": 35,
      "cell_deg": 0.5,
      "sources": {
        "GDELT": 35,
        "USGS": 0,
        "GDACS": 0
      },
      "last7_score": 13.793,
      "prev7_score": 1.909,
      "trend": "up",
      "trend_arrow": "🔺",
      "change_pct": 622.5,
      "place": "Lääne-Viru County, Estonia"
    },
    {
      "lon": 25.25,
      "lat": 46.25,
      "type": "hotspot_cell",
      "score": 15.494,
      "count": 37,
      "cell_deg": 0.5,
      "sources": {
        "GDELT": 37,
        "USGS": 0,
        "GDACS": 0
      },
      "last7_score": 13.294,
      "prev7_score": 2.2,
      "trend": "up",
      "trend_arrow": "🔺",
      "change_pct": 504.4,
      "place": "Harghita, Romania"
    },
    {
      "lon": 14.25,
      "lat": 50.25,
      "type": "hotspot_cell",
      "score": 14.296,
      "count": 38,
      "cell_deg": 0.5,
      "sources": {
        "GDELT": 38,
        "USGS": 0,
        "GDACS": 0
      },
      "last7_score": 11.583,
      "prev7_score": 2.712,
      "trend": "up",
      "trend_arrow": "🔺",
      "change_pct": 327.1,
      "place": "SO ORP Kralupy nad Vltavou, Czechia"
    },
    {
      "lon": 25.25,
      "lat": 57.25,
      "type": "hotspot_cell",
      "score": 13.09,
      "count": 34,
      "cell_deg": 0.5,
      "sources": {
        "GDELT": 34,
        "USGS": 0,
        "GDACS": 0
      },
      "last7_score": 10.917,
      "prev7_score": 2.174,
      "trend": "up",
      "trend_arrow": "🔺",
      "change_pct": 402.2,
      "place": "Cēsu novads, Latvia"
    },
    {
      "lon": 15.25,
      "lat": 49.75,
      "type": "hotspot_cell",
      "score": 11.959,
      "count": 34,
      "cell_deg": 0.5,
      "sources": {
        "GDELT": 34,
        "USGS": 0,
        "GDACS": 0
      },
      "last7_score": 9.266,
      "prev7_score": 2.694,
      "trend": "up",
      "trend_arrow": "🔺",
      "change_pct": 244.0,
      "place": "Vysočina Region, Czechia"
    },
    {
      "lon": 24.75,
      "lat": 59.25,
      "type": "hotspot_cell",
      "score": 10.32,
      "count": 22,
      "cell_deg": 0.5,
      "sources": {
        "GDELT": 22,
        "USGS": 0,
        "GDACS": 0
      },
      "last7_score": 9.602,
      "prev7_score": 0.718,
      "trend": "up",
      "trend_arrow": "🔺",
      "change_pct": 1237.8,
      "place": "Harju County, Estonia"
    }
  ]
}