{
  "generated_utc": "2026-03-13T13:06:39Z",
  "top": [
    {
      "lon": 14.25,
      "lat": 50.25,
      "type": "hotspot_cell",
      "score": 812.028,
      "count": 1312,
      "cell_deg": 0.5,
      "sources": {
        "GDELT": 135,
        "GDELT_DOC": 1172,
        "DIRECT_FEED": 5,
        "USGS": 0,
        "GDACS": 0
      },
      "last7_score": 798.968,
      "prev7_score": 13.06,
      "trend": "up",
      "trend_arrow": "🔺",
      "change_pct": 6017.8,
      "place": "SO ORP Kralupy nad Vltavou, Czechia"
    },
    {
      "lon": 26.25,
      "lat": 44.25,
      "type": "hotspot_cell",
      "score": 779.778,
      "count": 1315,
      "cell_deg": 0.5,
      "sources": {
        "GDELT": 193,
        "GDELT_DOC": 1118,
        "DIRECT_FEED": 4,
        "USGS": 0,
        "GDACS": 0
      },
      "last7_score": 766.057,
      "prev7_score": 13.722,
      "trend": "up",
      "trend_arrow": "🔺",
      "change_pct": 5482.9,
      "place": "Giurgiu, Romania"
    },
    {
      "lon": 25.25,
      "lat": 54.75,
      "type": "hotspot_cell",
      "score": 597.729,
      "count": 920,
      "cell_deg": 0.5,
      "sources": {
        "GDELT": 68,
        "GDELT_DOC": 852,
        "DIRECT_FEED": 0,
        "USGS": 0,
        "GDACS": 0
      },
      "last7_score": 592.623,
      "prev7_score": 5.106,
      "trend": "up",
      "trend_arrow": "🔺",
      "change_pct": 11505.3,
      "place": "Vilnius County, Lithuania"
    },
    {
      "lon": 19.25,
      "lat": 47.75,
      "type": "hotspot_cell",
      "score": 290.761,
      "count": 574,
      "cell_deg": 0.5,
      "sources": {
        "GDELT": 396,
        "GDELT_DOC": 0,
        "DIRECT_FEED": 178,
        "USGS": 0,
        "GDACS": 0
      },
      "last7_score": 253.01,
      "prev7_score": 37.751,
      "trend": "up",
      "trend_arrow": "🔺",
      "change_pct": 570.2,
      "place": "Pest, Hungary"
    },
    {
      "lon": 20.25,
      "lat": 52.25,
      "type": "hotspot_cell",
      "score": 164.024,
      "count": 456,
      "cell_deg": 0.5,
      "sources": {
        "GDELT": 456,
        "GDELT_DOC": 0,
        "DIRECT_FEED": 0,
        "USGS": 0,
        "GDACS": 0
      },
      "last7_score": 126.484,
      "prev7_score": 37.54,
      "trend": "up",
      "trend_arrow": "🔺",
      "change_pct": 236.9,
      "place": "Sochaczew County, Poland"
    },
    {
      "lon": 24.25,
      "lat": 56.75,
      "type": "hotspot_cell",
      "score": 139.557,
      "count": 188,
      "cell_deg": 0.5,
      "sources": {
        "GDELT": 27,
        "GDELT_DOC": 0,
        "DIRECT_FEED": 161,
        "USGS": 0,
        "GDACS": 0
      },
      "last7_score": 137.602,
      "prev7_score": 1.955,
      "trend": "up",
      "trend_arrow": "🔺",
      "change_pct": 6939.2,
      "place": "Ķekavas novads, Latvia"
    },
    {
      "lon": 20.25,
      "lat": 47.25,
      "type": "hotspot_cell",
      "score": 138.938,
      "count": 335,
      "cell_deg": 0.5,
      "sources": {
        "GDELT": 335,
        "GDELT_DOC": 0,
        "DIRECT_FEED": 0,
        "USGS": 0,
        "GDACS": 0
      },
      "last7_score": 114.733,
      "prev7_score": 24.204,
      "trend": "up",
      "trend_arrow": "🔺",
      "change_pct": 374.0,
      "place": "Jász-Nagykun-Szolnok, Hungary"
    },
    {
      "lon": 25.25,
      "lat": 46.25,
      "type": "hotspot_cell",
      "score": 133.017,
      "count": 310,
      "cell_deg": 0.5,
      "sources": {
        "GDELT": 310,
        "GDELT_DOC": 0,
        "DIRECT_FEED": 0,
        "USGS": 0,
        "GDACS": 0
      },
      "last7_score": 110.305,
      "prev7_score": 22.712,
      "trend": "up",
      "trend_arrow": "🔺",
      "change_pct": 385.7,
      "place": "Harghita, Romania"
    },
    {
      "lon": 21.25,
      "lat": 52.25,
      "type": "hotspot_cell",
      "score": 83.52,
      "count": 218,
      "cell_deg": 0.5,
      "sources": {
        "GDELT": 218,
        "GDELT_DOC": 0,
        "DIRECT_FEED": 0,
        "USGS": 0,
        "GDACS": 0
      },
      "last7_score": 64.77,
      "prev7_score": 18.75,
      "trend": "up",
      "trend_arrow": "🔺",
      "change_pct": 245.4,
      "place": "Warsaw, Poland"
    },
    {
      "lon": 15.25,
      "lat": 49.75,
      "type": "hotspot_cell",
      "score": 59.055,
      "count": 161,
      "cell_deg": 0.5,
      "sources": {
        "GDELT": 161,
        "GDELT_DOC": 0,
        "DIRECT_FEED": 0,
        "USGS": 0,
        "GDACS": 0
      },
      "last7_score": 46.37,
      "prev7_score": 12.685,
      "trend": "up",
      "trend_arrow": "🔺",
      "change_pct": 265.6,
      "place": "Vysočina Region, Czechia"
    }
  ]
}