{
  "generated_utc": "2026-03-02T18:57:03Z",
  "top": [
    {
      "lon": 21.25,
      "lat": 52.25,
      "type": "hotspot_cell",
      "score": 20.095,
      "count": 48,
      "cell_deg": 0.5,
      "sources": {
        "GDELT": 48,
        "USGS": 0,
        "GDACS": 0
      },
      "last7_score": 18.1,
      "prev7_score": 1.995,
      "trend": "up",
      "trend_arrow": "🔺",
      "change_pct": 807.4,
      "place": "Warsaw, Poland"
    },
    {
      "lon": 20.25,
      "lat": 52.25,
      "type": "hotspot_cell",
      "score": 16.658,
      "count": 49,
      "cell_deg": 0.5,
      "sources": {
        "GDELT": 49,
        "USGS": 0,
        "GDACS": 0
      },
      "last7_score": 13.691,
      "prev7_score": 2.967,
      "trend": "up",
      "trend_arrow": "🔺",
      "change_pct": 361.5,
      "place": "Sochaczew County, Poland"
    },
    {
      "lon": 20.25,
      "lat": 47.25,
      "type": "hotspot_cell",
      "score": 14.451,
      "count": 41,
      "cell_deg": 0.5,
      "sources": {
        "GDELT": 41,
        "USGS": 0,
        "GDACS": 0
      },
      "last7_score": 11.855,
      "prev7_score": 2.595,
      "trend": "up",
      "trend_arrow": "🔺",
      "change_pct": 356.8,
      "place": "Jász-Nagykun-Szolnok, Hungary"
    },
    {
      "lon": 14.25,
      "lat": 50.25,
      "type": "hotspot_cell",
      "score": 14.19,
      "count": 37,
      "cell_deg": 0.5,
      "sources": {
        "GDELT": 37,
        "USGS": 0,
        "GDACS": 0
      },
      "last7_score": 12.403,
      "prev7_score": 1.787,
      "trend": "up",
      "trend_arrow": "🔺",
      "change_pct": 594.0,
      "place": "SO ORP Kralupy nad Vltavou, Czechia"
    },
    {
      "lon": 26.25,
      "lat": 59.25,
      "type": "hotspot_cell",
      "score": 13.26,
      "count": 35,
      "cell_deg": 0.5,
      "sources": {
        "GDELT": 35,
        "USGS": 0,
        "GDACS": 0
      },
      "last7_score": 11.402,
      "prev7_score": 1.857,
      "trend": "up",
      "trend_arrow": "🔺",
      "change_pct": 513.9,
      "place": "Lääne-Viru County, Estonia"
    },
    {
      "lon": 25.25,
      "lat": 46.25,
      "type": "hotspot_cell",
      "score": 13.225,
      "count": 36,
      "cell_deg": 0.5,
      "sources": {
        "GDELT": 36,
        "USGS": 0,
        "GDACS": 0
      },
      "last7_score": 11.23,
      "prev7_score": 1.995,
      "trend": "up",
      "trend_arrow": "🔺",
      "change_pct": 463.0,
      "place": "Harghita, Romania"
    },
    {
      "lon": 19.25,
      "lat": 47.75,
      "type": "hotspot_cell",
      "score": 13.147,
      "count": 38,
      "cell_deg": 0.5,
      "sources": {
        "GDELT": 38,
        "USGS": 0,
        "GDACS": 0
      },
      "last7_score": 10.683,
      "prev7_score": 2.463,
      "trend": "up",
      "trend_arrow": "🔺",
      "change_pct": 333.7,
      "place": "Pest, Hungary"
    },
    {
      "lon": 25.25,
      "lat": 57.25,
      "type": "hotspot_cell",
      "score": 11.36,
      "count": 34,
      "cell_deg": 0.5,
      "sources": {
        "GDELT": 34,
        "USGS": 0,
        "GDACS": 0
      },
      "last7_score": 9.371,
      "prev7_score": 1.989,
      "trend": "up",
      "trend_arrow": "🔺",
      "change_pct": 371.1,
      "place": "Cēsu novads, Latvia"
    },
    {
      "lon": 15.25,
      "lat": 49.75,
      "type": "hotspot_cell",
      "score": 11.225,
      "count": 34,
      "cell_deg": 0.5,
      "sources": {
        "GDELT": 34,
        "USGS": 0,
        "GDACS": 0
      },
      "last7_score": 9.137,
      "prev7_score": 2.088,
      "trend": "up",
      "trend_arrow": "🔺",
      "change_pct": 337.5,
      "place": "Vysočina Region, Czechia"
    },
    {
      "lon": 19.75,
      "lat": 48.75,
      "type": "hotspot_cell",
      "score": 11.076,
      "count": 32,
      "cell_deg": 0.5,
      "sources": {
        "GDELT": 32,
        "USGS": 0,
        "GDACS": 0
      },
      "last7_score": 9.118,
      "prev7_score": 1.957,
      "trend": "up",
      "trend_arrow": "🔺",
      "change_pct": 365.8,
      "place": "District of Brezno, Slovakia"
    }
  ]
}