{
  "generated_utc": "2026-05-10T03:05:48Z",
  "top": [
    {
      "lon": 14.25,
      "lat": 50.25,
      "type": "hotspot_cell",
      "score": 783.047,
      "count": 1356,
      "cell_deg": 0.5,
      "sources": {
        "GDELT": 153,
        "GDELT_DOC": 1200,
        "DIRECT_FEED": 3,
        "USGS": 0,
        "GDACS": 0
      },
      "last7_score": 770.971,
      "prev7_score": 12.075,
      "trend": "up",
      "trend_arrow": "🔺",
      "change_pct": 6284.7,
      "place": "SO ORP Kralupy nad Vltavou, Czechia"
    },
    {
      "lon": 25.25,
      "lat": 54.75,
      "type": "hotspot_cell",
      "score": 652.435,
      "count": 1036,
      "cell_deg": 0.5,
      "sources": {
        "GDELT": 73,
        "GDELT_DOC": 963,
        "DIRECT_FEED": 0,
        "USGS": 0,
        "GDACS": 0
      },
      "last7_score": 648.716,
      "prev7_score": 3.719,
      "trend": "up",
      "trend_arrow": "🔺",
      "change_pct": 17344.7,
      "place": "Vilnius County, Lithuania"
    },
    {
      "lon": 26.25,
      "lat": 44.25,
      "type": "hotspot_cell",
      "score": 636.373,
      "count": 1070,
      "cell_deg": 0.5,
      "sources": {
        "GDELT": 154,
        "GDELT_DOC": 907,
        "DIRECT_FEED": 9,
        "USGS": 0,
        "GDACS": 0
      },
      "last7_score": 629.616,
      "prev7_score": 6.757,
      "trend": "up",
      "trend_arrow": "🔺",
      "change_pct": 9217.8,
      "place": "Giurgiu, Romania"
    },
    {
      "lon": 19.25,
      "lat": 47.75,
      "type": "hotspot_cell",
      "score": 229.485,
      "count": 428,
      "cell_deg": 0.5,
      "sources": {
        "GDELT": 249,
        "GDELT_DOC": 0,
        "DIRECT_FEED": 179,
        "USGS": 0,
        "GDACS": 0
      },
      "last7_score": 217.45,
      "prev7_score": 12.036,
      "trend": "up",
      "trend_arrow": "🔺",
      "change_pct": 1706.7,
      "place": "Pest, Hungary"
    },
    {
      "lon": 20.25,
      "lat": 52.25,
      "type": "hotspot_cell",
      "score": 191.982,
      "count": 515,
      "cell_deg": 0.5,
      "sources": {
        "GDELT": 515,
        "GDELT_DOC": 0,
        "DIRECT_FEED": 0,
        "USGS": 0,
        "GDACS": 0
      },
      "last7_score": 156.093,
      "prev7_score": 35.889,
      "trend": "up",
      "trend_arrow": "🔺",
      "change_pct": 334.9,
      "place": "Sochaczew County, Poland"
    },
    {
      "lon": 25.25,
      "lat": 46.25,
      "type": "hotspot_cell",
      "score": 104.385,
      "count": 345,
      "cell_deg": 0.5,
      "sources": {
        "GDELT": 345,
        "GDELT_DOC": 0,
        "DIRECT_FEED": 0,
        "USGS": 0,
        "GDACS": 0
      },
      "last7_score": 79.022,
      "prev7_score": 25.363,
      "trend": "up",
      "trend_arrow": "🔺",
      "change_pct": 211.6,
      "place": "Harghita, Romania"
    },
    {
      "lon": 20.25,
      "lat": 47.25,
      "type": "hotspot_cell",
      "score": 100.395,
      "count": 283,
      "cell_deg": 0.5,
      "sources": {
        "GDELT": 283,
        "GDELT_DOC": 0,
        "DIRECT_FEED": 0,
        "USGS": 0,
        "GDACS": 0
      },
      "last7_score": 82.735,
      "prev7_score": 17.66,
      "trend": "up",
      "trend_arrow": "🔺",
      "change_pct": 368.5,
      "place": "Jász-Nagykun-Szolnok, Hungary"
    },
    {
      "lon": 24.25,
      "lat": 56.75,
      "type": "hotspot_cell",
      "score": 92.323,
      "count": 153,
      "cell_deg": 0.5,
      "sources": {
        "GDELT": 33,
        "GDELT_DOC": 0,
        "DIRECT_FEED": 120,
        "USGS": 0,
        "GDACS": 0
      },
      "last7_score": 91.362,
      "prev7_score": 0.961,
      "trend": "up",
      "trend_arrow": "🔺",
      "change_pct": 9406.2,
      "place": "Ķekavas novads, Latvia"
    },
    {
      "lon": 21.25,
      "lat": 52.25,
      "type": "hotspot_cell",
      "score": 72.392,
      "count": 177,
      "cell_deg": 0.5,
      "sources": {
        "GDELT": 177,
        "GDELT_DOC": 0,
        "DIRECT_FEED": 0,
        "USGS": 0,
        "GDACS": 0
      },
      "last7_score": 62.939,
      "prev7_score": 9.454,
      "trend": "up",
      "trend_arrow": "🔺",
      "change_pct": 565.8,
      "place": "Warsaw, Poland"
    },
    {
      "lon": 27.75,
      "lat": 47.25,
      "type": "hotspot_cell",
      "score": 63.482,
      "count": 94,
      "cell_deg": 0.5,
      "sources": {
        "GDELT": 0,
        "GDELT_DOC": 94,
        "DIRECT_FEED": 0,
        "USGS": 0,
        "GDACS": 0
      },
      "last7_score": 63.482,
      "prev7_score": 0.0,
      "trend": "new",
      "trend_arrow": "🆕",
      "change_pct": null,
      "place": "Iași, Romania"
    }
  ]
}