{
  "generated_utc": "2026-05-06T08:33:10Z",
  "top": [
    {
      "lon": 14.25,
      "lat": 50.25,
      "type": "hotspot_cell",
      "score": 807.397,
      "count": 1410,
      "cell_deg": 0.5,
      "sources": {
        "GDELT": 170,
        "GDELT_DOC": 1237,
        "DIRECT_FEED": 3,
        "USGS": 0,
        "GDACS": 0
      },
      "last7_score": 792.284,
      "prev7_score": 15.113,
      "trend": "up",
      "trend_arrow": "🔺",
      "change_pct": 5142.4,
      "place": "SO ORP Kralupy nad Vltavou, Czechia"
    },
    {
      "lon": 26.25,
      "lat": 44.25,
      "type": "hotspot_cell",
      "score": 669.33,
      "count": 1179,
      "cell_deg": 0.5,
      "sources": {
        "GDELT": 136,
        "GDELT_DOC": 1039,
        "DIRECT_FEED": 4,
        "USGS": 0,
        "GDACS": 0
      },
      "last7_score": 658.887,
      "prev7_score": 10.443,
      "trend": "up",
      "trend_arrow": "🔺",
      "change_pct": 6209.6,
      "place": "Giurgiu, Romania"
    },
    {
      "lon": 25.25,
      "lat": 54.75,
      "type": "hotspot_cell",
      "score": 601.903,
      "count": 1022,
      "cell_deg": 0.5,
      "sources": {
        "GDELT": 60,
        "GDELT_DOC": 962,
        "DIRECT_FEED": 0,
        "USGS": 0,
        "GDACS": 0
      },
      "last7_score": 595.989,
      "prev7_score": 5.914,
      "trend": "up",
      "trend_arrow": "🔺",
      "change_pct": 9977.6,
      "place": "Vilnius County, Lithuania"
    },
    {
      "lon": 20.25,
      "lat": 52.25,
      "type": "hotspot_cell",
      "score": 202.001,
      "count": 499,
      "cell_deg": 0.5,
      "sources": {
        "GDELT": 499,
        "GDELT_DOC": 0,
        "DIRECT_FEED": 0,
        "USGS": 0,
        "GDACS": 0
      },
      "last7_score": 167.55,
      "prev7_score": 34.451,
      "trend": "up",
      "trend_arrow": "🔺",
      "change_pct": 386.3,
      "place": "Sochaczew County, Poland"
    },
    {
      "lon": 19.25,
      "lat": 47.75,
      "type": "hotspot_cell",
      "score": 167.016,
      "count": 362,
      "cell_deg": 0.5,
      "sources": {
        "GDELT": 198,
        "GDELT_DOC": 0,
        "DIRECT_FEED": 164,
        "USGS": 0,
        "GDACS": 0
      },
      "last7_score": 148.288,
      "prev7_score": 18.728,
      "trend": "up",
      "trend_arrow": "🔺",
      "change_pct": 691.8,
      "place": "Pest, Hungary"
    },
    {
      "lon": 25.25,
      "lat": 46.25,
      "type": "hotspot_cell",
      "score": 134.246,
      "count": 342,
      "cell_deg": 0.5,
      "sources": {
        "GDELT": 342,
        "GDELT_DOC": 0,
        "DIRECT_FEED": 0,
        "USGS": 0,
        "GDACS": 0
      },
      "last7_score": 107.79,
      "prev7_score": 26.456,
      "trend": "up",
      "trend_arrow": "🔺",
      "change_pct": 307.4,
      "place": "Harghita, Romania"
    },
    {
      "lon": 24.25,
      "lat": 56.75,
      "type": "hotspot_cell",
      "score": 105.77,
      "count": 157,
      "cell_deg": 0.5,
      "sources": {
        "GDELT": 34,
        "GDELT_DOC": 0,
        "DIRECT_FEED": 123,
        "USGS": 0,
        "GDACS": 0
      },
      "last7_score": 103.309,
      "prev7_score": 2.461,
      "trend": "up",
      "trend_arrow": "🔺",
      "change_pct": 4097.2,
      "place": "Ķekavas novads, Latvia"
    },
    {
      "lon": 20.25,
      "lat": 47.25,
      "type": "hotspot_cell",
      "score": 92.306,
      "count": 346,
      "cell_deg": 0.5,
      "sources": {
        "GDELT": 346,
        "GDELT_DOC": 0,
        "DIRECT_FEED": 0,
        "USGS": 0,
        "GDACS": 0
      },
      "last7_score": 61.9,
      "prev7_score": 30.405,
      "trend": "up",
      "trend_arrow": "🔺",
      "change_pct": 103.6,
      "place": "Jász-Nagykun-Szolnok, Hungary"
    },
    {
      "lon": 15.25,
      "lat": 49.75,
      "type": "hotspot_cell",
      "score": 64.539,
      "count": 192,
      "cell_deg": 0.5,
      "sources": {
        "GDELT": 192,
        "GDELT_DOC": 0,
        "DIRECT_FEED": 0,
        "USGS": 0,
        "GDACS": 0
      },
      "last7_score": 46.545,
      "prev7_score": 17.995,
      "trend": "up",
      "trend_arrow": "🔺",
      "change_pct": 158.7,
      "place": "Vysočina Region, Czechia"
    },
    {
      "lon": 21.25,
      "lat": 52.25,
      "type": "hotspot_cell",
      "score": 51.478,
      "count": 153,
      "cell_deg": 0.5,
      "sources": {
        "GDELT": 153,
        "GDELT_DOC": 0,
        "DIRECT_FEED": 0,
        "USGS": 0,
        "GDACS": 0
      },
      "last7_score": 37.7,
      "prev7_score": 13.778,
      "trend": "up",
      "trend_arrow": "🔺",
      "change_pct": 173.6,
      "place": "Warsaw, Poland"
    }
  ]
}