{
  "generated_utc": "2026-05-26T14:55:38Z",
  "top": [
    {
      "lon": 14.25,
      "lat": 50.25,
      "type": "hotspot_cell",
      "score": 995.562,
      "count": 1605,
      "cell_deg": 0.5,
      "sources": {
        "GDELT": 140,
        "GDELT_DOC": 1445,
        "DIRECT_FEED": 20,
        "USGS": 0,
        "GDACS": 0
      },
      "last7_score": 988.592,
      "prev7_score": 6.97,
      "trend": "up",
      "trend_arrow": "🔺",
      "change_pct": 14083.3,
      "place": "SO ORP Kralupy nad Vltavou, Czechia"
    },
    {
      "lon": 26.25,
      "lat": 44.25,
      "type": "hotspot_cell",
      "score": 749.913,
      "count": 1355,
      "cell_deg": 0.5,
      "sources": {
        "GDELT": 177,
        "GDELT_DOC": 1176,
        "DIRECT_FEED": 2,
        "USGS": 0,
        "GDACS": 0
      },
      "last7_score": 739.576,
      "prev7_score": 10.336,
      "trend": "up",
      "trend_arrow": "🔺",
      "change_pct": 7055.0,
      "place": "Giurgiu, Romania"
    },
    {
      "lon": 25.25,
      "lat": 54.75,
      "type": "hotspot_cell",
      "score": 617.016,
      "count": 1089,
      "cell_deg": 0.5,
      "sources": {
        "GDELT": 105,
        "GDELT_DOC": 981,
        "DIRECT_FEED": 3,
        "USGS": 0,
        "GDACS": 0
      },
      "last7_score": 612.795,
      "prev7_score": 4.221,
      "trend": "up",
      "trend_arrow": "🔺",
      "change_pct": 14416.5,
      "place": "Vilnius County, Lithuania"
    },
    {
      "lon": 20.25,
      "lat": 52.25,
      "type": "hotspot_cell",
      "score": 293.887,
      "count": 806,
      "cell_deg": 0.5,
      "sources": {
        "GDELT": 806,
        "GDELT_DOC": 0,
        "DIRECT_FEED": 0,
        "USGS": 0,
        "GDACS": 0
      },
      "last7_score": 254.182,
      "prev7_score": 39.705,
      "trend": "up",
      "trend_arrow": "🔺",
      "change_pct": 540.2,
      "place": "Sochaczew County, Poland"
    },
    {
      "lon": 19.25,
      "lat": 47.75,
      "type": "hotspot_cell",
      "score": 205.408,
      "count": 434,
      "cell_deg": 0.5,
      "sources": {
        "GDELT": 207,
        "GDELT_DOC": 0,
        "DIRECT_FEED": 227,
        "USGS": 0,
        "GDACS": 0
      },
      "last7_score": 190.953,
      "prev7_score": 14.454,
      "trend": "up",
      "trend_arrow": "🔺",
      "change_pct": 1221.1,
      "place": "Pest, Hungary"
    },
    {
      "lon": 25.25,
      "lat": 46.25,
      "type": "hotspot_cell",
      "score": 125.124,
      "count": 320,
      "cell_deg": 0.5,
      "sources": {
        "GDELT": 320,
        "GDELT_DOC": 0,
        "DIRECT_FEED": 0,
        "USGS": 0,
        "GDACS": 0
      },
      "last7_score": 104.502,
      "prev7_score": 20.622,
      "trend": "up",
      "trend_arrow": "🔺",
      "change_pct": 406.8,
      "place": "Harghita, Romania"
    },
    {
      "lon": 24.25,
      "lat": 56.75,
      "type": "hotspot_cell",
      "score": 103.42,
      "count": 178,
      "cell_deg": 0.5,
      "sources": {
        "GDELT": 56,
        "GDELT_DOC": 0,
        "DIRECT_FEED": 122,
        "USGS": 0,
        "GDACS": 0
      },
      "last7_score": 99.299,
      "prev7_score": 4.121,
      "trend": "up",
      "trend_arrow": "🔺",
      "change_pct": 2309.8,
      "place": "Ķekavas novads, Latvia"
    },
    {
      "lon": 21.25,
      "lat": 52.25,
      "type": "hotspot_cell",
      "score": 85.283,
      "count": 267,
      "cell_deg": 0.5,
      "sources": {
        "GDELT": 267,
        "GDELT_DOC": 0,
        "DIRECT_FEED": 0,
        "USGS": 0,
        "GDACS": 0
      },
      "last7_score": 69.636,
      "prev7_score": 15.647,
      "trend": "up",
      "trend_arrow": "🔺",
      "change_pct": 345.0,
      "place": "Warsaw, Poland"
    },
    {
      "lon": 20.25,
      "lat": 47.25,
      "type": "hotspot_cell",
      "score": 78.421,
      "count": 247,
      "cell_deg": 0.5,
      "sources": {
        "GDELT": 247,
        "GDELT_DOC": 0,
        "DIRECT_FEED": 0,
        "USGS": 0,
        "GDACS": 0
      },
      "last7_score": 61.033,
      "prev7_score": 17.387,
      "trend": "up",
      "trend_arrow": "🔺",
      "change_pct": 251.0,
      "place": "Jász-Nagykun-Szolnok, Hungary"
    },
    {
      "lon": 26.25,
      "lat": 59.25,
      "type": "hotspot_cell",
      "score": 56.831,
      "count": 154,
      "cell_deg": 0.5,
      "sources": {
        "GDELT": 154,
        "GDELT_DOC": 0,
        "DIRECT_FEED": 0,
        "USGS": 0,
        "GDACS": 0
      },
      "last7_score": 47.031,
      "prev7_score": 9.8,
      "trend": "up",
      "trend_arrow": "🔺",
      "change_pct": 379.9,
      "place": "Lääne-Viru County, Estonia"
    }
  ]
}