{
  "generated_utc": "2026-05-05T02:49:31Z",
  "top": [
    {
      "lon": 14.25,
      "lat": 50.25,
      "type": "hotspot_cell",
      "score": 886.421,
      "count": 1487,
      "cell_deg": 0.5,
      "sources": {
        "GDELT": 171,
        "GDELT_DOC": 1312,
        "DIRECT_FEED": 4,
        "USGS": 0,
        "GDACS": 0
      },
      "last7_score": 870.141,
      "prev7_score": 16.279,
      "trend": "up",
      "trend_arrow": "🔺",
      "change_pct": 5245.0,
      "place": "SO ORP Kralupy nad Vltavou, Czechia"
    },
    {
      "lon": 26.25,
      "lat": 44.25,
      "type": "hotspot_cell",
      "score": 746.216,
      "count": 1281,
      "cell_deg": 0.5,
      "sources": {
        "GDELT": 120,
        "GDELT_DOC": 1159,
        "DIRECT_FEED": 2,
        "USGS": 0,
        "GDACS": 0
      },
      "last7_score": 734.373,
      "prev7_score": 11.843,
      "trend": "up",
      "trend_arrow": "🔺",
      "change_pct": 6100.9,
      "place": "Giurgiu, Romania"
    },
    {
      "lon": 25.25,
      "lat": 54.75,
      "type": "hotspot_cell",
      "score": 649.256,
      "count": 1059,
      "cell_deg": 0.5,
      "sources": {
        "GDELT": 60,
        "GDELT_DOC": 999,
        "DIRECT_FEED": 0,
        "USGS": 0,
        "GDACS": 0
      },
      "last7_score": 643.546,
      "prev7_score": 5.71,
      "trend": "up",
      "trend_arrow": "🔺",
      "change_pct": 11170.9,
      "place": "Vilnius County, Lithuania"
    },
    {
      "lon": 20.25,
      "lat": 52.25,
      "type": "hotspot_cell",
      "score": 189.112,
      "count": 480,
      "cell_deg": 0.5,
      "sources": {
        "GDELT": 480,
        "GDELT_DOC": 0,
        "DIRECT_FEED": 0,
        "USGS": 0,
        "GDACS": 0
      },
      "last7_score": 154.586,
      "prev7_score": 34.526,
      "trend": "up",
      "trend_arrow": "🔺",
      "change_pct": 347.7,
      "place": "Sochaczew County, Poland"
    },
    {
      "lon": 19.25,
      "lat": 47.75,
      "type": "hotspot_cell",
      "score": 168.087,
      "count": 418,
      "cell_deg": 0.5,
      "sources": {
        "GDELT": 242,
        "GDELT_DOC": 0,
        "DIRECT_FEED": 176,
        "USGS": 0,
        "GDACS": 0
      },
      "last7_score": 149.057,
      "prev7_score": 19.029,
      "trend": "up",
      "trend_arrow": "🔺",
      "change_pct": 683.3,
      "place": "Pest, Hungary"
    },
    {
      "lon": 25.25,
      "lat": 46.25,
      "type": "hotspot_cell",
      "score": 120.352,
      "count": 320,
      "cell_deg": 0.5,
      "sources": {
        "GDELT": 320,
        "GDELT_DOC": 0,
        "DIRECT_FEED": 0,
        "USGS": 0,
        "GDACS": 0
      },
      "last7_score": 96.914,
      "prev7_score": 23.438,
      "trend": "up",
      "trend_arrow": "🔺",
      "change_pct": 313.5,
      "place": "Harghita, Romania"
    },
    {
      "lon": 20.25,
      "lat": 47.25,
      "type": "hotspot_cell",
      "score": 104.354,
      "count": 397,
      "cell_deg": 0.5,
      "sources": {
        "GDELT": 397,
        "GDELT_DOC": 0,
        "DIRECT_FEED": 0,
        "USGS": 0,
        "GDACS": 0
      },
      "last7_score": 68.805,
      "prev7_score": 35.549,
      "trend": "up",
      "trend_arrow": "🔺",
      "change_pct": 93.6,
      "place": "Jász-Nagykun-Szolnok, Hungary"
    },
    {
      "lon": 24.25,
      "lat": 56.75,
      "type": "hotspot_cell",
      "score": 99.731,
      "count": 163,
      "cell_deg": 0.5,
      "sources": {
        "GDELT": 25,
        "GDELT_DOC": 0,
        "DIRECT_FEED": 138,
        "USGS": 0,
        "GDACS": 0
      },
      "last7_score": 97.055,
      "prev7_score": 2.675,
      "trend": "up",
      "trend_arrow": "🔺",
      "change_pct": 3527.6,
      "place": "Ķekavas novads, Latvia"
    },
    {
      "lon": 15.25,
      "lat": 49.75,
      "type": "hotspot_cell",
      "score": 74.282,
      "count": 194,
      "cell_deg": 0.5,
      "sources": {
        "GDELT": 194,
        "GDELT_DOC": 0,
        "DIRECT_FEED": 0,
        "USGS": 0,
        "GDACS": 0
      },
      "last7_score": 60.139,
      "prev7_score": 14.143,
      "trend": "up",
      "trend_arrow": "🔺",
      "change_pct": 325.2,
      "place": "Vysočina Region, Czechia"
    },
    {
      "lon": 21.25,
      "lat": 52.25,
      "type": "hotspot_cell",
      "score": 50.399,
      "count": 150,
      "cell_deg": 0.5,
      "sources": {
        "GDELT": 150,
        "GDELT_DOC": 0,
        "DIRECT_FEED": 0,
        "USGS": 0,
        "GDACS": 0
      },
      "last7_score": 34.678,
      "prev7_score": 15.721,
      "trend": "up",
      "trend_arrow": "🔺",
      "change_pct": 120.6,
      "place": "Warsaw, Poland"
    }
  ]
}