{
  "generated_utc": "2026-03-06T18:51:35Z",
  "top": [
    {
      "lon": 14.25,
      "lat": 50.25,
      "type": "hotspot_cell",
      "score": 246.449,
      "count": 312,
      "cell_deg": 0.5,
      "sources": {
        "GDELT": 165,
        "GDELT_DOC": 147,
        "DIRECT_FEED": 0,
        "USGS": 0,
        "GDACS": 0
      },
      "last7_score": 235.858,
      "prev7_score": 10.591,
      "trend": "up",
      "trend_arrow": "🔺",
      "change_pct": 2126.9,
      "place": "SO ORP Kralupy nad Vltavou, Czechia"
    },
    {
      "lon": 19.25,
      "lat": 47.75,
      "type": "hotspot_cell",
      "score": 232.205,
      "count": 480,
      "cell_deg": 0.5,
      "sources": {
        "GDELT": 453,
        "GDELT_DOC": 0,
        "DIRECT_FEED": 27,
        "USGS": 0,
        "GDACS": 0
      },
      "last7_score": 197.335,
      "prev7_score": 34.87,
      "trend": "up",
      "trend_arrow": "🔺",
      "change_pct": 465.9,
      "place": "Pest, Hungary"
    },
    {
      "lon": 26.25,
      "lat": 44.25,
      "type": "hotspot_cell",
      "score": 229.753,
      "count": 314,
      "cell_deg": 0.5,
      "sources": {
        "GDELT": 188,
        "GDELT_DOC": 126,
        "DIRECT_FEED": 0,
        "USGS": 0,
        "GDACS": 0
      },
      "last7_score": 216.97,
      "prev7_score": 12.783,
      "trend": "up",
      "trend_arrow": "🔺",
      "change_pct": 1597.3,
      "place": "Giurgiu, Romania"
    },
    {
      "lon": 20.25,
      "lat": 52.25,
      "type": "hotspot_cell",
      "score": 211.728,
      "count": 554,
      "cell_deg": 0.5,
      "sources": {
        "GDELT": 554,
        "GDELT_DOC": 0,
        "DIRECT_FEED": 0,
        "USGS": 0,
        "GDACS": 0
      },
      "last7_score": 171.308,
      "prev7_score": 40.419,
      "trend": "up",
      "trend_arrow": "🔺",
      "change_pct": 323.8,
      "place": "Sochaczew County, Poland"
    },
    {
      "lon": 20.25,
      "lat": 47.25,
      "type": "hotspot_cell",
      "score": 144.611,
      "count": 418,
      "cell_deg": 0.5,
      "sources": {
        "GDELT": 418,
        "GDELT_DOC": 0,
        "DIRECT_FEED": 0,
        "USGS": 0,
        "GDACS": 0
      },
      "last7_score": 111.73,
      "prev7_score": 32.881,
      "trend": "up",
      "trend_arrow": "🔺",
      "change_pct": 239.8,
      "place": "Jász-Nagykun-Szolnok, Hungary"
    },
    {
      "lon": 25.25,
      "lat": 54.75,
      "type": "hotspot_cell",
      "score": 134.469,
      "count": 161,
      "cell_deg": 0.5,
      "sources": {
        "GDELT": 75,
        "GDELT_DOC": 86,
        "DIRECT_FEED": 0,
        "USGS": 0,
        "GDACS": 0
      },
      "last7_score": 127.751,
      "prev7_score": 6.718,
      "trend": "up",
      "trend_arrow": "🔺",
      "change_pct": 1801.8,
      "place": "Vilnius County, Lithuania"
    },
    {
      "lon": 25.25,
      "lat": 46.25,
      "type": "hotspot_cell",
      "score": 130.198,
      "count": 327,
      "cell_deg": 0.5,
      "sources": {
        "GDELT": 327,
        "GDELT_DOC": 0,
        "DIRECT_FEED": 0,
        "USGS": 0,
        "GDACS": 0
      },
      "last7_score": 105.771,
      "prev7_score": 24.427,
      "trend": "up",
      "trend_arrow": "🔺",
      "change_pct": 333.0,
      "place": "Harghita, Romania"
    },
    {
      "lon": 21.25,
      "lat": 52.25,
      "type": "hotspot_cell",
      "score": 104.4,
      "count": 245,
      "cell_deg": 0.5,
      "sources": {
        "GDELT": 245,
        "GDELT_DOC": 0,
        "DIRECT_FEED": 0,
        "USGS": 0,
        "GDACS": 0
      },
      "last7_score": 85.935,
      "prev7_score": 18.465,
      "trend": "up",
      "trend_arrow": "🔺",
      "change_pct": 365.4,
      "place": "Warsaw, Poland"
    },
    {
      "lon": 15.25,
      "lat": 49.75,
      "type": "hotspot_cell",
      "score": 69.61,
      "count": 174,
      "cell_deg": 0.5,
      "sources": {
        "GDELT": 174,
        "GDELT_DOC": 0,
        "DIRECT_FEED": 0,
        "USGS": 0,
        "GDACS": 0
      },
      "last7_score": 58.209,
      "prev7_score": 11.401,
      "trend": "up",
      "trend_arrow": "🔺",
      "change_pct": 410.5,
      "place": "Vysočina Region, Czechia"
    },
    {
      "lon": 24.25,
      "lat": 56.25,
      "type": "hotspot_cell",
      "score": 66.247,
      "count": 150,
      "cell_deg": 0.5,
      "sources": {
        "GDELT": 150,
        "GDELT_DOC": 0,
        "DIRECT_FEED": 0,
        "USGS": 0,
        "GDACS": 0
      },
      "last7_score": 54.765,
      "prev7_score": 11.481,
      "trend": "up",
      "trend_arrow": "🔺",
      "change_pct": 377.0,
      "place": "Namišių seniūnija, Lithuania"
    }
  ]
}