{
  "generated_utc": "2026-03-13T02:12:10Z",
  "top": [
    {
      "lon": 26.25,
      "lat": 44.25,
      "type": "hotspot_cell",
      "score": 818.564,
      "count": 1317,
      "cell_deg": 0.5,
      "sources": {
        "GDELT": 181,
        "GDELT_DOC": 1133,
        "DIRECT_FEED": 3,
        "USGS": 0,
        "GDACS": 0
      },
      "last7_score": 803.323,
      "prev7_score": 15.241,
      "trend": "up",
      "trend_arrow": "🔺",
      "change_pct": 5170.8,
      "place": "Giurgiu, Romania"
    },
    {
      "lon": 14.25,
      "lat": 50.25,
      "type": "hotspot_cell",
      "score": 775.072,
      "count": 1257,
      "cell_deg": 0.5,
      "sources": {
        "GDELT": 132,
        "GDELT_DOC": 1121,
        "DIRECT_FEED": 4,
        "USGS": 0,
        "GDACS": 0
      },
      "last7_score": 760.566,
      "prev7_score": 14.506,
      "trend": "up",
      "trend_arrow": "🔺",
      "change_pct": 5143.2,
      "place": "SO ORP Kralupy nad Vltavou, Czechia"
    },
    {
      "lon": 25.25,
      "lat": 54.75,
      "type": "hotspot_cell",
      "score": 589.437,
      "count": 891,
      "cell_deg": 0.5,
      "sources": {
        "GDELT": 66,
        "GDELT_DOC": 825,
        "DIRECT_FEED": 0,
        "USGS": 0,
        "GDACS": 0
      },
      "last7_score": 583.765,
      "prev7_score": 5.672,
      "trend": "up",
      "trend_arrow": "🔺",
      "change_pct": 10192.2,
      "place": "Vilnius County, Lithuania"
    },
    {
      "lon": 19.25,
      "lat": 47.75,
      "type": "hotspot_cell",
      "score": 295.519,
      "count": 565,
      "cell_deg": 0.5,
      "sources": {
        "GDELT": 388,
        "GDELT_DOC": 0,
        "DIRECT_FEED": 177,
        "USGS": 0,
        "GDACS": 0
      },
      "last7_score": 253.588,
      "prev7_score": 41.931,
      "trend": "up",
      "trend_arrow": "🔺",
      "change_pct": 504.8,
      "place": "Pest, Hungary"
    },
    {
      "lon": 20.25,
      "lat": 52.25,
      "type": "hotspot_cell",
      "score": 155.479,
      "count": 436,
      "cell_deg": 0.5,
      "sources": {
        "GDELT": 436,
        "GDELT_DOC": 0,
        "DIRECT_FEED": 0,
        "USGS": 0,
        "GDACS": 0
      },
      "last7_score": 113.782,
      "prev7_score": 41.697,
      "trend": "up",
      "trend_arrow": "🔺",
      "change_pct": 172.9,
      "place": "Sochaczew County, Poland"
    },
    {
      "lon": 20.25,
      "lat": 47.25,
      "type": "hotspot_cell",
      "score": 139.94,
      "count": 324,
      "cell_deg": 0.5,
      "sources": {
        "GDELT": 324,
        "GDELT_DOC": 0,
        "DIRECT_FEED": 0,
        "USGS": 0,
        "GDACS": 0
      },
      "last7_score": 113.056,
      "prev7_score": 26.884,
      "trend": "up",
      "trend_arrow": "🔺",
      "change_pct": 320.5,
      "place": "Jász-Nagykun-Szolnok, Hungary"
    },
    {
      "lon": 25.25,
      "lat": 46.25,
      "type": "hotspot_cell",
      "score": 135.741,
      "count": 301,
      "cell_deg": 0.5,
      "sources": {
        "GDELT": 301,
        "GDELT_DOC": 0,
        "DIRECT_FEED": 0,
        "USGS": 0,
        "GDACS": 0
      },
      "last7_score": 110.515,
      "prev7_score": 25.227,
      "trend": "up",
      "trend_arrow": "🔺",
      "change_pct": 338.1,
      "place": "Harghita, Romania"
    },
    {
      "lon": 24.25,
      "lat": 56.75,
      "type": "hotspot_cell",
      "score": 135.156,
      "count": 180,
      "cell_deg": 0.5,
      "sources": {
        "GDELT": 25,
        "GDELT_DOC": 0,
        "DIRECT_FEED": 155,
        "USGS": 0,
        "GDACS": 0
      },
      "last7_score": 132.984,
      "prev7_score": 2.171,
      "trend": "up",
      "trend_arrow": "🔺",
      "change_pct": 6024.8,
      "place": "Ķekavas novads, Latvia"
    },
    {
      "lon": 21.25,
      "lat": 52.25,
      "type": "hotspot_cell",
      "score": 84.836,
      "count": 212,
      "cell_deg": 0.5,
      "sources": {
        "GDELT": 212,
        "GDELT_DOC": 0,
        "DIRECT_FEED": 0,
        "USGS": 0,
        "GDACS": 0
      },
      "last7_score": 64.01,
      "prev7_score": 20.826,
      "trend": "up",
      "trend_arrow": "🔺",
      "change_pct": 207.4,
      "place": "Warsaw, Poland"
    },
    {
      "lon": 15.25,
      "lat": 49.75,
      "type": "hotspot_cell",
      "score": 62.921,
      "count": 159,
      "cell_deg": 0.5,
      "sources": {
        "GDELT": 159,
        "GDELT_DOC": 0,
        "DIRECT_FEED": 0,
        "USGS": 0,
        "GDACS": 0
      },
      "last7_score": 48.831,
      "prev7_score": 14.089,
      "trend": "up",
      "trend_arrow": "🔺",
      "change_pct": 246.6,
      "place": "Vysočina Region, Czechia"
    }
  ]
}