{
  "generated_utc": "2026-06-29T02:44:26Z",
  "top": [
    {
      "lon": 26.25,
      "lat": 44.25,
      "type": "hotspot_cell",
      "score": 601.014,
      "count": 1075,
      "cell_deg": 0.5,
      "sources": {
        "GDELT": 128,
        "GDELT_DOC": 939,
        "DIRECT_FEED": 8,
        "USGS": 0,
        "GDACS": 0
      },
      "last7_score": 591.669,
      "prev7_score": 9.346,
      "trend": "up",
      "trend_arrow": "🔺",
      "change_pct": 6231.0,
      "place": "Giurgiu, Romania"
    },
    {
      "lon": 14.25,
      "lat": 50.25,
      "type": "hotspot_cell",
      "score": 539.244,
      "count": 1068,
      "cell_deg": 0.5,
      "sources": {
        "GDELT": 122,
        "GDELT_DOC": 936,
        "DIRECT_FEED": 10,
        "USGS": 0,
        "GDACS": 0
      },
      "last7_score": 528.815,
      "prev7_score": 10.429,
      "trend": "up",
      "trend_arrow": "🔺",
      "change_pct": 4970.6,
      "place": "SO ORP Kralupy nad Vltavou, Czechia"
    },
    {
      "lon": 25.25,
      "lat": 54.75,
      "type": "hotspot_cell",
      "score": 366.053,
      "count": 607,
      "cell_deg": 0.5,
      "sources": {
        "GDELT": 57,
        "GDELT_DOC": 550,
        "DIRECT_FEED": 0,
        "USGS": 0,
        "GDACS": 0
      },
      "last7_score": 361.636,
      "prev7_score": 4.418,
      "trend": "up",
      "trend_arrow": "🔺",
      "change_pct": 8086.4,
      "place": "Vilnius County, Lithuania"
    },
    {
      "lon": 20.25,
      "lat": 52.25,
      "type": "hotspot_cell",
      "score": 180.572,
      "count": 512,
      "cell_deg": 0.5,
      "sources": {
        "GDELT": 512,
        "GDELT_DOC": 0,
        "DIRECT_FEED": 0,
        "USGS": 0,
        "GDACS": 0
      },
      "last7_score": 144.254,
      "prev7_score": 36.318,
      "trend": "up",
      "trend_arrow": "🔺",
      "change_pct": 297.2,
      "place": "Sochaczew County, Poland"
    },
    {
      "lon": 19.25,
      "lat": 47.75,
      "type": "hotspot_cell",
      "score": 159.268,
      "count": 346,
      "cell_deg": 0.5,
      "sources": {
        "GDELT": 186,
        "GDELT_DOC": 0,
        "DIRECT_FEED": 160,
        "USGS": 0,
        "GDACS": 0
      },
      "last7_score": 147.701,
      "prev7_score": 11.567,
      "trend": "up",
      "trend_arrow": "🔺",
      "change_pct": 1176.9,
      "place": "Pest, Hungary"
    },
    {
      "lon": 25.25,
      "lat": 46.25,
      "type": "hotspot_cell",
      "score": 111.058,
      "count": 358,
      "cell_deg": 0.5,
      "sources": {
        "GDELT": 358,
        "GDELT_DOC": 0,
        "DIRECT_FEED": 0,
        "USGS": 0,
        "GDACS": 0
      },
      "last7_score": 84.444,
      "prev7_score": 26.614,
      "trend": "up",
      "trend_arrow": "🔺",
      "change_pct": 217.3,
      "place": "Harghita, Romania"
    },
    {
      "lon": 24.25,
      "lat": 56.75,
      "type": "hotspot_cell",
      "score": 110.057,
      "count": 181,
      "cell_deg": 0.5,
      "sources": {
        "GDELT": 27,
        "GDELT_DOC": 0,
        "DIRECT_FEED": 154,
        "USGS": 0,
        "GDACS": 0
      },
      "last7_score": 107.133,
      "prev7_score": 2.925,
      "trend": "up",
      "trend_arrow": "🔺",
      "change_pct": 3563.1,
      "place": "Ķekavas novads, Latvia"
    },
    {
      "lon": 21.25,
      "lat": 52.25,
      "type": "hotspot_cell",
      "score": 107.5,
      "count": 344,
      "cell_deg": 0.5,
      "sources": {
        "GDELT": 344,
        "GDELT_DOC": 0,
        "DIRECT_FEED": 0,
        "USGS": 0,
        "GDACS": 0
      },
      "last7_score": 78.804,
      "prev7_score": 28.695,
      "trend": "up",
      "trend_arrow": "🔺",
      "change_pct": 174.6,
      "place": "Warsaw, Poland"
    },
    {
      "lon": 20.25,
      "lat": 47.25,
      "type": "hotspot_cell",
      "score": 62.719,
      "count": 218,
      "cell_deg": 0.5,
      "sources": {
        "GDELT": 217,
        "GDELT_DOC": 0,
        "DIRECT_FEED": 0,
        "USGS": 0,
        "GDACS": 1
      },
      "last7_score": 45.386,
      "prev7_score": 17.333,
      "trend": "up",
      "trend_arrow": "🔺",
      "change_pct": 161.9,
      "place": "Jász-Nagykun-Szolnok, Hungary"
    },
    {
      "lon": 15.25,
      "lat": 49.75,
      "type": "hotspot_cell",
      "score": 53.548,
      "count": 145,
      "cell_deg": 0.5,
      "sources": {
        "GDELT": 145,
        "GDELT_DOC": 0,
        "DIRECT_FEED": 0,
        "USGS": 0,
        "GDACS": 0
      },
      "last7_score": 43.642,
      "prev7_score": 9.906,
      "trend": "up",
      "trend_arrow": "🔺",
      "change_pct": 340.6,
      "place": "Vysočina Region, Czechia"
    }
  ]
}