{
  "generated_utc": "2026-03-14T12:57:31Z",
  "top": [
    {
      "lon": 26.25,
      "lat": 44.25,
      "type": "hotspot_cell",
      "score": 807.275,
      "count": 1337,
      "cell_deg": 0.5,
      "sources": {
        "GDELT": 199,
        "GDELT_DOC": 1134,
        "DIRECT_FEED": 4,
        "USGS": 0,
        "GDACS": 0
      },
      "last7_score": 795.67,
      "prev7_score": 11.605,
      "trend": "up",
      "trend_arrow": "🔺",
      "change_pct": 6756.0,
      "place": "Giurgiu, Romania"
    },
    {
      "lon": 14.25,
      "lat": 50.25,
      "type": "hotspot_cell",
      "score": 794.862,
      "count": 1248,
      "cell_deg": 0.5,
      "sources": {
        "GDELT": 138,
        "GDELT_DOC": 1104,
        "DIRECT_FEED": 6,
        "USGS": 0,
        "GDACS": 0
      },
      "last7_score": 783.072,
      "prev7_score": 11.789,
      "trend": "up",
      "trend_arrow": "🔺",
      "change_pct": 6542.2,
      "place": "SO ORP Kralupy nad Vltavou, Czechia"
    },
    {
      "lon": 25.25,
      "lat": 54.75,
      "type": "hotspot_cell",
      "score": 535.602,
      "count": 855,
      "cell_deg": 0.5,
      "sources": {
        "GDELT": 72,
        "GDELT_DOC": 783,
        "DIRECT_FEED": 0,
        "USGS": 0,
        "GDACS": 0
      },
      "last7_score": 531.065,
      "prev7_score": 4.537,
      "trend": "up",
      "trend_arrow": "🔺",
      "change_pct": 11604.8,
      "place": "Vilnius County, Lithuania"
    },
    {
      "lon": 19.25,
      "lat": 47.75,
      "type": "hotspot_cell",
      "score": 261.522,
      "count": 569,
      "cell_deg": 0.5,
      "sources": {
        "GDELT": 396,
        "GDELT_DOC": 0,
        "DIRECT_FEED": 173,
        "USGS": 0,
        "GDACS": 0
      },
      "last7_score": 226.39,
      "prev7_score": 35.132,
      "trend": "up",
      "trend_arrow": "🔺",
      "change_pct": 544.4,
      "place": "Pest, Hungary"
    },
    {
      "lon": 20.25,
      "lat": 52.25,
      "type": "hotspot_cell",
      "score": 166.127,
      "count": 464,
      "cell_deg": 0.5,
      "sources": {
        "GDELT": 464,
        "GDELT_DOC": 0,
        "DIRECT_FEED": 0,
        "USGS": 0,
        "GDACS": 0
      },
      "last7_score": 130.151,
      "prev7_score": 35.976,
      "trend": "up",
      "trend_arrow": "🔺",
      "change_pct": 261.8,
      "place": "Sochaczew County, Poland"
    },
    {
      "lon": 20.25,
      "lat": 47.25,
      "type": "hotspot_cell",
      "score": 137.725,
      "count": 349,
      "cell_deg": 0.5,
      "sources": {
        "GDELT": 349,
        "GDELT_DOC": 0,
        "DIRECT_FEED": 0,
        "USGS": 0,
        "GDACS": 0
      },
      "last7_score": 113.366,
      "prev7_score": 24.359,
      "trend": "up",
      "trend_arrow": "🔺",
      "change_pct": 365.4,
      "place": "Jász-Nagykun-Szolnok, Hungary"
    },
    {
      "lon": 24.25,
      "lat": 56.75,
      "type": "hotspot_cell",
      "score": 130.153,
      "count": 190,
      "cell_deg": 0.5,
      "sources": {
        "GDELT": 30,
        "GDELT_DOC": 0,
        "DIRECT_FEED": 160,
        "USGS": 0,
        "GDACS": 0
      },
      "last7_score": 128.235,
      "prev7_score": 1.919,
      "trend": "up",
      "trend_arrow": "🔺",
      "change_pct": 6582.9,
      "place": "Ķekavas novads, Latvia"
    },
    {
      "lon": 25.25,
      "lat": 46.25,
      "type": "hotspot_cell",
      "score": 122.548,
      "count": 320,
      "cell_deg": 0.5,
      "sources": {
        "GDELT": 320,
        "GDELT_DOC": 0,
        "DIRECT_FEED": 0,
        "USGS": 0,
        "GDACS": 0
      },
      "last7_score": 102.6,
      "prev7_score": 19.948,
      "trend": "up",
      "trend_arrow": "🔺",
      "change_pct": 414.3,
      "place": "Harghita, Romania"
    },
    {
      "lon": 21.25,
      "lat": 52.25,
      "type": "hotspot_cell",
      "score": 79.003,
      "count": 217,
      "cell_deg": 0.5,
      "sources": {
        "GDELT": 217,
        "GDELT_DOC": 0,
        "DIRECT_FEED": 0,
        "USGS": 0,
        "GDACS": 0
      },
      "last7_score": 61.646,
      "prev7_score": 17.357,
      "trend": "up",
      "trend_arrow": "🔺",
      "change_pct": 255.2,
      "place": "Warsaw, Poland"
    },
    {
      "lon": 27.75,
      "lat": 47.25,
      "type": "hotspot_cell",
      "score": 59.325,
      "count": 80,
      "cell_deg": 0.5,
      "sources": {
        "GDELT": 0,
        "GDELT_DOC": 80,
        "DIRECT_FEED": 0,
        "USGS": 0,
        "GDACS": 0
      },
      "last7_score": 59.325,
      "prev7_score": 0.0,
      "trend": "new",
      "trend_arrow": "🆕",
      "change_pct": null,
      "place": "Iași, Romania"
    }
  ]
}