{
  "generated_utc": "2026-05-25T09:57:42Z",
  "top": [
    {
      "lon": 14.25,
      "lat": 50.25,
      "type": "hotspot_cell",
      "score": 944.398,
      "count": 1569,
      "cell_deg": 0.5,
      "sources": {
        "GDELT": 137,
        "GDELT_DOC": 1417,
        "DIRECT_FEED": 15,
        "USGS": 0,
        "GDACS": 0
      },
      "last7_score": 937.344,
      "prev7_score": 7.054,
      "trend": "up",
      "trend_arrow": "🔺",
      "change_pct": 13188.7,
      "place": "SO ORP Kralupy nad Vltavou, Czechia"
    },
    {
      "lon": 26.25,
      "lat": 44.25,
      "type": "hotspot_cell",
      "score": 754.603,
      "count": 1416,
      "cell_deg": 0.5,
      "sources": {
        "GDELT": 178,
        "GDELT_DOC": 1236,
        "DIRECT_FEED": 2,
        "USGS": 0,
        "GDACS": 0
      },
      "last7_score": 741.687,
      "prev7_score": 12.916,
      "trend": "up",
      "trend_arrow": "🔺",
      "change_pct": 5642.5,
      "place": "Giurgiu, Romania"
    },
    {
      "lon": 25.25,
      "lat": 54.75,
      "type": "hotspot_cell",
      "score": 682.298,
      "count": 1104,
      "cell_deg": 0.5,
      "sources": {
        "GDELT": 102,
        "GDELT_DOC": 1001,
        "DIRECT_FEED": 1,
        "USGS": 0,
        "GDACS": 0
      },
      "last7_score": 677.66,
      "prev7_score": 4.638,
      "trend": "up",
      "trend_arrow": "🔺",
      "change_pct": 14512.2,
      "place": "Vilnius County, Lithuania"
    },
    {
      "lon": 20.25,
      "lat": 52.25,
      "type": "hotspot_cell",
      "score": 318.313,
      "count": 786,
      "cell_deg": 0.5,
      "sources": {
        "GDELT": 786,
        "GDELT_DOC": 0,
        "DIRECT_FEED": 0,
        "USGS": 0,
        "GDACS": 0
      },
      "last7_score": 277.768,
      "prev7_score": 40.546,
      "trend": "up",
      "trend_arrow": "🔺",
      "change_pct": 585.1,
      "place": "Sochaczew County, Poland"
    },
    {
      "lon": 19.25,
      "lat": 47.75,
      "type": "hotspot_cell",
      "score": 195.429,
      "count": 449,
      "cell_deg": 0.5,
      "sources": {
        "GDELT": 218,
        "GDELT_DOC": 0,
        "DIRECT_FEED": 231,
        "USGS": 0,
        "GDACS": 0
      },
      "last7_score": 179.406,
      "prev7_score": 16.023,
      "trend": "up",
      "trend_arrow": "🔺",
      "change_pct": 1019.7,
      "place": "Pest, Hungary"
    },
    {
      "lon": 25.25,
      "lat": 46.25,
      "type": "hotspot_cell",
      "score": 117.85,
      "count": 320,
      "cell_deg": 0.5,
      "sources": {
        "GDELT": 320,
        "GDELT_DOC": 0,
        "DIRECT_FEED": 0,
        "USGS": 0,
        "GDACS": 0
      },
      "last7_score": 100.863,
      "prev7_score": 16.987,
      "trend": "up",
      "trend_arrow": "🔺",
      "change_pct": 493.7,
      "place": "Harghita, Romania"
    },
    {
      "lon": 24.25,
      "lat": 56.75,
      "type": "hotspot_cell",
      "score": 95.978,
      "count": 170,
      "cell_deg": 0.5,
      "sources": {
        "GDELT": 51,
        "GDELT_DOC": 0,
        "DIRECT_FEED": 119,
        "USGS": 0,
        "GDACS": 0
      },
      "last7_score": 92.402,
      "prev7_score": 3.576,
      "trend": "up",
      "trend_arrow": "🔺",
      "change_pct": 2483.8,
      "place": "Ķekavas novads, Latvia"
    },
    {
      "lon": 21.25,
      "lat": 52.25,
      "type": "hotspot_cell",
      "score": 94.854,
      "count": 264,
      "cell_deg": 0.5,
      "sources": {
        "GDELT": 264,
        "GDELT_DOC": 0,
        "DIRECT_FEED": 0,
        "USGS": 0,
        "GDACS": 0
      },
      "last7_score": 81.16,
      "prev7_score": 13.694,
      "trend": "up",
      "trend_arrow": "🔺",
      "change_pct": 492.7,
      "place": "Warsaw, Poland"
    },
    {
      "lon": 20.25,
      "lat": 47.25,
      "type": "hotspot_cell",
      "score": 85.317,
      "count": 259,
      "cell_deg": 0.5,
      "sources": {
        "GDELT": 259,
        "GDELT_DOC": 0,
        "DIRECT_FEED": 0,
        "USGS": 0,
        "GDACS": 0
      },
      "last7_score": 67.89,
      "prev7_score": 17.427,
      "trend": "up",
      "trend_arrow": "🔺",
      "change_pct": 289.6,
      "place": "Jász-Nagykun-Szolnok, Hungary"
    },
    {
      "lon": 26.25,
      "lat": 59.25,
      "type": "hotspot_cell",
      "score": 58.935,
      "count": 155,
      "cell_deg": 0.5,
      "sources": {
        "GDELT": 155,
        "GDELT_DOC": 0,
        "DIRECT_FEED": 0,
        "USGS": 0,
        "GDACS": 0
      },
      "last7_score": 52.669,
      "prev7_score": 6.266,
      "trend": "up",
      "trend_arrow": "🔺",
      "change_pct": 740.5,
      "place": "Lääne-Viru County, Estonia"
    }
  ]
}