{
  "generated_utc": "2026-06-28T08:46:23Z",
  "top": [
    {
      "lon": 14.25,
      "lat": 50.25,
      "type": "hotspot_cell",
      "score": 661.719,
      "count": 1176,
      "cell_deg": 0.5,
      "sources": {
        "GDELT": 126,
        "GDELT_DOC": 1039,
        "DIRECT_FEED": 11,
        "USGS": 0,
        "GDACS": 0
      },
      "last7_score": 653.967,
      "prev7_score": 7.752,
      "trend": "up",
      "trend_arrow": "🔺",
      "change_pct": 8336.1,
      "place": "SO ORP Kralupy nad Vltavou, Czechia"
    },
    {
      "lon": 26.25,
      "lat": 44.25,
      "type": "hotspot_cell",
      "score": 609.52,
      "count": 1057,
      "cell_deg": 0.5,
      "sources": {
        "GDELT": 135,
        "GDELT_DOC": 912,
        "DIRECT_FEED": 10,
        "USGS": 0,
        "GDACS": 0
      },
      "last7_score": 601.616,
      "prev7_score": 7.904,
      "trend": "up",
      "trend_arrow": "🔺",
      "change_pct": 7511.1,
      "place": "Giurgiu, Romania"
    },
    {
      "lon": 25.25,
      "lat": 54.75,
      "type": "hotspot_cell",
      "score": 365.287,
      "count": 596,
      "cell_deg": 0.5,
      "sources": {
        "GDELT": 58,
        "GDELT_DOC": 538,
        "DIRECT_FEED": 0,
        "USGS": 0,
        "GDACS": 0
      },
      "last7_score": 361.858,
      "prev7_score": 3.429,
      "trend": "up",
      "trend_arrow": "🔺",
      "change_pct": 10453.3,
      "place": "Vilnius County, Lithuania"
    },
    {
      "lon": 20.25,
      "lat": 52.25,
      "type": "hotspot_cell",
      "score": 183.716,
      "count": 519,
      "cell_deg": 0.5,
      "sources": {
        "GDELT": 519,
        "GDELT_DOC": 0,
        "DIRECT_FEED": 0,
        "USGS": 0,
        "GDACS": 0
      },
      "last7_score": 150.918,
      "prev7_score": 32.798,
      "trend": "up",
      "trend_arrow": "🔺",
      "change_pct": 360.1,
      "place": "Sochaczew County, Poland"
    },
    {
      "lon": 19.25,
      "lat": 47.75,
      "type": "hotspot_cell",
      "score": 175.077,
      "count": 358,
      "cell_deg": 0.5,
      "sources": {
        "GDELT": 199,
        "GDELT_DOC": 0,
        "DIRECT_FEED": 159,
        "USGS": 0,
        "GDACS": 0
      },
      "last7_score": 164.637,
      "prev7_score": 10.44,
      "trend": "up",
      "trend_arrow": "🔺",
      "change_pct": 1477.0,
      "place": "Pest, Hungary"
    },
    {
      "lon": 21.25,
      "lat": 52.25,
      "type": "hotspot_cell",
      "score": 119.563,
      "count": 351,
      "cell_deg": 0.5,
      "sources": {
        "GDELT": 351,
        "GDELT_DOC": 0,
        "DIRECT_FEED": 0,
        "USGS": 0,
        "GDACS": 0
      },
      "last7_score": 91.899,
      "prev7_score": 27.663,
      "trend": "up",
      "trend_arrow": "🔺",
      "change_pct": 232.2,
      "place": "Warsaw, Poland"
    },
    {
      "lon": 25.25,
      "lat": 46.25,
      "type": "hotspot_cell",
      "score": 118.894,
      "count": 395,
      "cell_deg": 0.5,
      "sources": {
        "GDELT": 395,
        "GDELT_DOC": 0,
        "DIRECT_FEED": 0,
        "USGS": 0,
        "GDACS": 0
      },
      "last7_score": 94.055,
      "prev7_score": 24.839,
      "trend": "up",
      "trend_arrow": "🔺",
      "change_pct": 278.7,
      "place": "Harghita, Romania"
    },
    {
      "lon": 24.25,
      "lat": 56.75,
      "type": "hotspot_cell",
      "score": 113.563,
      "count": 178,
      "cell_deg": 0.5,
      "sources": {
        "GDELT": 31,
        "GDELT_DOC": 0,
        "DIRECT_FEED": 147,
        "USGS": 0,
        "GDACS": 0
      },
      "last7_score": 111.032,
      "prev7_score": 2.531,
      "trend": "up",
      "trend_arrow": "🔺",
      "change_pct": 4286.7,
      "place": "Ķekavas novads, Latvia"
    },
    {
      "lon": 20.25,
      "lat": 47.25,
      "type": "hotspot_cell",
      "score": 69.495,
      "count": 230,
      "cell_deg": 0.5,
      "sources": {
        "GDELT": 229,
        "GDELT_DOC": 0,
        "DIRECT_FEED": 0,
        "USGS": 0,
        "GDACS": 1
      },
      "last7_score": 54.752,
      "prev7_score": 14.742,
      "trend": "up",
      "trend_arrow": "🔺",
      "change_pct": 271.4,
      "place": "Jász-Nagykun-Szolnok, Hungary"
    },
    {
      "lon": 15.25,
      "lat": 49.75,
      "type": "hotspot_cell",
      "score": 56.926,
      "count": 153,
      "cell_deg": 0.5,
      "sources": {
        "GDELT": 153,
        "GDELT_DOC": 0,
        "DIRECT_FEED": 0,
        "USGS": 0,
        "GDACS": 0
      },
      "last7_score": 46.504,
      "prev7_score": 10.422,
      "trend": "up",
      "trend_arrow": "🔺",
      "change_pct": 346.2,
      "place": "Vysočina Region, Czechia"
    }
  ]
}