{
  "generated_utc": "2026-05-29T14:49:25Z",
  "top": [
    {
      "lon": 14.25,
      "lat": 50.25,
      "type": "hotspot_cell",
      "score": 946.459,
      "count": 1574,
      "cell_deg": 0.5,
      "sources": {
        "GDELT": 147,
        "GDELT_DOC": 1410,
        "DIRECT_FEED": 17,
        "USGS": 0,
        "GDACS": 0
      },
      "last7_score": 934.595,
      "prev7_score": 11.864,
      "trend": "up",
      "trend_arrow": "🔺",
      "change_pct": 7777.5,
      "place": "SO ORP Kralupy nad Vltavou, Czechia"
    },
    {
      "lon": 25.25,
      "lat": 54.75,
      "type": "hotspot_cell",
      "score": 843.581,
      "count": 1276,
      "cell_deg": 0.5,
      "sources": {
        "GDELT": 104,
        "GDELT_DOC": 1170,
        "DIRECT_FEED": 2,
        "USGS": 0,
        "GDACS": 0
      },
      "last7_score": 831.919,
      "prev7_score": 11.662,
      "trend": "up",
      "trend_arrow": "🔺",
      "change_pct": 7033.7,
      "place": "Vilnius County, Lithuania"
    },
    {
      "lon": 26.25,
      "lat": 44.25,
      "type": "hotspot_cell",
      "score": 821.49,
      "count": 1268,
      "cell_deg": 0.5,
      "sources": {
        "GDELT": 157,
        "GDELT_DOC": 1103,
        "DIRECT_FEED": 8,
        "USGS": 0,
        "GDACS": 0
      },
      "last7_score": 813.337,
      "prev7_score": 8.153,
      "trend": "up",
      "trend_arrow": "🔺",
      "change_pct": 9875.7,
      "place": "Giurgiu, Romania"
    },
    {
      "lon": 20.25,
      "lat": 52.25,
      "type": "hotspot_cell",
      "score": 273.871,
      "count": 775,
      "cell_deg": 0.5,
      "sources": {
        "GDELT": 775,
        "GDELT_DOC": 0,
        "DIRECT_FEED": 0,
        "USGS": 0,
        "GDACS": 0
      },
      "last7_score": 194.137,
      "prev7_score": 79.734,
      "trend": "up",
      "trend_arrow": "🔺",
      "change_pct": 143.5,
      "place": "Sochaczew County, Poland"
    },
    {
      "lon": 19.25,
      "lat": 47.75,
      "type": "hotspot_cell",
      "score": 235.019,
      "count": 404,
      "cell_deg": 0.5,
      "sources": {
        "GDELT": 201,
        "GDELT_DOC": 0,
        "DIRECT_FEED": 203,
        "USGS": 0,
        "GDACS": 0
      },
      "last7_score": 219.89,
      "prev7_score": 15.129,
      "trend": "up",
      "trend_arrow": "🔺",
      "change_pct": 1353.4,
      "place": "Pest, Hungary"
    },
    {
      "lon": 25.25,
      "lat": 46.25,
      "type": "hotspot_cell",
      "score": 202.127,
      "count": 380,
      "cell_deg": 0.5,
      "sources": {
        "GDELT": 380,
        "GDELT_DOC": 0,
        "DIRECT_FEED": 0,
        "USGS": 0,
        "GDACS": 0
      },
      "last7_score": 177.922,
      "prev7_score": 24.205,
      "trend": "up",
      "trend_arrow": "🔺",
      "change_pct": 635.1,
      "place": "Harghita, Romania"
    },
    {
      "lon": 24.25,
      "lat": 56.75,
      "type": "hotspot_cell",
      "score": 122.215,
      "count": 183,
      "cell_deg": 0.5,
      "sources": {
        "GDELT": 56,
        "GDELT_DOC": 0,
        "DIRECT_FEED": 127,
        "USGS": 0,
        "GDACS": 0
      },
      "last7_score": 117.164,
      "prev7_score": 5.052,
      "trend": "up",
      "trend_arrow": "🔺",
      "change_pct": 2219.3,
      "place": "Ķekavas novads, Latvia"
    },
    {
      "lon": 20.25,
      "lat": 47.25,
      "type": "hotspot_cell",
      "score": 100.972,
      "count": 249,
      "cell_deg": 0.5,
      "sources": {
        "GDELT": 249,
        "GDELT_DOC": 0,
        "DIRECT_FEED": 0,
        "USGS": 0,
        "GDACS": 0
      },
      "last7_score": 82.041,
      "prev7_score": 18.93,
      "trend": "up",
      "trend_arrow": "🔺",
      "change_pct": 333.4,
      "place": "Jász-Nagykun-Szolnok, Hungary"
    },
    {
      "lon": 21.25,
      "lat": 52.25,
      "type": "hotspot_cell",
      "score": 95.203,
      "count": 253,
      "cell_deg": 0.5,
      "sources": {
        "GDELT": 253,
        "GDELT_DOC": 0,
        "DIRECT_FEED": 0,
        "USGS": 0,
        "GDACS": 0
      },
      "last7_score": 70.26,
      "prev7_score": 24.943,
      "trend": "up",
      "trend_arrow": "🔺",
      "change_pct": 181.7,
      "place": "Warsaw, Poland"
    },
    {
      "lon": 15.25,
      "lat": 49.75,
      "type": "hotspot_cell",
      "score": 72.425,
      "count": 167,
      "cell_deg": 0.5,
      "sources": {
        "GDELT": 167,
        "GDELT_DOC": 0,
        "DIRECT_FEED": 0,
        "USGS": 0,
        "GDACS": 0
      },
      "last7_score": 61.407,
      "prev7_score": 11.018,
      "trend": "up",
      "trend_arrow": "🔺",
      "change_pct": 457.3,
      "place": "Vysočina Region, Czechia"
    }
  ]
}