{
  "generated_utc": "2026-04-11T13:04:22Z",
  "top": [
    {
      "lon": 26.25,
      "lat": 44.25,
      "type": "hotspot_cell",
      "score": 885.508,
      "count": 1452,
      "cell_deg": 0.5,
      "sources": {
        "GDELT": 157,
        "GDELT_DOC": 1289,
        "DIRECT_FEED": 6,
        "USGS": 0,
        "GDACS": 0
      },
      "last7_score": 872.18,
      "prev7_score": 13.328,
      "trend": "up",
      "trend_arrow": "🔺",
      "change_pct": 6444.0,
      "place": "Giurgiu, Romania"
    },
    {
      "lon": 14.25,
      "lat": 50.25,
      "type": "hotspot_cell",
      "score": 689.479,
      "count": 1101,
      "cell_deg": 0.5,
      "sources": {
        "GDELT": 86,
        "GDELT_DOC": 1015,
        "DIRECT_FEED": 0,
        "USGS": 0,
        "GDACS": 0
      },
      "last7_score": 683.305,
      "prev7_score": 6.175,
      "trend": "up",
      "trend_arrow": "🔺",
      "change_pct": 10966.3,
      "place": "SO ORP Kralupy nad Vltavou, Czechia"
    },
    {
      "lon": 25.25,
      "lat": 54.75,
      "type": "hotspot_cell",
      "score": 553.465,
      "count": 854,
      "cell_deg": 0.5,
      "sources": {
        "GDELT": 74,
        "GDELT_DOC": 778,
        "DIRECT_FEED": 2,
        "USGS": 0,
        "GDACS": 0
      },
      "last7_score": 547.381,
      "prev7_score": 6.085,
      "trend": "up",
      "trend_arrow": "🔺",
      "change_pct": 8896.3,
      "place": "Vilnius County, Lithuania"
    },
    {
      "lon": 19.25,
      "lat": 47.75,
      "type": "hotspot_cell",
      "score": 489.628,
      "count": 815,
      "cell_deg": 0.5,
      "sources": {
        "GDELT": 568,
        "GDELT_DOC": 0,
        "DIRECT_FEED": 247,
        "USGS": 0,
        "GDACS": 0
      },
      "last7_score": 475.186,
      "prev7_score": 14.442,
      "trend": "up",
      "trend_arrow": "🔺",
      "change_pct": 3190.2,
      "place": "Pest, Hungary"
    },
    {
      "lon": 20.25,
      "lat": 47.25,
      "type": "hotspot_cell",
      "score": 195.959,
      "count": 424,
      "cell_deg": 0.5,
      "sources": {
        "GDELT": 424,
        "GDELT_DOC": 0,
        "DIRECT_FEED": 0,
        "USGS": 0,
        "GDACS": 0
      },
      "last7_score": 178.438,
      "prev7_score": 17.521,
      "trend": "up",
      "trend_arrow": "🔺",
      "change_pct": 918.4,
      "place": "Jász-Nagykun-Szolnok, Hungary"
    },
    {
      "lon": 20.25,
      "lat": 52.25,
      "type": "hotspot_cell",
      "score": 142.504,
      "count": 413,
      "cell_deg": 0.5,
      "sources": {
        "GDELT": 413,
        "GDELT_DOC": 0,
        "DIRECT_FEED": 0,
        "USGS": 0,
        "GDACS": 0
      },
      "last7_score": 112.483,
      "prev7_score": 30.021,
      "trend": "up",
      "trend_arrow": "🔺",
      "change_pct": 274.7,
      "place": "Sochaczew County, Poland"
    },
    {
      "lon": 24.25,
      "lat": 56.75,
      "type": "hotspot_cell",
      "score": 107.872,
      "count": 163,
      "cell_deg": 0.5,
      "sources": {
        "GDELT": 27,
        "GDELT_DOC": 0,
        "DIRECT_FEED": 136,
        "USGS": 0,
        "GDACS": 0
      },
      "last7_score": 106.035,
      "prev7_score": 1.837,
      "trend": "up",
      "trend_arrow": "🔺",
      "change_pct": 5672.3,
      "place": "Ķekavas novads, Latvia"
    },
    {
      "lon": 25.25,
      "lat": 46.25,
      "type": "hotspot_cell",
      "score": 82.74,
      "count": 255,
      "cell_deg": 0.5,
      "sources": {
        "GDELT": 255,
        "GDELT_DOC": 0,
        "DIRECT_FEED": 0,
        "USGS": 0,
        "GDACS": 0
      },
      "last7_score": 65.731,
      "prev7_score": 17.009,
      "trend": "up",
      "trend_arrow": "🔺",
      "change_pct": 286.5,
      "place": "Harghita, Romania"
    },
    {
      "lon": 24.25,
      "lat": 56.25,
      "type": "hotspot_cell",
      "score": 54.698,
      "count": 116,
      "cell_deg": 0.5,
      "sources": {
        "GDELT": 116,
        "GDELT_DOC": 0,
        "DIRECT_FEED": 0,
        "USGS": 0,
        "GDACS": 0
      },
      "last7_score": 49.356,
      "prev7_score": 5.342,
      "trend": "up",
      "trend_arrow": "🔺",
      "change_pct": 823.9,
      "place": "Namišių seniūnija, Lithuania"
    },
    {
      "lon": 15.25,
      "lat": 49.75,
      "type": "hotspot_cell",
      "score": 48.869,
      "count": 123,
      "cell_deg": 0.5,
      "sources": {
        "GDELT": 123,
        "GDELT_DOC": 0,
        "DIRECT_FEED": 0,
        "USGS": 0,
        "GDACS": 0
      },
      "last7_score": 41.584,
      "prev7_score": 7.285,
      "trend": "up",
      "trend_arrow": "🔺",
      "change_pct": 470.8,
      "place": "Vysočina Region, Czechia"
    }
  ]
}