{
  "generated_utc": "2026-03-10T18:55:09Z",
  "top": [
    {
      "lon": 26.25,
      "lat": 44.25,
      "type": "hotspot_cell",
      "score": 658.513,
      "count": 928,
      "cell_deg": 0.5,
      "sources": {
        "GDELT": 174,
        "GDELT_DOC": 753,
        "DIRECT_FEED": 1,
        "USGS": 0,
        "GDACS": 0
      },
      "last7_score": 646.131,
      "prev7_score": 12.382,
      "trend": "up",
      "trend_arrow": "🔺",
      "change_pct": 5118.2,
      "place": "Giurgiu, Romania"
    },
    {
      "lon": 14.25,
      "lat": 50.25,
      "type": "hotspot_cell",
      "score": 609.565,
      "count": 898,
      "cell_deg": 0.5,
      "sources": {
        "GDELT": 151,
        "GDELT_DOC": 747,
        "DIRECT_FEED": 0,
        "USGS": 0,
        "GDACS": 0
      },
      "last7_score": 601.442,
      "prev7_score": 8.123,
      "trend": "up",
      "trend_arrow": "🔺",
      "change_pct": 7304.2,
      "place": "SO ORP Kralupy nad Vltavou, Czechia"
    },
    {
      "lon": 25.25,
      "lat": 54.75,
      "type": "hotspot_cell",
      "score": 396.77,
      "count": 556,
      "cell_deg": 0.5,
      "sources": {
        "GDELT": 72,
        "GDELT_DOC": 484,
        "DIRECT_FEED": 0,
        "USGS": 0,
        "GDACS": 0
      },
      "last7_score": 392.552,
      "prev7_score": 4.219,
      "trend": "up",
      "trend_arrow": "🔺",
      "change_pct": 9205.2,
      "place": "Vilnius County, Lithuania"
    },
    {
      "lon": 19.25,
      "lat": 47.75,
      "type": "hotspot_cell",
      "score": 259.286,
      "count": 530,
      "cell_deg": 0.5,
      "sources": {
        "GDELT": 414,
        "GDELT_DOC": 0,
        "DIRECT_FEED": 116,
        "USGS": 0,
        "GDACS": 0
      },
      "last7_score": 241.111,
      "prev7_score": 18.175,
      "trend": "up",
      "trend_arrow": "🔺",
      "change_pct": 1226.6,
      "place": "Pest, Hungary"
    },
    {
      "lon": 20.25,
      "lat": 52.25,
      "type": "hotspot_cell",
      "score": 161.856,
      "count": 518,
      "cell_deg": 0.5,
      "sources": {
        "GDELT": 518,
        "GDELT_DOC": 0,
        "DIRECT_FEED": 0,
        "USGS": 0,
        "GDACS": 0
      },
      "last7_score": 126.583,
      "prev7_score": 35.274,
      "trend": "up",
      "trend_arrow": "🔺",
      "change_pct": 258.9,
      "place": "Sochaczew County, Poland"
    },
    {
      "lon": 20.25,
      "lat": 47.25,
      "type": "hotspot_cell",
      "score": 130.208,
      "count": 353,
      "cell_deg": 0.5,
      "sources": {
        "GDELT": 353,
        "GDELT_DOC": 0,
        "DIRECT_FEED": 0,
        "USGS": 0,
        "GDACS": 0
      },
      "last7_score": 109.592,
      "prev7_score": 20.616,
      "trend": "up",
      "trend_arrow": "🔺",
      "change_pct": 431.6,
      "place": "Jász-Nagykun-Szolnok, Hungary"
    },
    {
      "lon": 24.25,
      "lat": 56.75,
      "type": "hotspot_cell",
      "score": 104.459,
      "count": 125,
      "cell_deg": 0.5,
      "sources": {
        "GDELT": 30,
        "GDELT_DOC": 0,
        "DIRECT_FEED": 95,
        "USGS": 0,
        "GDACS": 0
      },
      "last7_score": 102.783,
      "prev7_score": 1.677,
      "trend": "up",
      "trend_arrow": "🔺",
      "change_pct": 6030.5,
      "place": "Ķekavas novads, Latvia"
    },
    {
      "lon": 25.25,
      "lat": 46.25,
      "type": "hotspot_cell",
      "score": 103.799,
      "count": 311,
      "cell_deg": 0.5,
      "sources": {
        "GDELT": 311,
        "GDELT_DOC": 0,
        "DIRECT_FEED": 0,
        "USGS": 0,
        "GDACS": 0
      },
      "last7_score": 81.968,
      "prev7_score": 21.831,
      "trend": "up",
      "trend_arrow": "🔺",
      "change_pct": 275.5,
      "place": "Harghita, Romania"
    },
    {
      "lon": 21.25,
      "lat": 52.25,
      "type": "hotspot_cell",
      "score": 68.93,
      "count": 244,
      "cell_deg": 0.5,
      "sources": {
        "GDELT": 244,
        "GDELT_DOC": 0,
        "DIRECT_FEED": 0,
        "USGS": 0,
        "GDACS": 0
      },
      "last7_score": 54.46,
      "prev7_score": 14.47,
      "trend": "up",
      "trend_arrow": "🔺",
      "change_pct": 276.4,
      "place": "Warsaw, Poland"
    },
    {
      "lon": 15.25,
      "lat": 49.75,
      "type": "hotspot_cell",
      "score": 62.48,
      "count": 173,
      "cell_deg": 0.5,
      "sources": {
        "GDELT": 173,
        "GDELT_DOC": 0,
        "DIRECT_FEED": 0,
        "USGS": 0,
        "GDACS": 0
      },
      "last7_score": 51.638,
      "prev7_score": 10.842,
      "trend": "up",
      "trend_arrow": "🔺",
      "change_pct": 376.3,
      "place": "Vysočina Region, Czechia"
    }
  ]
}