{
  "generated_utc": "2026-05-11T15:00:03Z",
  "top": [
    {
      "lon": 14.25,
      "lat": 50.25,
      "type": "hotspot_cell",
      "score": 791.749,
      "count": 1294,
      "cell_deg": 0.5,
      "sources": {
        "GDELT": 150,
        "GDELT_DOC": 1141,
        "DIRECT_FEED": 3,
        "USGS": 0,
        "GDACS": 0
      },
      "last7_score": 781.559,
      "prev7_score": 10.19,
      "trend": "up",
      "trend_arrow": "🔺",
      "change_pct": 7569.7,
      "place": "SO ORP Kralupy nad Vltavou, Czechia"
    },
    {
      "lon": 26.25,
      "lat": 44.25,
      "type": "hotspot_cell",
      "score": 780.429,
      "count": 1250,
      "cell_deg": 0.5,
      "sources": {
        "GDELT": 151,
        "GDELT_DOC": 1088,
        "DIRECT_FEED": 11,
        "USGS": 0,
        "GDACS": 0
      },
      "last7_score": 774.46,
      "prev7_score": 5.97,
      "trend": "up",
      "trend_arrow": "🔺",
      "change_pct": 12873.4,
      "place": "Giurgiu, Romania"
    },
    {
      "lon": 25.25,
      "lat": 54.75,
      "type": "hotspot_cell",
      "score": 559.943,
      "count": 940,
      "cell_deg": 0.5,
      "sources": {
        "GDELT": 65,
        "GDELT_DOC": 875,
        "DIRECT_FEED": 0,
        "USGS": 0,
        "GDACS": 0
      },
      "last7_score": 556.544,
      "prev7_score": 3.399,
      "trend": "up",
      "trend_arrow": "🔺",
      "change_pct": 16274.7,
      "place": "Vilnius County, Lithuania"
    },
    {
      "lon": 19.25,
      "lat": 47.75,
      "type": "hotspot_cell",
      "score": 255.547,
      "count": 466,
      "cell_deg": 0.5,
      "sources": {
        "GDELT": 262,
        "GDELT_DOC": 0,
        "DIRECT_FEED": 204,
        "USGS": 0,
        "GDACS": 0
      },
      "last7_score": 245.694,
      "prev7_score": 9.854,
      "trend": "up",
      "trend_arrow": "🔺",
      "change_pct": 2393.4,
      "place": "Pest, Hungary"
    },
    {
      "lon": 20.25,
      "lat": 52.25,
      "type": "hotspot_cell",
      "score": 185.856,
      "count": 532,
      "cell_deg": 0.5,
      "sources": {
        "GDELT": 532,
        "GDELT_DOC": 0,
        "DIRECT_FEED": 0,
        "USGS": 0,
        "GDACS": 0
      },
      "last7_score": 151.078,
      "prev7_score": 34.779,
      "trend": "up",
      "trend_arrow": "🔺",
      "change_pct": 334.4,
      "place": "Sochaczew County, Poland"
    },
    {
      "lon": 20.25,
      "lat": 47.25,
      "type": "hotspot_cell",
      "score": 106.328,
      "count": 289,
      "cell_deg": 0.5,
      "sources": {
        "GDELT": 289,
        "GDELT_DOC": 0,
        "DIRECT_FEED": 0,
        "USGS": 0,
        "GDACS": 0
      },
      "last7_score": 89.288,
      "prev7_score": 17.039,
      "trend": "up",
      "trend_arrow": "🔺",
      "change_pct": 424.0,
      "place": "Jász-Nagykun-Szolnok, Hungary"
    },
    {
      "lon": 24.25,
      "lat": 56.75,
      "type": "hotspot_cell",
      "score": 96.819,
      "count": 157,
      "cell_deg": 0.5,
      "sources": {
        "GDELT": 28,
        "GDELT_DOC": 0,
        "DIRECT_FEED": 129,
        "USGS": 0,
        "GDACS": 0
      },
      "last7_score": 95.208,
      "prev7_score": 1.611,
      "trend": "up",
      "trend_arrow": "🔺",
      "change_pct": 5809.2,
      "place": "Ķekavas novads, Latvia"
    },
    {
      "lon": 25.25,
      "lat": 46.25,
      "type": "hotspot_cell",
      "score": 93.309,
      "count": 332,
      "cell_deg": 0.5,
      "sources": {
        "GDELT": 332,
        "GDELT_DOC": 0,
        "DIRECT_FEED": 0,
        "USGS": 0,
        "GDACS": 0
      },
      "last7_score": 70.57,
      "prev7_score": 22.738,
      "trend": "up",
      "trend_arrow": "🔺",
      "change_pct": 210.4,
      "place": "Harghita, Romania"
    },
    {
      "lon": 21.25,
      "lat": 52.25,
      "type": "hotspot_cell",
      "score": 70.442,
      "count": 182,
      "cell_deg": 0.5,
      "sources": {
        "GDELT": 182,
        "GDELT_DOC": 0,
        "DIRECT_FEED": 0,
        "USGS": 0,
        "GDACS": 0
      },
      "last7_score": 61.221,
      "prev7_score": 9.22,
      "trend": "up",
      "trend_arrow": "🔺",
      "change_pct": 564.0,
      "place": "Warsaw, Poland"
    },
    {
      "lon": 27.75,
      "lat": 47.25,
      "type": "hotspot_cell",
      "score": 58.508,
      "count": 99,
      "cell_deg": 0.5,
      "sources": {
        "GDELT": 0,
        "GDELT_DOC": 99,
        "DIRECT_FEED": 0,
        "USGS": 0,
        "GDACS": 0
      },
      "last7_score": 58.508,
      "prev7_score": 0.0,
      "trend": "new",
      "trend_arrow": "🆕",
      "change_pct": null,
      "place": "Iași, Romania"
    }
  ]
}