{
  "generated_utc": "2026-04-05T18:48:58Z",
  "top": [
    {
      "lon": 26.25,
      "lat": 44.25,
      "type": "hotspot_cell",
      "score": 761.375,
      "count": 1380,
      "cell_deg": 0.5,
      "sources": {
        "GDELT": 165,
        "GDELT_DOC": 1210,
        "DIRECT_FEED": 5,
        "USGS": 0,
        "GDACS": 0
      },
      "last7_score": 755.574,
      "prev7_score": 5.801,
      "trend": "up",
      "trend_arrow": "🔺",
      "change_pct": 12924.7,
      "place": "Giurgiu, Romania"
    },
    {
      "lon": 14.25,
      "lat": 50.25,
      "type": "hotspot_cell",
      "score": 728.13,
      "count": 1394,
      "cell_deg": 0.5,
      "sources": {
        "GDELT": 110,
        "GDELT_DOC": 1282,
        "DIRECT_FEED": 2,
        "USGS": 0,
        "GDACS": 0
      },
      "last7_score": 720.699,
      "prev7_score": 7.431,
      "trend": "up",
      "trend_arrow": "🔺",
      "change_pct": 9598.6,
      "place": "SO ORP Kralupy nad Vltavou, Czechia"
    },
    {
      "lon": 25.25,
      "lat": 54.75,
      "type": "hotspot_cell",
      "score": 522.937,
      "count": 1002,
      "cell_deg": 0.5,
      "sources": {
        "GDELT": 91,
        "GDELT_DOC": 911,
        "DIRECT_FEED": 0,
        "USGS": 0,
        "GDACS": 0
      },
      "last7_score": 518.041,
      "prev7_score": 4.896,
      "trend": "up",
      "trend_arrow": "🔺",
      "change_pct": 10481.0,
      "place": "Vilnius County, Lithuania"
    },
    {
      "lon": 19.25,
      "lat": 47.75,
      "type": "hotspot_cell",
      "score": 224.543,
      "count": 500,
      "cell_deg": 0.5,
      "sources": {
        "GDELT": 281,
        "GDELT_DOC": 0,
        "DIRECT_FEED": 219,
        "USGS": 0,
        "GDACS": 0
      },
      "last7_score": 207.348,
      "prev7_score": 17.195,
      "trend": "up",
      "trend_arrow": "🔺",
      "change_pct": 1105.9,
      "place": "Pest, Hungary"
    },
    {
      "lon": 20.25,
      "lat": 52.25,
      "type": "hotspot_cell",
      "score": 150.906,
      "count": 475,
      "cell_deg": 0.5,
      "sources": {
        "GDELT": 475,
        "GDELT_DOC": 0,
        "DIRECT_FEED": 0,
        "USGS": 0,
        "GDACS": 0
      },
      "last7_score": 122.589,
      "prev7_score": 28.317,
      "trend": "up",
      "trend_arrow": "🔺",
      "change_pct": 332.9,
      "place": "Sochaczew County, Poland"
    },
    {
      "lon": 20.25,
      "lat": 47.25,
      "type": "hotspot_cell",
      "score": 111.277,
      "count": 323,
      "cell_deg": 0.5,
      "sources": {
        "GDELT": 323,
        "GDELT_DOC": 0,
        "DIRECT_FEED": 0,
        "USGS": 0,
        "GDACS": 0
      },
      "last7_score": 95.588,
      "prev7_score": 15.689,
      "trend": "up",
      "trend_arrow": "🔺",
      "change_pct": 509.3,
      "place": "Jász-Nagykun-Szolnok, Hungary"
    },
    {
      "lon": 24.25,
      "lat": 56.75,
      "type": "hotspot_cell",
      "score": 90.625,
      "count": 169,
      "cell_deg": 0.5,
      "sources": {
        "GDELT": 42,
        "GDELT_DOC": 0,
        "DIRECT_FEED": 127,
        "USGS": 0,
        "GDACS": 0
      },
      "last7_score": 87.922,
      "prev7_score": 2.703,
      "trend": "up",
      "trend_arrow": "🔺",
      "change_pct": 3152.7,
      "place": "Ķekavas novads, Latvia"
    },
    {
      "lon": 25.25,
      "lat": 46.25,
      "type": "hotspot_cell",
      "score": 86.589,
      "count": 306,
      "cell_deg": 0.5,
      "sources": {
        "GDELT": 306,
        "GDELT_DOC": 0,
        "DIRECT_FEED": 0,
        "USGS": 0,
        "GDACS": 0
      },
      "last7_score": 70.384,
      "prev7_score": 16.205,
      "trend": "up",
      "trend_arrow": "🔺",
      "change_pct": 334.3,
      "place": "Harghita, Romania"
    },
    {
      "lon": 27.75,
      "lat": 47.25,
      "type": "hotspot_cell",
      "score": 46.135,
      "count": 87,
      "cell_deg": 0.5,
      "sources": {
        "GDELT": 0,
        "GDELT_DOC": 87,
        "DIRECT_FEED": 0,
        "USGS": 0,
        "GDACS": 0
      },
      "last7_score": 46.135,
      "prev7_score": 0.0,
      "trend": "new",
      "trend_arrow": "🆕",
      "change_pct": null,
      "place": "Iași, Romania"
    },
    {
      "lon": 21.25,
      "lat": 52.25,
      "type": "hotspot_cell",
      "score": 39.519,
      "count": 131,
      "cell_deg": 0.5,
      "sources": {
        "GDELT": 131,
        "GDELT_DOC": 0,
        "DIRECT_FEED": 0,
        "USGS": 0,
        "GDACS": 0
      },
      "last7_score": 31.874,
      "prev7_score": 7.644,
      "trend": "up",
      "trend_arrow": "🔺",
      "change_pct": 317.0,
      "place": "Warsaw, Poland"
    }
  ]
}