{
  "generated_utc": "2026-05-03T19:06:45Z",
  "top": [
    {
      "lon": 14.25,
      "lat": 50.25,
      "type": "hotspot_cell",
      "score": 913.847,
      "count": 1505,
      "cell_deg": 0.5,
      "sources": {
        "GDELT": 186,
        "GDELT_DOC": 1316,
        "DIRECT_FEED": 3,
        "USGS": 0,
        "GDACS": 0
      },
      "last7_score": 903.942,
      "prev7_score": 9.905,
      "trend": "up",
      "trend_arrow": "🔺",
      "change_pct": 9026.1,
      "place": "SO ORP Kralupy nad Vltavou, Czechia"
    },
    {
      "lon": 26.25,
      "lat": 44.25,
      "type": "hotspot_cell",
      "score": 738.625,
      "count": 1317,
      "cell_deg": 0.5,
      "sources": {
        "GDELT": 151,
        "GDELT_DOC": 1164,
        "DIRECT_FEED": 2,
        "USGS": 0,
        "GDACS": 0
      },
      "last7_score": 730.541,
      "prev7_score": 8.084,
      "trend": "up",
      "trend_arrow": "🔺",
      "change_pct": 8937.3,
      "place": "Giurgiu, Romania"
    },
    {
      "lon": 25.25,
      "lat": 54.75,
      "type": "hotspot_cell",
      "score": 657.477,
      "count": 1070,
      "cell_deg": 0.5,
      "sources": {
        "GDELT": 66,
        "GDELT_DOC": 1004,
        "DIRECT_FEED": 0,
        "USGS": 0,
        "GDACS": 0
      },
      "last7_score": 654.158,
      "prev7_score": 3.319,
      "trend": "up",
      "trend_arrow": "🔺",
      "change_pct": 19611.5,
      "place": "Vilnius County, Lithuania"
    },
    {
      "lon": 19.25,
      "lat": 47.75,
      "type": "hotspot_cell",
      "score": 182.658,
      "count": 524,
      "cell_deg": 0.5,
      "sources": {
        "GDELT": 341,
        "GDELT_DOC": 0,
        "DIRECT_FEED": 183,
        "USGS": 0,
        "GDACS": 0
      },
      "last7_score": 160.636,
      "prev7_score": 22.022,
      "trend": "up",
      "trend_arrow": "🔺",
      "change_pct": 629.4,
      "place": "Pest, Hungary"
    },
    {
      "lon": 20.25,
      "lat": 52.25,
      "type": "hotspot_cell",
      "score": 173.799,
      "count": 491,
      "cell_deg": 0.5,
      "sources": {
        "GDELT": 491,
        "GDELT_DOC": 0,
        "DIRECT_FEED": 0,
        "USGS": 0,
        "GDACS": 0
      },
      "last7_score": 145.615,
      "prev7_score": 28.184,
      "trend": "up",
      "trend_arrow": "🔺",
      "change_pct": 416.7,
      "place": "Sochaczew County, Poland"
    },
    {
      "lon": 25.25,
      "lat": 46.25,
      "type": "hotspot_cell",
      "score": 120.93,
      "count": 332,
      "cell_deg": 0.5,
      "sources": {
        "GDELT": 332,
        "GDELT_DOC": 0,
        "DIRECT_FEED": 0,
        "USGS": 0,
        "GDACS": 0
      },
      "last7_score": 106.203,
      "prev7_score": 14.727,
      "trend": "up",
      "trend_arrow": "🔺",
      "change_pct": 621.2,
      "place": "Harghita, Romania"
    },
    {
      "lon": 20.25,
      "lat": 47.25,
      "type": "hotspot_cell",
      "score": 111.666,
      "count": 492,
      "cell_deg": 0.5,
      "sources": {
        "GDELT": 492,
        "GDELT_DOC": 0,
        "DIRECT_FEED": 0,
        "USGS": 0,
        "GDACS": 0
      },
      "last7_score": 75.204,
      "prev7_score": 36.462,
      "trend": "up",
      "trend_arrow": "🔺",
      "change_pct": 106.3,
      "place": "Jász-Nagykun-Szolnok, Hungary"
    },
    {
      "lon": 24.25,
      "lat": 56.75,
      "type": "hotspot_cell",
      "score": 87.441,
      "count": 154,
      "cell_deg": 0.5,
      "sources": {
        "GDELT": 24,
        "GDELT_DOC": 0,
        "DIRECT_FEED": 130,
        "USGS": 0,
        "GDACS": 0
      },
      "last7_score": 85.939,
      "prev7_score": 1.502,
      "trend": "up",
      "trend_arrow": "🔺",
      "change_pct": 5621.0,
      "place": "Ķekavas novads, Latvia"
    },
    {
      "lon": 15.25,
      "lat": 49.75,
      "type": "hotspot_cell",
      "score": 77.345,
      "count": 213,
      "cell_deg": 0.5,
      "sources": {
        "GDELT": 213,
        "GDELT_DOC": 0,
        "DIRECT_FEED": 0,
        "USGS": 0,
        "GDACS": 0
      },
      "last7_score": 68.146,
      "prev7_score": 9.199,
      "trend": "up",
      "trend_arrow": "🔺",
      "change_pct": 640.8,
      "place": "Vysočina Region, Czechia"
    },
    {
      "lon": 21.25,
      "lat": 52.25,
      "type": "hotspot_cell",
      "score": 49.589,
      "count": 161,
      "cell_deg": 0.5,
      "sources": {
        "GDELT": 161,
        "GDELT_DOC": 0,
        "DIRECT_FEED": 0,
        "USGS": 0,
        "GDACS": 0
      },
      "last7_score": 40.836,
      "prev7_score": 8.753,
      "trend": "up",
      "trend_arrow": "🔺",
      "change_pct": 366.5,
      "place": "Warsaw, Poland"
    }
  ]
}