{
  "generated_utc": "2026-07-15T13:24:11Z",
  "top": [
    {
      "lon": 14.25,
      "lat": 50.25,
      "type": "hotspot_cell",
      "score": 722.161,
      "count": 1246,
      "cell_deg": 0.5,
      "sources": {
        "GDELT": 95,
        "GDELT_DOC": 1145,
        "DIRECT_FEED": 6,
        "USGS": 0,
        "GDACS": 0
      },
      "last7_score": 714.513,
      "prev7_score": 7.648,
      "trend": "up",
      "trend_arrow": "🔺",
      "change_pct": 9242.2,
      "place": "SO ORP Kralupy nad Vltavou, Czechia"
    },
    {
      "lon": 25.25,
      "lat": 54.75,
      "type": "hotspot_cell",
      "score": 434.194,
      "count": 831,
      "cell_deg": 0.5,
      "sources": {
        "GDELT": 76,
        "GDELT_DOC": 754,
        "DIRECT_FEED": 1,
        "USGS": 0,
        "GDACS": 0
      },
      "last7_score": 428.377,
      "prev7_score": 5.817,
      "trend": "up",
      "trend_arrow": "🔺",
      "change_pct": 7264.2,
      "place": "Vilnius County, Lithuania"
    },
    {
      "lon": 26.25,
      "lat": 44.25,
      "type": "hotspot_cell",
      "score": 404.262,
      "count": 762,
      "cell_deg": 0.5,
      "sources": {
        "GDELT": 101,
        "GDELT_DOC": 659,
        "DIRECT_FEED": 2,
        "USGS": 0,
        "GDACS": 0
      },
      "last7_score": 395.856,
      "prev7_score": 8.405,
      "trend": "up",
      "trend_arrow": "🔺",
      "change_pct": 4609.5,
      "place": "Giurgiu, Romania"
    },
    {
      "lon": 19.25,
      "lat": 47.75,
      "type": "hotspot_cell",
      "score": 196.885,
      "count": 338,
      "cell_deg": 0.5,
      "sources": {
        "GDELT": 154,
        "GDELT_DOC": 0,
        "DIRECT_FEED": 184,
        "USGS": 0,
        "GDACS": 0
      },
      "last7_score": 187.982,
      "prev7_score": 8.903,
      "trend": "up",
      "trend_arrow": "🔺",
      "change_pct": 2011.5,
      "place": "Pest, Hungary"
    },
    {
      "lon": 20.25,
      "lat": 52.25,
      "type": "hotspot_cell",
      "score": 183.767,
      "count": 491,
      "cell_deg": 0.5,
      "sources": {
        "GDELT": 491,
        "GDELT_DOC": 0,
        "DIRECT_FEED": 0,
        "USGS": 0,
        "GDACS": 0
      },
      "last7_score": 143.245,
      "prev7_score": 40.521,
      "trend": "up",
      "trend_arrow": "🔺",
      "change_pct": 253.5,
      "place": "Sochaczew County, Poland"
    },
    {
      "lon": 25.25,
      "lat": 46.25,
      "type": "hotspot_cell",
      "score": 159.103,
      "count": 391,
      "cell_deg": 0.5,
      "sources": {
        "GDELT": 391,
        "GDELT_DOC": 0,
        "DIRECT_FEED": 0,
        "USGS": 0,
        "GDACS": 0
      },
      "last7_score": 132.394,
      "prev7_score": 26.709,
      "trend": "up",
      "trend_arrow": "🔺",
      "change_pct": 395.7,
      "place": "Harghita, Romania"
    },
    {
      "lon": 24.25,
      "lat": 56.75,
      "type": "hotspot_cell",
      "score": 112.422,
      "count": 154,
      "cell_deg": 0.5,
      "sources": {
        "GDELT": 18,
        "GDELT_DOC": 0,
        "DIRECT_FEED": 136,
        "USGS": 0,
        "GDACS": 0
      },
      "last7_score": 110.935,
      "prev7_score": 1.487,
      "trend": "up",
      "trend_arrow": "🔺",
      "change_pct": 7360.6,
      "place": "Ķekavas novads, Latvia"
    },
    {
      "lon": 21.25,
      "lat": 52.25,
      "type": "hotspot_cell",
      "score": 91.831,
      "count": 250,
      "cell_deg": 0.5,
      "sources": {
        "GDELT": 250,
        "GDELT_DOC": 0,
        "DIRECT_FEED": 0,
        "USGS": 0,
        "GDACS": 0
      },
      "last7_score": 73.704,
      "prev7_score": 18.127,
      "trend": "up",
      "trend_arrow": "🔺",
      "change_pct": 306.6,
      "place": "Warsaw, Poland"
    },
    {
      "lon": 20.25,
      "lat": 47.25,
      "type": "hotspot_cell",
      "score": 71.378,
      "count": 187,
      "cell_deg": 0.5,
      "sources": {
        "GDELT": 187,
        "GDELT_DOC": 0,
        "DIRECT_FEED": 0,
        "USGS": 0,
        "GDACS": 0
      },
      "last7_score": 56.425,
      "prev7_score": 14.953,
      "trend": "up",
      "trend_arrow": "🔺",
      "change_pct": 277.3,
      "place": "Jász-Nagykun-Szolnok, Hungary"
    },
    {
      "lon": 24.25,
      "lat": 56.25,
      "type": "hotspot_cell",
      "score": 58.91,
      "count": 146,
      "cell_deg": 0.5,
      "sources": {
        "GDELT": 146,
        "GDELT_DOC": 0,
        "DIRECT_FEED": 0,
        "USGS": 0,
        "GDACS": 0
      },
      "last7_score": 49.107,
      "prev7_score": 9.802,
      "trend": "up",
      "trend_arrow": "🔺",
      "change_pct": 401.0,
      "place": "Namišių seniūnija, Lithuania"
    }
  ]
}