{
  "generated_utc": "2026-04-25T19:00:33Z",
  "top": [
    {
      "lon": 14.25,
      "lat": 50.25,
      "type": "hotspot_cell",
      "score": 1092.776,
      "count": 1687,
      "cell_deg": 0.5,
      "sources": {
        "GDELT": 184,
        "GDELT_DOC": 1499,
        "DIRECT_FEED": 4,
        "USGS": 0,
        "GDACS": 0
      },
      "last7_score": 1079.093,
      "prev7_score": 13.683,
      "trend": "up",
      "trend_arrow": "🔺",
      "change_pct": 7786.2,
      "place": "SO ORP Kralupy nad Vltavou, Czechia"
    },
    {
      "lon": 26.25,
      "lat": 44.25,
      "type": "hotspot_cell",
      "score": 992.351,
      "count": 1489,
      "cell_deg": 0.5,
      "sources": {
        "GDELT": 139,
        "GDELT_DOC": 1343,
        "DIRECT_FEED": 7,
        "USGS": 0,
        "GDACS": 0
      },
      "last7_score": 985.237,
      "prev7_score": 7.113,
      "trend": "up",
      "trend_arrow": "🔺",
      "change_pct": 13750.4,
      "place": "Giurgiu, Romania"
    },
    {
      "lon": 25.25,
      "lat": 54.75,
      "type": "hotspot_cell",
      "score": 755.753,
      "count": 1203,
      "cell_deg": 0.5,
      "sources": {
        "GDELT": 77,
        "GDELT_DOC": 1126,
        "DIRECT_FEED": 0,
        "USGS": 0,
        "GDACS": 0
      },
      "last7_score": 750.51,
      "prev7_score": 5.243,
      "trend": "up",
      "trend_arrow": "🔺",
      "change_pct": 14215.1,
      "place": "Vilnius County, Lithuania"
    },
    {
      "lon": 19.25,
      "lat": 47.75,
      "type": "hotspot_cell",
      "score": 363.666,
      "count": 1216,
      "cell_deg": 0.5,
      "sources": {
        "GDELT": 966,
        "GDELT_DOC": 0,
        "DIRECT_FEED": 250,
        "USGS": 0,
        "GDACS": 0
      },
      "last7_score": 299.616,
      "prev7_score": 64.051,
      "trend": "up",
      "trend_arrow": "🔺",
      "change_pct": 367.8,
      "place": "Pest, Hungary"
    },
    {
      "lon": 20.25,
      "lat": 47.25,
      "type": "hotspot_cell",
      "score": 251.054,
      "count": 865,
      "cell_deg": 0.5,
      "sources": {
        "GDELT": 865,
        "GDELT_DOC": 0,
        "DIRECT_FEED": 0,
        "USGS": 0,
        "GDACS": 0
      },
      "last7_score": 197.207,
      "prev7_score": 53.847,
      "trend": "up",
      "trend_arrow": "🔺",
      "change_pct": 266.2,
      "place": "Jász-Nagykun-Szolnok, Hungary"
    },
    {
      "lon": 20.25,
      "lat": 52.25,
      "type": "hotspot_cell",
      "score": 192.534,
      "count": 483,
      "cell_deg": 0.5,
      "sources": {
        "GDELT": 483,
        "GDELT_DOC": 0,
        "DIRECT_FEED": 0,
        "USGS": 0,
        "GDACS": 0
      },
      "last7_score": 164.556,
      "prev7_score": 27.979,
      "trend": "up",
      "trend_arrow": "🔺",
      "change_pct": 488.1,
      "place": "Sochaczew County, Poland"
    },
    {
      "lon": 26.75,
      "lat": 47.75,
      "type": "hotspot_cell",
      "score": 114.151,
      "count": 111,
      "cell_deg": 0.5,
      "sources": {
        "GDELT": 2,
        "GDELT_DOC": 108,
        "DIRECT_FEED": 1,
        "USGS": 0,
        "GDACS": 0
      },
      "last7_score": 113.964,
      "prev7_score": 0.188,
      "trend": "up",
      "trend_arrow": "🔺",
      "change_pct": 60665.1,
      "place": "Botoșani, Romania"
    },
    {
      "lon": 24.25,
      "lat": 56.75,
      "type": "hotspot_cell",
      "score": 109.809,
      "count": 173,
      "cell_deg": 0.5,
      "sources": {
        "GDELT": 34,
        "GDELT_DOC": 0,
        "DIRECT_FEED": 139,
        "USGS": 0,
        "GDACS": 0
      },
      "last7_score": 107.226,
      "prev7_score": 2.583,
      "trend": "up",
      "trend_arrow": "🔺",
      "change_pct": 4051.4,
      "place": "Ķekavas novads, Latvia"
    },
    {
      "lon": 25.25,
      "lat": 46.25,
      "type": "hotspot_cell",
      "score": 99.034,
      "count": 274,
      "cell_deg": 0.5,
      "sources": {
        "GDELT": 274,
        "GDELT_DOC": 0,
        "DIRECT_FEED": 0,
        "USGS": 0,
        "GDACS": 0
      },
      "last7_score": 81.585,
      "prev7_score": 17.449,
      "trend": "up",
      "trend_arrow": "🔺",
      "change_pct": 367.6,
      "place": "Harghita, Romania"
    },
    {
      "lon": 27.75,
      "lat": 47.25,
      "type": "hotspot_cell",
      "score": 87.571,
      "count": 130,
      "cell_deg": 0.5,
      "sources": {
        "GDELT": 0,
        "GDELT_DOC": 130,
        "DIRECT_FEED": 0,
        "USGS": 0,
        "GDACS": 0
      },
      "last7_score": 87.571,
      "prev7_score": 0.0,
      "trend": "new",
      "trend_arrow": "🆕",
      "change_pct": null,
      "place": "Iași, Romania"
    }
  ]
}