{
  "generated_utc": "2026-05-26T20:06:53Z",
  "top": [
    {
      "lon": 14.25,
      "lat": 50.25,
      "type": "hotspot_cell",
      "score": 1036.269,
      "count": 1642,
      "cell_deg": 0.5,
      "sources": {
        "GDELT": 146,
        "GDELT_DOC": 1475,
        "DIRECT_FEED": 21,
        "USGS": 0,
        "GDACS": 0
      },
      "last7_score": 1029.638,
      "prev7_score": 6.631,
      "trend": "up",
      "trend_arrow": "🔺",
      "change_pct": 15428.7,
      "place": "SO ORP Kralupy nad Vltavou, Czechia"
    },
    {
      "lon": 26.25,
      "lat": 44.25,
      "type": "hotspot_cell",
      "score": 789.361,
      "count": 1411,
      "cell_deg": 0.5,
      "sources": {
        "GDELT": 181,
        "GDELT_DOC": 1229,
        "DIRECT_FEED": 1,
        "USGS": 0,
        "GDACS": 0
      },
      "last7_score": 779.528,
      "prev7_score": 9.833,
      "trend": "up",
      "trend_arrow": "🔺",
      "change_pct": 7827.7,
      "place": "Giurgiu, Romania"
    },
    {
      "lon": 25.25,
      "lat": 54.75,
      "type": "hotspot_cell",
      "score": 590.55,
      "count": 1092,
      "cell_deg": 0.5,
      "sources": {
        "GDELT": 108,
        "GDELT_DOC": 981,
        "DIRECT_FEED": 3,
        "USGS": 0,
        "GDACS": 0
      },
      "last7_score": 586.534,
      "prev7_score": 4.016,
      "trend": "up",
      "trend_arrow": "🔺",
      "change_pct": 14505.9,
      "place": "Vilnius County, Lithuania"
    },
    {
      "lon": 20.25,
      "lat": 52.25,
      "type": "hotspot_cell",
      "score": 294.087,
      "count": 819,
      "cell_deg": 0.5,
      "sources": {
        "GDELT": 819,
        "GDELT_DOC": 0,
        "DIRECT_FEED": 0,
        "USGS": 0,
        "GDACS": 0
      },
      "last7_score": 256.316,
      "prev7_score": 37.771,
      "trend": "up",
      "trend_arrow": "🔺",
      "change_pct": 578.6,
      "place": "Sochaczew County, Poland"
    },
    {
      "lon": 19.25,
      "lat": 47.75,
      "type": "hotspot_cell",
      "score": 206.5,
      "count": 434,
      "cell_deg": 0.5,
      "sources": {
        "GDELT": 210,
        "GDELT_DOC": 0,
        "DIRECT_FEED": 224,
        "USGS": 0,
        "GDACS": 0
      },
      "last7_score": 192.75,
      "prev7_score": 13.75,
      "trend": "up",
      "trend_arrow": "🔺",
      "change_pct": 1301.8,
      "place": "Pest, Hungary"
    },
    {
      "lon": 25.25,
      "lat": 46.25,
      "type": "hotspot_cell",
      "score": 123.634,
      "count": 324,
      "cell_deg": 0.5,
      "sources": {
        "GDELT": 324,
        "GDELT_DOC": 0,
        "DIRECT_FEED": 0,
        "USGS": 0,
        "GDACS": 0
      },
      "last7_score": 104.017,
      "prev7_score": 19.617,
      "trend": "up",
      "trend_arrow": "🔺",
      "change_pct": 430.2,
      "place": "Harghita, Romania"
    },
    {
      "lon": 24.25,
      "lat": 56.75,
      "type": "hotspot_cell",
      "score": 105.956,
      "count": 177,
      "cell_deg": 0.5,
      "sources": {
        "GDELT": 57,
        "GDELT_DOC": 0,
        "DIRECT_FEED": 120,
        "USGS": 0,
        "GDACS": 0
      },
      "last7_score": 102.036,
      "prev7_score": 3.92,
      "trend": "up",
      "trend_arrow": "🔺",
      "change_pct": 2503.0,
      "place": "Ķekavas novads, Latvia"
    },
    {
      "lon": 21.25,
      "lat": 52.25,
      "type": "hotspot_cell",
      "score": 87.77,
      "count": 273,
      "cell_deg": 0.5,
      "sources": {
        "GDELT": 273,
        "GDELT_DOC": 0,
        "DIRECT_FEED": 0,
        "USGS": 0,
        "GDACS": 0
      },
      "last7_score": 72.885,
      "prev7_score": 14.885,
      "trend": "up",
      "trend_arrow": "🔺",
      "change_pct": 389.7,
      "place": "Warsaw, Poland"
    },
    {
      "lon": 20.25,
      "lat": 47.25,
      "type": "hotspot_cell",
      "score": 80.205,
      "count": 252,
      "cell_deg": 0.5,
      "sources": {
        "GDELT": 252,
        "GDELT_DOC": 0,
        "DIRECT_FEED": 0,
        "USGS": 0,
        "GDACS": 0
      },
      "last7_score": 63.664,
      "prev7_score": 16.54,
      "trend": "up",
      "trend_arrow": "🔺",
      "change_pct": 284.9,
      "place": "Jász-Nagykun-Szolnok, Hungary"
    },
    {
      "lon": 26.25,
      "lat": 59.25,
      "type": "hotspot_cell",
      "score": 58.951,
      "count": 158,
      "cell_deg": 0.5,
      "sources": {
        "GDELT": 158,
        "GDELT_DOC": 0,
        "DIRECT_FEED": 0,
        "USGS": 0,
        "GDACS": 0
      },
      "last7_score": 49.628,
      "prev7_score": 9.322,
      "trend": "up",
      "trend_arrow": "🔺",
      "change_pct": 432.4,
      "place": "Lääne-Viru County, Estonia"
    }
  ]
}