{
  "generated_utc": "2026-05-27T20:09:04Z",
  "top": [
    {
      "lon": 14.25,
      "lat": 50.25,
      "type": "hotspot_cell",
      "score": 937.262,
      "count": 1545,
      "cell_deg": 0.5,
      "sources": {
        "GDELT": 146,
        "GDELT_DOC": 1378,
        "DIRECT_FEED": 21,
        "USGS": 0,
        "GDACS": 0
      },
      "last7_score": 929.556,
      "prev7_score": 7.706,
      "trend": "up",
      "trend_arrow": "🔺",
      "change_pct": 11962.6,
      "place": "SO ORP Kralupy nad Vltavou, Czechia"
    },
    {
      "lon": 26.25,
      "lat": 44.25,
      "type": "hotspot_cell",
      "score": 771.349,
      "count": 1309,
      "cell_deg": 0.5,
      "sources": {
        "GDELT": 148,
        "GDELT_DOC": 1160,
        "DIRECT_FEED": 1,
        "USGS": 0,
        "GDACS": 0
      },
      "last7_score": 762.133,
      "prev7_score": 9.215,
      "trend": "up",
      "trend_arrow": "🔺",
      "change_pct": 8170.4,
      "place": "Giurgiu, Romania"
    },
    {
      "lon": 25.25,
      "lat": 54.75,
      "type": "hotspot_cell",
      "score": 709.55,
      "count": 1104,
      "cell_deg": 0.5,
      "sources": {
        "GDELT": 108,
        "GDELT_DOC": 994,
        "DIRECT_FEED": 2,
        "USGS": 0,
        "GDACS": 0
      },
      "last7_score": 699.764,
      "prev7_score": 9.786,
      "trend": "up",
      "trend_arrow": "🔺",
      "change_pct": 7050.7,
      "place": "Vilnius County, Lithuania"
    },
    {
      "lon": 20.25,
      "lat": 52.25,
      "type": "hotspot_cell",
      "score": 296.334,
      "count": 824,
      "cell_deg": 0.5,
      "sources": {
        "GDELT": 824,
        "GDELT_DOC": 0,
        "DIRECT_FEED": 0,
        "USGS": 0,
        "GDACS": 0
      },
      "last7_score": 250.753,
      "prev7_score": 45.582,
      "trend": "up",
      "trend_arrow": "🔺",
      "change_pct": 450.1,
      "place": "Sochaczew County, Poland"
    },
    {
      "lon": 19.25,
      "lat": 47.75,
      "type": "hotspot_cell",
      "score": 232.04,
      "count": 437,
      "cell_deg": 0.5,
      "sources": {
        "GDELT": 215,
        "GDELT_DOC": 0,
        "DIRECT_FEED": 222,
        "USGS": 0,
        "GDACS": 0
      },
      "last7_score": 217.448,
      "prev7_score": 14.592,
      "trend": "up",
      "trend_arrow": "🔺",
      "change_pct": 1390.2,
      "place": "Pest, Hungary"
    },
    {
      "lon": 25.25,
      "lat": 46.25,
      "type": "hotspot_cell",
      "score": 128.125,
      "count": 331,
      "cell_deg": 0.5,
      "sources": {
        "GDELT": 331,
        "GDELT_DOC": 0,
        "DIRECT_FEED": 0,
        "USGS": 0,
        "GDACS": 0
      },
      "last7_score": 105.607,
      "prev7_score": 22.518,
      "trend": "up",
      "trend_arrow": "🔺",
      "change_pct": 369.0,
      "place": "Harghita, Romania"
    },
    {
      "lon": 24.25,
      "lat": 56.75,
      "type": "hotspot_cell",
      "score": 107.719,
      "count": 177,
      "cell_deg": 0.5,
      "sources": {
        "GDELT": 55,
        "GDELT_DOC": 0,
        "DIRECT_FEED": 122,
        "USGS": 0,
        "GDACS": 0
      },
      "last7_score": 103.606,
      "prev7_score": 4.113,
      "trend": "up",
      "trend_arrow": "🔺",
      "change_pct": 2419.2,
      "place": "Ķekavas novads, Latvia"
    },
    {
      "lon": 21.25,
      "lat": 52.25,
      "type": "hotspot_cell",
      "score": 85.165,
      "count": 268,
      "cell_deg": 0.5,
      "sources": {
        "GDELT": 268,
        "GDELT_DOC": 0,
        "DIRECT_FEED": 0,
        "USGS": 0,
        "GDACS": 0
      },
      "last7_score": 67.8,
      "prev7_score": 17.365,
      "trend": "up",
      "trend_arrow": "🔺",
      "change_pct": 290.4,
      "place": "Warsaw, Poland"
    },
    {
      "lon": 20.25,
      "lat": 47.25,
      "type": "hotspot_cell",
      "score": 81.959,
      "count": 247,
      "cell_deg": 0.5,
      "sources": {
        "GDELT": 247,
        "GDELT_DOC": 0,
        "DIRECT_FEED": 0,
        "USGS": 0,
        "GDACS": 0
      },
      "last7_score": 64.132,
      "prev7_score": 17.827,
      "trend": "up",
      "trend_arrow": "🔺",
      "change_pct": 259.7,
      "place": "Jász-Nagykun-Szolnok, Hungary"
    },
    {
      "lon": 27.75,
      "lat": 47.25,
      "type": "hotspot_cell",
      "score": 62.234,
      "count": 82,
      "cell_deg": 0.5,
      "sources": {
        "GDELT": 0,
        "GDELT_DOC": 82,
        "DIRECT_FEED": 0,
        "USGS": 0,
        "GDACS": 0
      },
      "last7_score": 62.234,
      "prev7_score": 0.0,
      "trend": "new",
      "trend_arrow": "🆕",
      "change_pct": null,
      "place": "Iași, Romania"
    }
  ]
}