{
  "generated_utc": "2026-07-13T08:59:50Z",
  "top": [
    {
      "lon": 14.25,
      "lat": 50.25,
      "type": "hotspot_cell",
      "score": 680.3,
      "count": 1342,
      "cell_deg": 0.5,
      "sources": {
        "GDELT": 98,
        "GDELT_DOC": 1237,
        "DIRECT_FEED": 7,
        "USGS": 0,
        "GDACS": 0
      },
      "last7_score": 672.727,
      "prev7_score": 7.573,
      "trend": "up",
      "trend_arrow": "🔺",
      "change_pct": 8782.7,
      "place": "SO ORP Kralupy nad Vltavou, Czechia"
    },
    {
      "lon": 25.25,
      "lat": 54.75,
      "type": "hotspot_cell",
      "score": 499.623,
      "count": 889,
      "cell_deg": 0.5,
      "sources": {
        "GDELT": 74,
        "GDELT_DOC": 814,
        "DIRECT_FEED": 1,
        "USGS": 0,
        "GDACS": 0
      },
      "last7_score": 495.214,
      "prev7_score": 4.409,
      "trend": "up",
      "trend_arrow": "🔺",
      "change_pct": 11132.3,
      "place": "Vilnius County, Lithuania"
    },
    {
      "lon": 26.25,
      "lat": 44.25,
      "type": "hotspot_cell",
      "score": 419.774,
      "count": 812,
      "cell_deg": 0.5,
      "sources": {
        "GDELT": 112,
        "GDELT_DOC": 696,
        "DIRECT_FEED": 4,
        "USGS": 0,
        "GDACS": 0
      },
      "last7_score": 412.924,
      "prev7_score": 6.85,
      "trend": "up",
      "trend_arrow": "🔺",
      "change_pct": 5928.3,
      "place": "Giurgiu, Romania"
    },
    {
      "lon": 19.25,
      "lat": 47.75,
      "type": "hotspot_cell",
      "score": 143.004,
      "count": 299,
      "cell_deg": 0.5,
      "sources": {
        "GDELT": 143,
        "GDELT_DOC": 0,
        "DIRECT_FEED": 156,
        "USGS": 0,
        "GDACS": 0
      },
      "last7_score": 135.507,
      "prev7_score": 7.497,
      "trend": "up",
      "trend_arrow": "🔺",
      "change_pct": 1707.5,
      "place": "Pest, Hungary"
    },
    {
      "lon": 20.25,
      "lat": 52.25,
      "type": "hotspot_cell",
      "score": 137.213,
      "count": 478,
      "cell_deg": 0.5,
      "sources": {
        "GDELT": 478,
        "GDELT_DOC": 0,
        "DIRECT_FEED": 0,
        "USGS": 0,
        "GDACS": 0
      },
      "last7_score": 102.873,
      "prev7_score": 34.34,
      "trend": "up",
      "trend_arrow": "🔺",
      "change_pct": 199.6,
      "place": "Sochaczew County, Poland"
    },
    {
      "lon": 25.25,
      "lat": 46.25,
      "type": "hotspot_cell",
      "score": 110.933,
      "count": 334,
      "cell_deg": 0.5,
      "sources": {
        "GDELT": 334,
        "GDELT_DOC": 0,
        "DIRECT_FEED": 0,
        "USGS": 0,
        "GDACS": 0
      },
      "last7_score": 87.542,
      "prev7_score": 23.391,
      "trend": "up",
      "trend_arrow": "🔺",
      "change_pct": 274.3,
      "place": "Harghita, Romania"
    },
    {
      "lon": 24.25,
      "lat": 56.75,
      "type": "hotspot_cell",
      "score": 95.07,
      "count": 149,
      "cell_deg": 0.5,
      "sources": {
        "GDELT": 19,
        "GDELT_DOC": 0,
        "DIRECT_FEED": 130,
        "USGS": 0,
        "GDACS": 0
      },
      "last7_score": 93.15,
      "prev7_score": 1.92,
      "trend": "up",
      "trend_arrow": "🔺",
      "change_pct": 4752.3,
      "place": "Ķekavas novads, Latvia"
    },
    {
      "lon": 21.25,
      "lat": 52.25,
      "type": "hotspot_cell",
      "score": 64.854,
      "count": 229,
      "cell_deg": 0.5,
      "sources": {
        "GDELT": 229,
        "GDELT_DOC": 0,
        "DIRECT_FEED": 0,
        "USGS": 0,
        "GDACS": 0
      },
      "last7_score": 46.891,
      "prev7_score": 17.963,
      "trend": "up",
      "trend_arrow": "🔺",
      "change_pct": 161.0,
      "place": "Warsaw, Poland"
    },
    {
      "lon": 20.25,
      "lat": 47.25,
      "type": "hotspot_cell",
      "score": 61.692,
      "count": 172,
      "cell_deg": 0.5,
      "sources": {
        "GDELT": 172,
        "GDELT_DOC": 0,
        "DIRECT_FEED": 0,
        "USGS": 0,
        "GDACS": 0
      },
      "last7_score": 50.665,
      "prev7_score": 11.026,
      "trend": "up",
      "trend_arrow": "🔺",
      "change_pct": 359.5,
      "place": "Jász-Nagykun-Szolnok, Hungary"
    },
    {
      "lon": 26.25,
      "lat": 59.25,
      "type": "hotspot_cell",
      "score": 59.863,
      "count": 163,
      "cell_deg": 0.5,
      "sources": {
        "GDELT": 163,
        "GDELT_DOC": 0,
        "DIRECT_FEED": 0,
        "USGS": 0,
        "GDACS": 0
      },
      "last7_score": 48.913,
      "prev7_score": 10.95,
      "trend": "up",
      "trend_arrow": "🔺",
      "change_pct": 346.7,
      "place": "Lääne-Viru County, Estonia"
    }
  ]
}