{
  "generated_utc": "2026-05-06T19:51:08Z",
  "top": [
    {
      "lon": 26.25,
      "lat": 44.25,
      "type": "hotspot_cell",
      "score": 748.949,
      "count": 1196,
      "cell_deg": 0.5,
      "sources": {
        "GDELT": 150,
        "GDELT_DOC": 1039,
        "DIRECT_FEED": 7,
        "USGS": 0,
        "GDACS": 0
      },
      "last7_score": 739.583,
      "prev7_score": 9.366,
      "trend": "up",
      "trend_arrow": "🔺",
      "change_pct": 7796.2,
      "place": "Giurgiu, Romania"
    },
    {
      "lon": 14.25,
      "lat": 50.25,
      "type": "hotspot_cell",
      "score": 706.769,
      "count": 1316,
      "cell_deg": 0.5,
      "sources": {
        "GDELT": 179,
        "GDELT_DOC": 1132,
        "DIRECT_FEED": 5,
        "USGS": 0,
        "GDACS": 0
      },
      "last7_score": 693.214,
      "prev7_score": 13.555,
      "trend": "up",
      "trend_arrow": "🔺",
      "change_pct": 5014.0,
      "place": "SO ORP Kralupy nad Vltavou, Czechia"
    },
    {
      "lon": 25.25,
      "lat": 54.75,
      "type": "hotspot_cell",
      "score": 588.549,
      "count": 1000,
      "cell_deg": 0.5,
      "sources": {
        "GDELT": 64,
        "GDELT_DOC": 936,
        "DIRECT_FEED": 0,
        "USGS": 0,
        "GDACS": 0
      },
      "last7_score": 583.245,
      "prev7_score": 5.304,
      "trend": "up",
      "trend_arrow": "🔺",
      "change_pct": 10895.5,
      "place": "Vilnius County, Lithuania"
    },
    {
      "lon": 20.25,
      "lat": 52.25,
      "type": "hotspot_cell",
      "score": 212.485,
      "count": 527,
      "cell_deg": 0.5,
      "sources": {
        "GDELT": 527,
        "GDELT_DOC": 0,
        "DIRECT_FEED": 0,
        "USGS": 0,
        "GDACS": 0
      },
      "last7_score": 181.585,
      "prev7_score": 30.9,
      "trend": "up",
      "trend_arrow": "🔺",
      "change_pct": 487.7,
      "place": "Sochaczew County, Poland"
    },
    {
      "lon": 19.25,
      "lat": 47.75,
      "type": "hotspot_cell",
      "score": 191.765,
      "count": 373,
      "cell_deg": 0.5,
      "sources": {
        "GDELT": 217,
        "GDELT_DOC": 0,
        "DIRECT_FEED": 156,
        "USGS": 0,
        "GDACS": 0
      },
      "last7_score": 174.967,
      "prev7_score": 16.798,
      "trend": "up",
      "trend_arrow": "🔺",
      "change_pct": 941.6,
      "place": "Pest, Hungary"
    },
    {
      "lon": 25.25,
      "lat": 46.25,
      "type": "hotspot_cell",
      "score": 141.456,
      "count": 361,
      "cell_deg": 0.5,
      "sources": {
        "GDELT": 361,
        "GDELT_DOC": 0,
        "DIRECT_FEED": 0,
        "USGS": 0,
        "GDACS": 0
      },
      "last7_score": 117.728,
      "prev7_score": 23.729,
      "trend": "up",
      "trend_arrow": "🔺",
      "change_pct": 396.1,
      "place": "Harghita, Romania"
    },
    {
      "lon": 24.25,
      "lat": 56.75,
      "type": "hotspot_cell",
      "score": 108.922,
      "count": 159,
      "cell_deg": 0.5,
      "sources": {
        "GDELT": 37,
        "GDELT_DOC": 0,
        "DIRECT_FEED": 122,
        "USGS": 0,
        "GDACS": 0
      },
      "last7_score": 106.714,
      "prev7_score": 2.208,
      "trend": "up",
      "trend_arrow": "🔺",
      "change_pct": 4733.8,
      "place": "Ķekavas novads, Latvia"
    },
    {
      "lon": 20.25,
      "lat": 47.25,
      "type": "hotspot_cell",
      "score": 101.476,
      "count": 363,
      "cell_deg": 0.5,
      "sources": {
        "GDELT": 363,
        "GDELT_DOC": 0,
        "DIRECT_FEED": 0,
        "USGS": 0,
        "GDACS": 0
      },
      "last7_score": 74.205,
      "prev7_score": 27.271,
      "trend": "up",
      "trend_arrow": "🔺",
      "change_pct": 172.1,
      "place": "Jász-Nagykun-Szolnok, Hungary"
    },
    {
      "lon": 15.25,
      "lat": 49.75,
      "type": "hotspot_cell",
      "score": 64.438,
      "count": 198,
      "cell_deg": 0.5,
      "sources": {
        "GDELT": 198,
        "GDELT_DOC": 0,
        "DIRECT_FEED": 0,
        "USGS": 0,
        "GDACS": 0
      },
      "last7_score": 48.298,
      "prev7_score": 16.14,
      "trend": "up",
      "trend_arrow": "🔺",
      "change_pct": 199.2,
      "place": "Vysočina Region, Czechia"
    },
    {
      "lon": 21.25,
      "lat": 52.25,
      "type": "hotspot_cell",
      "score": 58.306,
      "count": 164,
      "cell_deg": 0.5,
      "sources": {
        "GDELT": 164,
        "GDELT_DOC": 0,
        "DIRECT_FEED": 0,
        "USGS": 0,
        "GDACS": 0
      },
      "last7_score": 45.948,
      "prev7_score": 12.358,
      "trend": "up",
      "trend_arrow": "🔺",
      "change_pct": 271.8,
      "place": "Warsaw, Poland"
    }
  ]
}