{
  "generated_utc": "2026-03-13T18:47:07Z",
  "top": [
    {
      "lon": 26.25,
      "lat": 44.25,
      "type": "hotspot_cell",
      "score": 800.417,
      "count": 1301,
      "cell_deg": 0.5,
      "sources": {
        "GDELT": 197,
        "GDELT_DOC": 1100,
        "DIRECT_FEED": 4,
        "USGS": 0,
        "GDACS": 0
      },
      "last7_score": 787.425,
      "prev7_score": 12.992,
      "trend": "up",
      "trend_arrow": "🔺",
      "change_pct": 5960.8,
      "place": "Giurgiu, Romania"
    },
    {
      "lon": 14.25,
      "lat": 50.25,
      "type": "hotspot_cell",
      "score": 750.884,
      "count": 1217,
      "cell_deg": 0.5,
      "sources": {
        "GDELT": 139,
        "GDELT_DOC": 1072,
        "DIRECT_FEED": 6,
        "USGS": 0,
        "GDACS": 0
      },
      "last7_score": 738.518,
      "prev7_score": 12.365,
      "trend": "up",
      "trend_arrow": "🔺",
      "change_pct": 5872.5,
      "place": "SO ORP Kralupy nad Vltavou, Czechia"
    },
    {
      "lon": 25.25,
      "lat": 54.75,
      "type": "hotspot_cell",
      "score": 632.309,
      "count": 934,
      "cell_deg": 0.5,
      "sources": {
        "GDELT": 71,
        "GDELT_DOC": 863,
        "DIRECT_FEED": 0,
        "USGS": 0,
        "GDACS": 0
      },
      "last7_score": 627.474,
      "prev7_score": 4.835,
      "trend": "up",
      "trend_arrow": "🔺",
      "change_pct": 12877.7,
      "place": "Vilnius County, Lithuania"
    },
    {
      "lon": 19.25,
      "lat": 47.75,
      "type": "hotspot_cell",
      "score": 286.36,
      "count": 572,
      "cell_deg": 0.5,
      "sources": {
        "GDELT": 401,
        "GDELT_DOC": 0,
        "DIRECT_FEED": 171,
        "USGS": 0,
        "GDACS": 0
      },
      "last7_score": 250.615,
      "prev7_score": 35.744,
      "trend": "up",
      "trend_arrow": "🔺",
      "change_pct": 601.1,
      "place": "Pest, Hungary"
    },
    {
      "lon": 20.25,
      "lat": 52.25,
      "type": "hotspot_cell",
      "score": 170.163,
      "count": 469,
      "cell_deg": 0.5,
      "sources": {
        "GDELT": 469,
        "GDELT_DOC": 0,
        "DIRECT_FEED": 0,
        "USGS": 0,
        "GDACS": 0
      },
      "last7_score": 134.619,
      "prev7_score": 35.545,
      "trend": "up",
      "trend_arrow": "🔺",
      "change_pct": 278.7,
      "place": "Sochaczew County, Poland"
    },
    {
      "lon": 20.25,
      "lat": 47.25,
      "type": "hotspot_cell",
      "score": 149.266,
      "count": 350,
      "cell_deg": 0.5,
      "sources": {
        "GDELT": 350,
        "GDELT_DOC": 0,
        "DIRECT_FEED": 0,
        "USGS": 0,
        "GDACS": 0
      },
      "last7_score": 126.349,
      "prev7_score": 22.917,
      "trend": "up",
      "trend_arrow": "🔺",
      "change_pct": 451.3,
      "place": "Jász-Nagykun-Szolnok, Hungary"
    },
    {
      "lon": 24.25,
      "lat": 56.75,
      "type": "hotspot_cell",
      "score": 142.173,
      "count": 189,
      "cell_deg": 0.5,
      "sources": {
        "GDELT": 29,
        "GDELT_DOC": 0,
        "DIRECT_FEED": 160,
        "USGS": 0,
        "GDACS": 0
      },
      "last7_score": 140.322,
      "prev7_score": 1.851,
      "trend": "up",
      "trend_arrow": "🔺",
      "change_pct": 7481.4,
      "place": "Ķekavas novads, Latvia"
    },
    {
      "lon": 25.25,
      "lat": 46.25,
      "type": "hotspot_cell",
      "score": 135.927,
      "count": 319,
      "cell_deg": 0.5,
      "sources": {
        "GDELT": 319,
        "GDELT_DOC": 0,
        "DIRECT_FEED": 0,
        "USGS": 0,
        "GDACS": 0
      },
      "last7_score": 114.423,
      "prev7_score": 21.505,
      "trend": "up",
      "trend_arrow": "🔺",
      "change_pct": 432.1,
      "place": "Harghita, Romania"
    },
    {
      "lon": 21.25,
      "lat": 52.25,
      "type": "hotspot_cell",
      "score": 86.999,
      "count": 225,
      "cell_deg": 0.5,
      "sources": {
        "GDELT": 225,
        "GDELT_DOC": 0,
        "DIRECT_FEED": 0,
        "USGS": 0,
        "GDACS": 0
      },
      "last7_score": 69.247,
      "prev7_score": 17.753,
      "trend": "up",
      "trend_arrow": "🔺",
      "change_pct": 290.1,
      "place": "Warsaw, Poland"
    },
    {
      "lon": 15.25,
      "lat": 49.75,
      "type": "hotspot_cell",
      "score": 61.557,
      "count": 166,
      "cell_deg": 0.5,
      "sources": {
        "GDELT": 166,
        "GDELT_DOC": 0,
        "DIRECT_FEED": 0,
        "USGS": 0,
        "GDACS": 0
      },
      "last7_score": 49.546,
      "prev7_score": 12.011,
      "trend": "up",
      "trend_arrow": "🔺",
      "change_pct": 312.5,
      "place": "Vysočina Region, Czechia"
    }
  ]
}