{
  "generated_utc": "2026-03-07T02:04:31Z",
  "top": [
    {
      "lon": 14.25,
      "lat": 50.25,
      "type": "hotspot_cell",
      "score": 283.44,
      "count": 351,
      "cell_deg": 0.5,
      "sources": {
        "GDELT": 162,
        "GDELT_DOC": 189,
        "DIRECT_FEED": 0,
        "USGS": 0,
        "GDACS": 0
      },
      "last7_score": 272.834,
      "prev7_score": 10.606,
      "trend": "up",
      "trend_arrow": "🔺",
      "change_pct": 2472.4,
      "place": "SO ORP Kralupy nad Vltavou, Czechia"
    },
    {
      "lon": 19.25,
      "lat": 47.75,
      "type": "hotspot_cell",
      "score": 246.886,
      "count": 493,
      "cell_deg": 0.5,
      "sources": {
        "GDELT": 463,
        "GDELT_DOC": 0,
        "DIRECT_FEED": 30,
        "USGS": 0,
        "GDACS": 0
      },
      "last7_score": 212.15,
      "prev7_score": 34.736,
      "trend": "up",
      "trend_arrow": "🔺",
      "change_pct": 510.8,
      "place": "Pest, Hungary"
    },
    {
      "lon": 26.25,
      "lat": 44.25,
      "type": "hotspot_cell",
      "score": 239.439,
      "count": 328,
      "cell_deg": 0.5,
      "sources": {
        "GDELT": 182,
        "GDELT_DOC": 146,
        "DIRECT_FEED": 0,
        "USGS": 0,
        "GDACS": 0
      },
      "last7_score": 226.522,
      "prev7_score": 12.917,
      "trend": "up",
      "trend_arrow": "🔺",
      "change_pct": 1653.6,
      "place": "Giurgiu, Romania"
    },
    {
      "lon": 20.25,
      "lat": 52.25,
      "type": "hotspot_cell",
      "score": 207.601,
      "count": 538,
      "cell_deg": 0.5,
      "sources": {
        "GDELT": 538,
        "GDELT_DOC": 0,
        "DIRECT_FEED": 0,
        "USGS": 0,
        "GDACS": 0
      },
      "last7_score": 164.217,
      "prev7_score": 43.383,
      "trend": "up",
      "trend_arrow": "🔺",
      "change_pct": 278.5,
      "place": "Sochaczew County, Poland"
    },
    {
      "lon": 25.25,
      "lat": 54.75,
      "type": "hotspot_cell",
      "score": 155.747,
      "count": 183,
      "cell_deg": 0.5,
      "sources": {
        "GDELT": 73,
        "GDELT_DOC": 110,
        "DIRECT_FEED": 0,
        "USGS": 0,
        "GDACS": 0
      },
      "last7_score": 149.636,
      "prev7_score": 6.111,
      "trend": "up",
      "trend_arrow": "🔺",
      "change_pct": 2348.6,
      "place": "Vilnius County, Lithuania"
    },
    {
      "lon": 20.25,
      "lat": 47.25,
      "type": "hotspot_cell",
      "score": 139.4,
      "count": 400,
      "cell_deg": 0.5,
      "sources": {
        "GDELT": 400,
        "GDELT_DOC": 0,
        "DIRECT_FEED": 0,
        "USGS": 0,
        "GDACS": 0
      },
      "last7_score": 106.572,
      "prev7_score": 32.828,
      "trend": "up",
      "trend_arrow": "🔺",
      "change_pct": 224.6,
      "place": "Jász-Nagykun-Szolnok, Hungary"
    },
    {
      "lon": 25.25,
      "lat": 46.25,
      "type": "hotspot_cell",
      "score": 123.458,
      "count": 322,
      "cell_deg": 0.5,
      "sources": {
        "GDELT": 322,
        "GDELT_DOC": 0,
        "DIRECT_FEED": 0,
        "USGS": 0,
        "GDACS": 0
      },
      "last7_score": 99.068,
      "prev7_score": 24.39,
      "trend": "up",
      "trend_arrow": "🔺",
      "change_pct": 306.2,
      "place": "Harghita, Romania"
    },
    {
      "lon": 21.25,
      "lat": 52.25,
      "type": "hotspot_cell",
      "score": 102.962,
      "count": 240,
      "cell_deg": 0.5,
      "sources": {
        "GDELT": 240,
        "GDELT_DOC": 0,
        "DIRECT_FEED": 0,
        "USGS": 0,
        "GDACS": 0
      },
      "last7_score": 82.608,
      "prev7_score": 20.354,
      "trend": "up",
      "trend_arrow": "🔺",
      "change_pct": 305.9,
      "place": "Warsaw, Poland"
    },
    {
      "lon": 15.25,
      "lat": 49.75,
      "type": "hotspot_cell",
      "score": 68.881,
      "count": 162,
      "cell_deg": 0.5,
      "sources": {
        "GDELT": 162,
        "GDELT_DOC": 0,
        "DIRECT_FEED": 0,
        "USGS": 0,
        "GDACS": 0
      },
      "last7_score": 58.294,
      "prev7_score": 10.587,
      "trend": "up",
      "trend_arrow": "🔺",
      "change_pct": 450.6,
      "place": "Vysočina Region, Czechia"
    },
    {
      "lon": 24.25,
      "lat": 56.25,
      "type": "hotspot_cell",
      "score": 64.114,
      "count": 150,
      "cell_deg": 0.5,
      "sources": {
        "GDELT": 150,
        "GDELT_DOC": 0,
        "DIRECT_FEED": 0,
        "USGS": 0,
        "GDACS": 0
      },
      "last7_score": 52.972,
      "prev7_score": 11.142,
      "trend": "up",
      "trend_arrow": "🔺",
      "change_pct": 375.4,
      "place": "Namišių seniūnija, Lithuania"
    }
  ]
}