{
  "generated_utc": "2026-05-02T02:51:36Z",
  "top": [
    {
      "lon": 14.25,
      "lat": 50.25,
      "type": "hotspot_cell",
      "score": 834.797,
      "count": 1421,
      "cell_deg": 0.5,
      "sources": {
        "GDELT": 180,
        "GDELT_DOC": 1238,
        "DIRECT_FEED": 3,
        "USGS": 0,
        "GDACS": 0
      },
      "last7_score": 820.668,
      "prev7_score": 14.129,
      "trend": "up",
      "trend_arrow": "🔺",
      "change_pct": 5708.3,
      "place": "SO ORP Kralupy nad Vltavou, Czechia"
    },
    {
      "lon": 26.25,
      "lat": 44.25,
      "type": "hotspot_cell",
      "score": 828.923,
      "count": 1459,
      "cell_deg": 0.5,
      "sources": {
        "GDELT": 151,
        "GDELT_DOC": 1304,
        "DIRECT_FEED": 4,
        "USGS": 0,
        "GDACS": 0
      },
      "last7_score": 817.773,
      "prev7_score": 11.149,
      "trend": "up",
      "trend_arrow": "🔺",
      "change_pct": 7234.7,
      "place": "Giurgiu, Romania"
    },
    {
      "lon": 25.25,
      "lat": 54.75,
      "type": "hotspot_cell",
      "score": 572.795,
      "count": 967,
      "cell_deg": 0.5,
      "sources": {
        "GDELT": 66,
        "GDELT_DOC": 901,
        "DIRECT_FEED": 0,
        "USGS": 0,
        "GDACS": 0
      },
      "last7_score": 567.843,
      "prev7_score": 4.952,
      "trend": "up",
      "trend_arrow": "🔺",
      "change_pct": 11366.6,
      "place": "Vilnius County, Lithuania"
    },
    {
      "lon": 19.25,
      "lat": 47.75,
      "type": "hotspot_cell",
      "score": 226.216,
      "count": 543,
      "cell_deg": 0.5,
      "sources": {
        "GDELT": 352,
        "GDELT_DOC": 0,
        "DIRECT_FEED": 191,
        "USGS": 0,
        "GDACS": 0
      },
      "last7_score": 195.278,
      "prev7_score": 30.938,
      "trend": "up",
      "trend_arrow": "🔺",
      "change_pct": 531.2,
      "place": "Pest, Hungary"
    },
    {
      "lon": 20.25,
      "lat": 52.25,
      "type": "hotspot_cell",
      "score": 172.4,
      "count": 458,
      "cell_deg": 0.5,
      "sources": {
        "GDELT": 458,
        "GDELT_DOC": 0,
        "DIRECT_FEED": 0,
        "USGS": 0,
        "GDACS": 0
      },
      "last7_score": 133.98,
      "prev7_score": 38.42,
      "trend": "up",
      "trend_arrow": "🔺",
      "change_pct": 248.7,
      "place": "Sochaczew County, Poland"
    },
    {
      "lon": 20.25,
      "lat": 47.25,
      "type": "hotspot_cell",
      "score": 145.85,
      "count": 505,
      "cell_deg": 0.5,
      "sources": {
        "GDELT": 505,
        "GDELT_DOC": 0,
        "DIRECT_FEED": 0,
        "USGS": 0,
        "GDACS": 0
      },
      "last7_score": 98.832,
      "prev7_score": 47.018,
      "trend": "up",
      "trend_arrow": "🔺",
      "change_pct": 110.2,
      "place": "Jász-Nagykun-Szolnok, Hungary"
    },
    {
      "lon": 25.25,
      "lat": 46.25,
      "type": "hotspot_cell",
      "score": 141.614,
      "count": 312,
      "cell_deg": 0.5,
      "sources": {
        "GDELT": 312,
        "GDELT_DOC": 0,
        "DIRECT_FEED": 0,
        "USGS": 0,
        "GDACS": 0
      },
      "last7_score": 122.026,
      "prev7_score": 19.587,
      "trend": "up",
      "trend_arrow": "🔺",
      "change_pct": 523.0,
      "place": "Harghita, Romania"
    },
    {
      "lon": 24.25,
      "lat": 56.75,
      "type": "hotspot_cell",
      "score": 107.05,
      "count": 159,
      "cell_deg": 0.5,
      "sources": {
        "GDELT": 23,
        "GDELT_DOC": 0,
        "DIRECT_FEED": 136,
        "USGS": 0,
        "GDACS": 0
      },
      "last7_score": 105.153,
      "prev7_score": 1.897,
      "trend": "up",
      "trend_arrow": "🔺",
      "change_pct": 5443.1,
      "place": "Ķekavas novads, Latvia"
    },
    {
      "lon": 15.25,
      "lat": 49.75,
      "type": "hotspot_cell",
      "score": 90.828,
      "count": 215,
      "cell_deg": 0.5,
      "sources": {
        "GDELT": 215,
        "GDELT_DOC": 0,
        "DIRECT_FEED": 0,
        "USGS": 0,
        "GDACS": 0
      },
      "last7_score": 78.075,
      "prev7_score": 12.753,
      "trend": "up",
      "trend_arrow": "🔺",
      "change_pct": 512.2,
      "place": "Vysočina Region, Czechia"
    },
    {
      "lon": 21.25,
      "lat": 52.25,
      "type": "hotspot_cell",
      "score": 62.626,
      "count": 159,
      "cell_deg": 0.5,
      "sources": {
        "GDELT": 159,
        "GDELT_DOC": 0,
        "DIRECT_FEED": 0,
        "USGS": 0,
        "GDACS": 0
      },
      "last7_score": 51.384,
      "prev7_score": 11.243,
      "trend": "up",
      "trend_arrow": "🔺",
      "change_pct": 357.0,
      "place": "Warsaw, Poland"
    }
  ]
}