{
  "generated_utc": "2026-06-08T20:08:31Z",
  "top": [
    {
      "lon": 25.25,
      "lat": 54.75,
      "type": "hotspot_cell",
      "score": 642.283,
      "count": 1027,
      "cell_deg": 0.5,
      "sources": {
        "GDELT": 82,
        "GDELT_DOC": 943,
        "DIRECT_FEED": 2,
        "USGS": 0,
        "GDACS": 0
      },
      "last7_score": 636.465,
      "prev7_score": 5.818,
      "trend": "up",
      "trend_arrow": "🔺",
      "change_pct": 10840.3,
      "place": "Vilnius County, Lithuania"
    },
    {
      "lon": 26.25,
      "lat": 44.25,
      "type": "hotspot_cell",
      "score": 628.663,
      "count": 1215,
      "cell_deg": 0.5,
      "sources": {
        "GDELT": 261,
        "GDELT_DOC": 947,
        "DIRECT_FEED": 7,
        "USGS": 0,
        "GDACS": 0
      },
      "last7_score": 608.727,
      "prev7_score": 19.936,
      "trend": "up",
      "trend_arrow": "🔺",
      "change_pct": 2953.4,
      "place": "Giurgiu, Romania"
    },
    {
      "lon": 14.25,
      "lat": 50.25,
      "type": "hotspot_cell",
      "score": 490.242,
      "count": 916,
      "cell_deg": 0.5,
      "sources": {
        "GDELT": 121,
        "GDELT_DOC": 792,
        "DIRECT_FEED": 3,
        "USGS": 0,
        "GDACS": 0
      },
      "last7_score": 481.711,
      "prev7_score": 8.531,
      "trend": "up",
      "trend_arrow": "🔺",
      "change_pct": 5546.6,
      "place": "SO ORP Kralupy nad Vltavou, Czechia"
    },
    {
      "lon": 19.25,
      "lat": 47.75,
      "type": "hotspot_cell",
      "score": 191.39,
      "count": 434,
      "cell_deg": 0.5,
      "sources": {
        "GDELT": 261,
        "GDELT_DOC": 0,
        "DIRECT_FEED": 173,
        "USGS": 0,
        "GDACS": 0
      },
      "last7_score": 174.237,
      "prev7_score": 17.153,
      "trend": "up",
      "trend_arrow": "🔺",
      "change_pct": 915.8,
      "place": "Pest, Hungary"
    },
    {
      "lon": 25.25,
      "lat": 46.25,
      "type": "hotspot_cell",
      "score": 182.638,
      "count": 518,
      "cell_deg": 0.5,
      "sources": {
        "GDELT": 518,
        "GDELT_DOC": 0,
        "DIRECT_FEED": 0,
        "USGS": 0,
        "GDACS": 0
      },
      "last7_score": 148.986,
      "prev7_score": 33.652,
      "trend": "up",
      "trend_arrow": "🔺",
      "change_pct": 342.7,
      "place": "Harghita, Romania"
    },
    {
      "lon": 20.25,
      "lat": 52.25,
      "type": "hotspot_cell",
      "score": 165.159,
      "count": 541,
      "cell_deg": 0.5,
      "sources": {
        "GDELT": 541,
        "GDELT_DOC": 0,
        "DIRECT_FEED": 0,
        "USGS": 0,
        "GDACS": 0
      },
      "last7_score": 129.617,
      "prev7_score": 35.543,
      "trend": "up",
      "trend_arrow": "🔺",
      "change_pct": 264.7,
      "place": "Sochaczew County, Poland"
    },
    {
      "lon": 24.25,
      "lat": 56.75,
      "type": "hotspot_cell",
      "score": 106.366,
      "count": 185,
      "cell_deg": 0.5,
      "sources": {
        "GDELT": 50,
        "GDELT_DOC": 0,
        "DIRECT_FEED": 135,
        "USGS": 0,
        "GDACS": 0
      },
      "last7_score": 103.389,
      "prev7_score": 2.977,
      "trend": "up",
      "trend_arrow": "🔺",
      "change_pct": 3372.6,
      "place": "Ķekavas novads, Latvia"
    },
    {
      "lon": 20.25,
      "lat": 47.25,
      "type": "hotspot_cell",
      "score": 90.097,
      "count": 273,
      "cell_deg": 0.5,
      "sources": {
        "GDELT": 273,
        "GDELT_DOC": 0,
        "DIRECT_FEED": 0,
        "USGS": 0,
        "GDACS": 0
      },
      "last7_score": 72.149,
      "prev7_score": 17.949,
      "trend": "up",
      "trend_arrow": "🔺",
      "change_pct": 302.0,
      "place": "Jász-Nagykun-Szolnok, Hungary"
    },
    {
      "lon": 21.25,
      "lat": 52.25,
      "type": "hotspot_cell",
      "score": 72.228,
      "count": 229,
      "cell_deg": 0.5,
      "sources": {
        "GDELT": 229,
        "GDELT_DOC": 0,
        "DIRECT_FEED": 0,
        "USGS": 0,
        "GDACS": 0
      },
      "last7_score": 57.017,
      "prev7_score": 15.211,
      "trend": "up",
      "trend_arrow": "🔺",
      "change_pct": 274.8,
      "place": "Warsaw, Poland"
    },
    {
      "lon": 15.25,
      "lat": 49.75,
      "type": "hotspot_cell",
      "score": 51.246,
      "count": 163,
      "cell_deg": 0.5,
      "sources": {
        "GDELT": 163,
        "GDELT_DOC": 0,
        "DIRECT_FEED": 0,
        "USGS": 0,
        "GDACS": 0
      },
      "last7_score": 40.732,
      "prev7_score": 10.514,
      "trend": "up",
      "trend_arrow": "🔺",
      "change_pct": 287.4,
      "place": "Vysočina Region, Czechia"
    }
  ]
}