{
  "generated_utc": "2026-07-22T08:17:21Z",
  "top": [
    {
      "lon": 26.25,
      "lat": 44.25,
      "type": "hotspot_cell",
      "score": 708.572,
      "count": 1086,
      "cell_deg": 0.5,
      "sources": {
        "GDELT": 125,
        "GDELT_DOC": 956,
        "DIRECT_FEED": 5,
        "USGS": 0,
        "GDACS": 0
      },
      "last7_score": 702.467,
      "prev7_score": 6.105,
      "trend": "up",
      "trend_arrow": "🔺",
      "change_pct": 11406.8,
      "place": "Giurgiu, Romania"
    },
    {
      "lon": 14.25,
      "lat": 50.25,
      "type": "hotspot_cell",
      "score": 588.81,
      "count": 1008,
      "cell_deg": 0.5,
      "sources": {
        "GDELT": 95,
        "GDELT_DOC": 911,
        "DIRECT_FEED": 2,
        "USGS": 0,
        "GDACS": 0
      },
      "last7_score": 580.879,
      "prev7_score": 7.931,
      "trend": "up",
      "trend_arrow": "🔺",
      "change_pct": 7224.6,
      "place": "SO ORP Kralupy nad Vltavou, Czechia"
    },
    {
      "lon": 25.25,
      "lat": 54.75,
      "type": "hotspot_cell",
      "score": 427.288,
      "count": 721,
      "cell_deg": 0.5,
      "sources": {
        "GDELT": 68,
        "GDELT_DOC": 653,
        "DIRECT_FEED": 0,
        "USGS": 0,
        "GDACS": 0
      },
      "last7_score": 421.168,
      "prev7_score": 6.119,
      "trend": "up",
      "trend_arrow": "🔺",
      "change_pct": 6782.5,
      "place": "Vilnius County, Lithuania"
    },
    {
      "lon": 25.25,
      "lat": 46.25,
      "type": "hotspot_cell",
      "score": 188.518,
      "count": 441,
      "cell_deg": 0.5,
      "sources": {
        "GDELT": 441,
        "GDELT_DOC": 0,
        "DIRECT_FEED": 0,
        "USGS": 0,
        "GDACS": 0
      },
      "last7_score": 156.666,
      "prev7_score": 31.852,
      "trend": "up",
      "trend_arrow": "🔺",
      "change_pct": 391.9,
      "place": "Harghita, Romania"
    },
    {
      "lon": 19.25,
      "lat": 47.75,
      "type": "hotspot_cell",
      "score": 183.077,
      "count": 361,
      "cell_deg": 0.5,
      "sources": {
        "GDELT": 184,
        "GDELT_DOC": 0,
        "DIRECT_FEED": 177,
        "USGS": 0,
        "GDACS": 0
      },
      "last7_score": 169.826,
      "prev7_score": 13.251,
      "trend": "up",
      "trend_arrow": "🔺",
      "change_pct": 1181.6,
      "place": "Pest, Hungary"
    },
    {
      "lon": 20.25,
      "lat": 52.25,
      "type": "hotspot_cell",
      "score": 153.522,
      "count": 403,
      "cell_deg": 0.5,
      "sources": {
        "GDELT": 403,
        "GDELT_DOC": 0,
        "DIRECT_FEED": 0,
        "USGS": 0,
        "GDACS": 0
      },
      "last7_score": 119.683,
      "prev7_score": 33.839,
      "trend": "up",
      "trend_arrow": "🔺",
      "change_pct": 253.7,
      "place": "Sochaczew County, Poland"
    },
    {
      "lon": 24.25,
      "lat": 56.75,
      "type": "hotspot_cell",
      "score": 106.149,
      "count": 152,
      "cell_deg": 0.5,
      "sources": {
        "GDELT": 18,
        "GDELT_DOC": 0,
        "DIRECT_FEED": 134,
        "USGS": 0,
        "GDACS": 0
      },
      "last7_score": 104.805,
      "prev7_score": 1.344,
      "trend": "up",
      "trend_arrow": "🔺",
      "change_pct": 7700.4,
      "place": "Ķekavas novads, Latvia"
    },
    {
      "lon": 21.25,
      "lat": 52.25,
      "type": "hotspot_cell",
      "score": 60.385,
      "count": 194,
      "cell_deg": 0.5,
      "sources": {
        "GDELT": 194,
        "GDELT_DOC": 0,
        "DIRECT_FEED": 0,
        "USGS": 0,
        "GDACS": 0
      },
      "last7_score": 41.569,
      "prev7_score": 18.816,
      "trend": "up",
      "trend_arrow": "🔺",
      "change_pct": 120.9,
      "place": "Warsaw, Poland"
    },
    {
      "lon": 20.25,
      "lat": 47.25,
      "type": "hotspot_cell",
      "score": 57.972,
      "count": 176,
      "cell_deg": 0.5,
      "sources": {
        "GDELT": 176,
        "GDELT_DOC": 0,
        "DIRECT_FEED": 0,
        "USGS": 0,
        "GDACS": 0
      },
      "last7_score": 44.449,
      "prev7_score": 13.524,
      "trend": "up",
      "trend_arrow": "🔺",
      "change_pct": 228.7,
      "place": "Jász-Nagykun-Szolnok, Hungary"
    },
    {
      "lon": 27.75,
      "lat": 47.25,
      "type": "hotspot_cell",
      "score": 56.6,
      "count": 72,
      "cell_deg": 0.5,
      "sources": {
        "GDELT": 0,
        "GDELT_DOC": 72,
        "DIRECT_FEED": 0,
        "USGS": 0,
        "GDACS": 0
      },
      "last7_score": 56.6,
      "prev7_score": 0.0,
      "trend": "new",
      "trend_arrow": "🆕",
      "change_pct": null,
      "place": "Iași, Romania"
    }
  ]
}