{
  "generated_utc": "2026-03-27T02:33:19Z",
  "top": [
    {
      "lon": 14.25,
      "lat": 50.25,
      "type": "hotspot_cell",
      "score": 934.721,
      "count": 1436,
      "cell_deg": 0.5,
      "sources": {
        "GDELT": 113,
        "GDELT_DOC": 1320,
        "DIRECT_FEED": 3,
        "USGS": 0,
        "GDACS": 0
      },
      "last7_score": 924.282,
      "prev7_score": 10.439,
      "trend": "up",
      "trend_arrow": "🔺",
      "change_pct": 8754.2,
      "place": "SO ORP Kralupy nad Vltavou, Czechia"
    },
    {
      "lon": 26.25,
      "lat": 44.25,
      "type": "hotspot_cell",
      "score": 742.085,
      "count": 1175,
      "cell_deg": 0.5,
      "sources": {
        "GDELT": 147,
        "GDELT_DOC": 1026,
        "DIRECT_FEED": 2,
        "USGS": 0,
        "GDACS": 0
      },
      "last7_score": 730.152,
      "prev7_score": 11.934,
      "trend": "up",
      "trend_arrow": "🔺",
      "change_pct": 6018.5,
      "place": "Giurgiu, Romania"
    },
    {
      "lon": 25.25,
      "lat": 54.75,
      "type": "hotspot_cell",
      "score": 589.667,
      "count": 971,
      "cell_deg": 0.5,
      "sources": {
        "GDELT": 79,
        "GDELT_DOC": 892,
        "DIRECT_FEED": 0,
        "USGS": 0,
        "GDACS": 0
      },
      "last7_score": 580.88,
      "prev7_score": 8.786,
      "trend": "up",
      "trend_arrow": "🔺",
      "change_pct": 6511.1,
      "place": "Vilnius County, Lithuania"
    },
    {
      "lon": 19.25,
      "lat": 47.75,
      "type": "hotspot_cell",
      "score": 279.795,
      "count": 550,
      "cell_deg": 0.5,
      "sources": {
        "GDELT": 336,
        "GDELT_DOC": 0,
        "DIRECT_FEED": 214,
        "USGS": 0,
        "GDACS": 0
      },
      "last7_score": 247.985,
      "prev7_score": 31.81,
      "trend": "up",
      "trend_arrow": "🔺",
      "change_pct": 679.6,
      "place": "Pest, Hungary"
    },
    {
      "lon": 20.25,
      "lat": 52.25,
      "type": "hotspot_cell",
      "score": 154.04,
      "count": 395,
      "cell_deg": 0.5,
      "sources": {
        "GDELT": 395,
        "GDELT_DOC": 0,
        "DIRECT_FEED": 0,
        "USGS": 0,
        "GDACS": 0
      },
      "last7_score": 116.362,
      "prev7_score": 37.678,
      "trend": "up",
      "trend_arrow": "🔺",
      "change_pct": 208.8,
      "place": "Sochaczew County, Poland"
    },
    {
      "lon": 24.25,
      "lat": 56.75,
      "type": "hotspot_cell",
      "score": 145.015,
      "count": 197,
      "cell_deg": 0.5,
      "sources": {
        "GDELT": 42,
        "GDELT_DOC": 0,
        "DIRECT_FEED": 155,
        "USGS": 0,
        "GDACS": 0
      },
      "last7_score": 141.916,
      "prev7_score": 3.099,
      "trend": "up",
      "trend_arrow": "🔺",
      "change_pct": 4478.7,
      "place": "Ķekavas novads, Latvia"
    },
    {
      "lon": 20.25,
      "lat": 47.25,
      "type": "hotspot_cell",
      "score": 144.006,
      "count": 381,
      "cell_deg": 0.5,
      "sources": {
        "GDELT": 381,
        "GDELT_DOC": 0,
        "DIRECT_FEED": 0,
        "USGS": 0,
        "GDACS": 0
      },
      "last7_score": 105.9,
      "prev7_score": 38.106,
      "trend": "up",
      "trend_arrow": "🔺",
      "change_pct": 177.9,
      "place": "Jász-Nagykun-Szolnok, Hungary"
    },
    {
      "lon": 25.25,
      "lat": 46.25,
      "type": "hotspot_cell",
      "score": 140.218,
      "count": 312,
      "cell_deg": 0.5,
      "sources": {
        "GDELT": 312,
        "GDELT_DOC": 0,
        "DIRECT_FEED": 0,
        "USGS": 0,
        "GDACS": 0
      },
      "last7_score": 114.184,
      "prev7_score": 26.034,
      "trend": "up",
      "trend_arrow": "🔺",
      "change_pct": 338.6,
      "place": "Harghita, Romania"
    },
    {
      "lon": 22.25,
      "lat": 55.25,
      "type": "hotspot_cell",
      "score": 67.013,
      "count": 72,
      "cell_deg": 0.5,
      "sources": {
        "GDELT": 0,
        "GDELT_DOC": 71,
        "DIRECT_FEED": 1,
        "USGS": 0,
        "GDACS": 0
      },
      "last7_score": 67.013,
      "prev7_score": 0.0,
      "trend": "new",
      "trend_arrow": "🆕",
      "change_pct": null,
      "place": "Tauragės seniūnija, Lithuania"
    },
    {
      "lon": 27.75,
      "lat": 47.25,
      "type": "hotspot_cell",
      "score": 66.553,
      "count": 95,
      "cell_deg": 0.5,
      "sources": {
        "GDELT": 0,
        "GDELT_DOC": 95,
        "DIRECT_FEED": 0,
        "USGS": 0,
        "GDACS": 0
      },
      "last7_score": 66.553,
      "prev7_score": 0.0,
      "trend": "new",
      "trend_arrow": "🆕",
      "change_pct": null,
      "place": "Iași, Romania"
    }
  ]
}