{
  "generated_utc": "2026-04-06T07:49:41Z",
  "top": [
    {
      "lon": 26.25,
      "lat": 44.25,
      "type": "hotspot_cell",
      "score": 721.142,
      "count": 1337,
      "cell_deg": 0.5,
      "sources": {
        "GDELT": 154,
        "GDELT_DOC": 1178,
        "DIRECT_FEED": 5,
        "USGS": 0,
        "GDACS": 0
      },
      "last7_score": 712.987,
      "prev7_score": 8.155,
      "trend": "up",
      "trend_arrow": "🔺",
      "change_pct": 8643.0,
      "place": "Giurgiu, Romania"
    },
    {
      "lon": 14.25,
      "lat": 50.25,
      "type": "hotspot_cell",
      "score": 659.083,
      "count": 1338,
      "cell_deg": 0.5,
      "sources": {
        "GDELT": 109,
        "GDELT_DOC": 1227,
        "DIRECT_FEED": 2,
        "USGS": 0,
        "GDACS": 0
      },
      "last7_score": 650.742,
      "prev7_score": 8.341,
      "trend": "up",
      "trend_arrow": "🔺",
      "change_pct": 7701.8,
      "place": "SO ORP Kralupy nad Vltavou, Czechia"
    },
    {
      "lon": 25.25,
      "lat": 54.75,
      "type": "hotspot_cell",
      "score": 464.848,
      "count": 947,
      "cell_deg": 0.5,
      "sources": {
        "GDELT": 81,
        "GDELT_DOC": 866,
        "DIRECT_FEED": 0,
        "USGS": 0,
        "GDACS": 0
      },
      "last7_score": 458.447,
      "prev7_score": 6.401,
      "trend": "up",
      "trend_arrow": "🔺",
      "change_pct": 7062.2,
      "place": "Vilnius County, Lithuania"
    },
    {
      "lon": 19.25,
      "lat": 47.75,
      "type": "hotspot_cell",
      "score": 224.914,
      "count": 481,
      "cell_deg": 0.5,
      "sources": {
        "GDELT": 265,
        "GDELT_DOC": 0,
        "DIRECT_FEED": 216,
        "USGS": 0,
        "GDACS": 0
      },
      "last7_score": 207.892,
      "prev7_score": 17.022,
      "trend": "up",
      "trend_arrow": "🔺",
      "change_pct": 1121.3,
      "place": "Pest, Hungary"
    },
    {
      "lon": 20.25,
      "lat": 52.25,
      "type": "hotspot_cell",
      "score": 135.436,
      "count": 448,
      "cell_deg": 0.5,
      "sources": {
        "GDELT": 448,
        "GDELT_DOC": 0,
        "DIRECT_FEED": 0,
        "USGS": 0,
        "GDACS": 0
      },
      "last7_score": 100.804,
      "prev7_score": 34.632,
      "trend": "up",
      "trend_arrow": "🔺",
      "change_pct": 191.1,
      "place": "Sochaczew County, Poland"
    },
    {
      "lon": 20.25,
      "lat": 47.25,
      "type": "hotspot_cell",
      "score": 110.729,
      "count": 302,
      "cell_deg": 0.5,
      "sources": {
        "GDELT": 302,
        "GDELT_DOC": 0,
        "DIRECT_FEED": 0,
        "USGS": 0,
        "GDACS": 0
      },
      "last7_score": 91.906,
      "prev7_score": 18.823,
      "trend": "up",
      "trend_arrow": "🔺",
      "change_pct": 388.3,
      "place": "Jász-Nagykun-Szolnok, Hungary"
    },
    {
      "lon": 24.25,
      "lat": 56.75,
      "type": "hotspot_cell",
      "score": 93.711,
      "count": 171,
      "cell_deg": 0.5,
      "sources": {
        "GDELT": 39,
        "GDELT_DOC": 0,
        "DIRECT_FEED": 132,
        "USGS": 0,
        "GDACS": 0
      },
      "last7_score": 89.7,
      "prev7_score": 4.011,
      "trend": "up",
      "trend_arrow": "🔺",
      "change_pct": 2136.4,
      "place": "Ķekavas novads, Latvia"
    },
    {
      "lon": 25.25,
      "lat": 46.25,
      "type": "hotspot_cell",
      "score": 81.738,
      "count": 282,
      "cell_deg": 0.5,
      "sources": {
        "GDELT": 282,
        "GDELT_DOC": 0,
        "DIRECT_FEED": 0,
        "USGS": 0,
        "GDACS": 0
      },
      "last7_score": 62.695,
      "prev7_score": 19.044,
      "trend": "up",
      "trend_arrow": "🔺",
      "change_pct": 229.2,
      "place": "Harghita, Romania"
    },
    {
      "lon": 27.75,
      "lat": 47.25,
      "type": "hotspot_cell",
      "score": 39.957,
      "count": 80,
      "cell_deg": 0.5,
      "sources": {
        "GDELT": 0,
        "GDELT_DOC": 80,
        "DIRECT_FEED": 0,
        "USGS": 0,
        "GDACS": 0
      },
      "last7_score": 39.957,
      "prev7_score": 0.0,
      "trend": "new",
      "trend_arrow": "🆕",
      "change_pct": null,
      "place": "Iași, Romania"
    },
    {
      "lon": 21.25,
      "lat": 52.25,
      "type": "hotspot_cell",
      "score": 35.572,
      "count": 122,
      "cell_deg": 0.5,
      "sources": {
        "GDELT": 122,
        "GDELT_DOC": 0,
        "DIRECT_FEED": 0,
        "USGS": 0,
        "GDACS": 0
      },
      "last7_score": 27.605,
      "prev7_score": 7.967,
      "trend": "up",
      "trend_arrow": "🔺",
      "change_pct": 246.5,
      "place": "Warsaw, Poland"
    }
  ]
}