{
  "generated_utc": "2026-03-20T18:58:51Z",
  "top": [
    {
      "lon": 14.25,
      "lat": 50.25,
      "type": "hotspot_cell",
      "score": 897.193,
      "count": 1411,
      "cell_deg": 0.5,
      "sources": {
        "GDELT": 116,
        "GDELT_DOC": 1294,
        "DIRECT_FEED": 1,
        "USGS": 0,
        "GDACS": 0
      },
      "last7_score": 890.341,
      "prev7_score": 6.851,
      "trend": "up",
      "trend_arrow": "🔺",
      "change_pct": 12895.1,
      "place": "SO ORP Kralupy nad Vltavou, Czechia"
    },
    {
      "lon": 26.25,
      "lat": 44.25,
      "type": "hotspot_cell",
      "score": 772.296,
      "count": 1350,
      "cell_deg": 0.5,
      "sources": {
        "GDELT": 183,
        "GDELT_DOC": 1167,
        "DIRECT_FEED": 0,
        "USGS": 0,
        "GDACS": 0
      },
      "last7_score": 756.399,
      "prev7_score": 15.897,
      "trend": "up",
      "trend_arrow": "🔺",
      "change_pct": 4658.1,
      "place": "Giurgiu, Romania"
    },
    {
      "lon": 25.25,
      "lat": 54.75,
      "type": "hotspot_cell",
      "score": 529.83,
      "count": 839,
      "cell_deg": 0.5,
      "sources": {
        "GDELT": 87,
        "GDELT_DOC": 752,
        "DIRECT_FEED": 0,
        "USGS": 0,
        "GDACS": 0
      },
      "last7_score": 523.819,
      "prev7_score": 6.011,
      "trend": "up",
      "trend_arrow": "🔺",
      "change_pct": 8615.0,
      "place": "Vilnius County, Lithuania"
    },
    {
      "lon": 19.25,
      "lat": 47.75,
      "type": "hotspot_cell",
      "score": 322.466,
      "count": 614,
      "cell_deg": 0.5,
      "sources": {
        "GDELT": 393,
        "GDELT_DOC": 0,
        "DIRECT_FEED": 221,
        "USGS": 0,
        "GDACS": 0
      },
      "last7_score": 297.201,
      "prev7_score": 25.264,
      "trend": "up",
      "trend_arrow": "🔺",
      "change_pct": 1076.4,
      "place": "Pest, Hungary"
    },
    {
      "lon": 20.25,
      "lat": 47.25,
      "type": "hotspot_cell",
      "score": 183.878,
      "count": 419,
      "cell_deg": 0.5,
      "sources": {
        "GDELT": 419,
        "GDELT_DOC": 0,
        "DIRECT_FEED": 0,
        "USGS": 0,
        "GDACS": 0
      },
      "last7_score": 157.24,
      "prev7_score": 26.638,
      "trend": "up",
      "trend_arrow": "🔺",
      "change_pct": 490.3,
      "place": "Jász-Nagykun-Szolnok, Hungary"
    },
    {
      "lon": 20.25,
      "lat": 52.25,
      "type": "hotspot_cell",
      "score": 180.433,
      "count": 433,
      "cell_deg": 0.5,
      "sources": {
        "GDELT": 433,
        "GDELT_DOC": 0,
        "DIRECT_FEED": 0,
        "USGS": 0,
        "GDACS": 0
      },
      "last7_score": 152.043,
      "prev7_score": 28.39,
      "trend": "up",
      "trend_arrow": "🔺",
      "change_pct": 435.6,
      "place": "Sochaczew County, Poland"
    },
    {
      "lon": 25.25,
      "lat": 46.25,
      "type": "hotspot_cell",
      "score": 132.338,
      "count": 321,
      "cell_deg": 0.5,
      "sources": {
        "GDELT": 321,
        "GDELT_DOC": 0,
        "DIRECT_FEED": 0,
        "USGS": 0,
        "GDACS": 0
      },
      "last7_score": 108.767,
      "prev7_score": 23.571,
      "trend": "up",
      "trend_arrow": "🔺",
      "change_pct": 361.4,
      "place": "Harghita, Romania"
    },
    {
      "lon": 24.25,
      "lat": 56.75,
      "type": "hotspot_cell",
      "score": 117.059,
      "count": 164,
      "cell_deg": 0.5,
      "sources": {
        "GDELT": 36,
        "GDELT_DOC": 0,
        "DIRECT_FEED": 128,
        "USGS": 0,
        "GDACS": 0
      },
      "last7_score": 114.498,
      "prev7_score": 2.561,
      "trend": "up",
      "trend_arrow": "🔺",
      "change_pct": 4370.4,
      "place": "Ķekavas novads, Latvia"
    },
    {
      "lon": 15.25,
      "lat": 49.75,
      "type": "hotspot_cell",
      "score": 78.48,
      "count": 170,
      "cell_deg": 0.5,
      "sources": {
        "GDELT": 170,
        "GDELT_DOC": 0,
        "DIRECT_FEED": 0,
        "USGS": 0,
        "GDACS": 0
      },
      "last7_score": 68.667,
      "prev7_score": 9.813,
      "trend": "up",
      "trend_arrow": "🔺",
      "change_pct": 599.8,
      "place": "Vysočina Region, Czechia"
    },
    {
      "lon": 21.25,
      "lat": 52.25,
      "type": "hotspot_cell",
      "score": 69.638,
      "count": 189,
      "cell_deg": 0.5,
      "sources": {
        "GDELT": 189,
        "GDELT_DOC": 0,
        "DIRECT_FEED": 0,
        "USGS": 0,
        "GDACS": 0
      },
      "last7_score": 55.473,
      "prev7_score": 14.166,
      "trend": "up",
      "trend_arrow": "🔺",
      "change_pct": 291.6,
      "place": "Warsaw, Poland"
    }
  ]
}