{
  "generated_utc": "2026-05-21T20:04:35Z",
  "top": [
    {
      "lon": 26.25,
      "lat": 44.25,
      "type": "hotspot_cell",
      "score": 973.664,
      "count": 1541,
      "cell_deg": 0.5,
      "sources": {
        "GDELT": 196,
        "GDELT_DOC": 1341,
        "DIRECT_FEED": 4,
        "USGS": 0,
        "GDACS": 0
      },
      "last7_score": 951.886,
      "prev7_score": 21.777,
      "trend": "up",
      "trend_arrow": "🔺",
      "change_pct": 4271.0,
      "place": "Giurgiu, Romania"
    },
    {
      "lon": 14.25,
      "lat": 50.25,
      "type": "hotspot_cell",
      "score": 899.811,
      "count": 1470,
      "cell_deg": 0.5,
      "sources": {
        "GDELT": 121,
        "GDELT_DOC": 1338,
        "DIRECT_FEED": 11,
        "USGS": 0,
        "GDACS": 0
      },
      "last7_score": 891.979,
      "prev7_score": 7.832,
      "trend": "up",
      "trend_arrow": "🔺",
      "change_pct": 11288.9,
      "place": "SO ORP Kralupy nad Vltavou, Czechia"
    },
    {
      "lon": 25.25,
      "lat": 54.75,
      "type": "hotspot_cell",
      "score": 657.228,
      "count": 1061,
      "cell_deg": 0.5,
      "sources": {
        "GDELT": 106,
        "GDELT_DOC": 954,
        "DIRECT_FEED": 1,
        "USGS": 0,
        "GDACS": 0
      },
      "last7_score": 651.285,
      "prev7_score": 5.943,
      "trend": "up",
      "trend_arrow": "🔺",
      "change_pct": 10858.2,
      "place": "Vilnius County, Lithuania"
    },
    {
      "lon": 20.25,
      "lat": 52.25,
      "type": "hotspot_cell",
      "score": 282.233,
      "count": 630,
      "cell_deg": 0.5,
      "sources": {
        "GDELT": 630,
        "GDELT_DOC": 0,
        "DIRECT_FEED": 0,
        "USGS": 0,
        "GDACS": 0
      },
      "last7_score": 247.327,
      "prev7_score": 34.906,
      "trend": "up",
      "trend_arrow": "🔺",
      "change_pct": 608.6,
      "place": "Sochaczew County, Poland"
    },
    {
      "lon": 19.25,
      "lat": 47.75,
      "type": "hotspot_cell",
      "score": 264.625,
      "count": 524,
      "cell_deg": 0.5,
      "sources": {
        "GDELT": 298,
        "GDELT_DOC": 0,
        "DIRECT_FEED": 226,
        "USGS": 0,
        "GDACS": 0
      },
      "last7_score": 240.909,
      "prev7_score": 23.715,
      "trend": "up",
      "trend_arrow": "🔺",
      "change_pct": 915.8,
      "place": "Pest, Hungary"
    },
    {
      "lon": 25.25,
      "lat": 46.25,
      "type": "hotspot_cell",
      "score": 132.366,
      "count": 302,
      "cell_deg": 0.5,
      "sources": {
        "GDELT": 302,
        "GDELT_DOC": 0,
        "DIRECT_FEED": 0,
        "USGS": 0,
        "GDACS": 0
      },
      "last7_score": 113.364,
      "prev7_score": 19.002,
      "trend": "up",
      "trend_arrow": "🔺",
      "change_pct": 496.6,
      "place": "Harghita, Romania"
    },
    {
      "lon": 24.25,
      "lat": 56.75,
      "type": "hotspot_cell",
      "score": 124.05,
      "count": 179,
      "cell_deg": 0.5,
      "sources": {
        "GDELT": 46,
        "GDELT_DOC": 0,
        "DIRECT_FEED": 133,
        "USGS": 0,
        "GDACS": 0
      },
      "last7_score": 121.342,
      "prev7_score": 2.708,
      "trend": "up",
      "trend_arrow": "🔺",
      "change_pct": 4380.5,
      "place": "Ķekavas novads, Latvia"
    },
    {
      "lon": 21.25,
      "lat": 52.25,
      "type": "hotspot_cell",
      "score": 109.489,
      "count": 256,
      "cell_deg": 0.5,
      "sources": {
        "GDELT": 256,
        "GDELT_DOC": 0,
        "DIRECT_FEED": 0,
        "USGS": 0,
        "GDACS": 0
      },
      "last7_score": 95.432,
      "prev7_score": 14.056,
      "trend": "up",
      "trend_arrow": "🔺",
      "change_pct": 578.9,
      "place": "Warsaw, Poland"
    },
    {
      "lon": 20.25,
      "lat": 47.25,
      "type": "hotspot_cell",
      "score": 103.971,
      "count": 296,
      "cell_deg": 0.5,
      "sources": {
        "GDELT": 296,
        "GDELT_DOC": 0,
        "DIRECT_FEED": 0,
        "USGS": 0,
        "GDACS": 0
      },
      "last7_score": 81.104,
      "prev7_score": 22.867,
      "trend": "up",
      "trend_arrow": "🔺",
      "change_pct": 254.7,
      "place": "Jász-Nagykun-Szolnok, Hungary"
    },
    {
      "lon": 26.25,
      "lat": 59.25,
      "type": "hotspot_cell",
      "score": 79.651,
      "count": 147,
      "cell_deg": 0.5,
      "sources": {
        "GDELT": 147,
        "GDELT_DOC": 0,
        "DIRECT_FEED": 0,
        "USGS": 0,
        "GDACS": 0
      },
      "last7_score": 71.759,
      "prev7_score": 7.892,
      "trend": "up",
      "trend_arrow": "🔺",
      "change_pct": 809.3,
      "place": "Lääne-Viru County, Estonia"
    }
  ]
}