{
  "generated_utc": "2026-05-02T13:19:06Z",
  "top": [
    {
      "lon": 26.25,
      "lat": 44.25,
      "type": "hotspot_cell",
      "score": 884.008,
      "count": 1459,
      "cell_deg": 0.5,
      "sources": {
        "GDELT": 152,
        "GDELT_DOC": 1304,
        "DIRECT_FEED": 3,
        "USGS": 0,
        "GDACS": 0
      },
      "last7_score": 873.926,
      "prev7_score": 10.082,
      "trend": "up",
      "trend_arrow": "🔺",
      "change_pct": 8568.6,
      "place": "Giurgiu, Romania"
    },
    {
      "lon": 14.25,
      "lat": 50.25,
      "type": "hotspot_cell",
      "score": 767.613,
      "count": 1353,
      "cell_deg": 0.5,
      "sources": {
        "GDELT": 186,
        "GDELT_DOC": 1164,
        "DIRECT_FEED": 3,
        "USGS": 0,
        "GDACS": 0
      },
      "last7_score": 754.837,
      "prev7_score": 12.776,
      "trend": "up",
      "trend_arrow": "🔺",
      "change_pct": 5808.3,
      "place": "SO ORP Kralupy nad Vltavou, Czechia"
    },
    {
      "lon": 25.25,
      "lat": 54.75,
      "type": "hotspot_cell",
      "score": 609.647,
      "count": 985,
      "cell_deg": 0.5,
      "sources": {
        "GDELT": 66,
        "GDELT_DOC": 919,
        "DIRECT_FEED": 0,
        "USGS": 0,
        "GDACS": 0
      },
      "last7_score": 605.169,
      "prev7_score": 4.478,
      "trend": "up",
      "trend_arrow": "🔺",
      "change_pct": 13414.7,
      "place": "Vilnius County, Lithuania"
    },
    {
      "lon": 19.25,
      "lat": 47.75,
      "type": "hotspot_cell",
      "score": 218.873,
      "count": 547,
      "cell_deg": 0.5,
      "sources": {
        "GDELT": 355,
        "GDELT_DOC": 0,
        "DIRECT_FEED": 192,
        "USGS": 0,
        "GDACS": 0
      },
      "last7_score": 190.899,
      "prev7_score": 27.974,
      "trend": "up",
      "trend_arrow": "🔺",
      "change_pct": 582.4,
      "place": "Pest, Hungary"
    },
    {
      "lon": 20.25,
      "lat": 52.25,
      "type": "hotspot_cell",
      "score": 174.071,
      "count": 473,
      "cell_deg": 0.5,
      "sources": {
        "GDELT": 473,
        "GDELT_DOC": 0,
        "DIRECT_FEED": 0,
        "USGS": 0,
        "GDACS": 0
      },
      "last7_score": 139.33,
      "prev7_score": 34.74,
      "trend": "up",
      "trend_arrow": "🔺",
      "change_pct": 301.1,
      "place": "Sochaczew County, Poland"
    },
    {
      "lon": 20.25,
      "lat": 47.25,
      "type": "hotspot_cell",
      "score": 136.569,
      "count": 509,
      "cell_deg": 0.5,
      "sources": {
        "GDELT": 509,
        "GDELT_DOC": 0,
        "DIRECT_FEED": 0,
        "USGS": 0,
        "GDACS": 0
      },
      "last7_score": 94.055,
      "prev7_score": 42.514,
      "trend": "up",
      "trend_arrow": "🔺",
      "change_pct": 121.2,
      "place": "Jász-Nagykun-Szolnok, Hungary"
    },
    {
      "lon": 25.25,
      "lat": 46.25,
      "type": "hotspot_cell",
      "score": 132.738,
      "count": 316,
      "cell_deg": 0.5,
      "sources": {
        "GDELT": 316,
        "GDELT_DOC": 0,
        "DIRECT_FEED": 0,
        "USGS": 0,
        "GDACS": 0
      },
      "last7_score": 115.027,
      "prev7_score": 17.711,
      "trend": "up",
      "trend_arrow": "🔺",
      "change_pct": 549.5,
      "place": "Harghita, Romania"
    },
    {
      "lon": 24.25,
      "lat": 56.75,
      "type": "hotspot_cell",
      "score": 104.248,
      "count": 160,
      "cell_deg": 0.5,
      "sources": {
        "GDELT": 24,
        "GDELT_DOC": 0,
        "DIRECT_FEED": 136,
        "USGS": 0,
        "GDACS": 0
      },
      "last7_score": 102.532,
      "prev7_score": 1.715,
      "trend": "up",
      "trend_arrow": "🔺",
      "change_pct": 5877.5,
      "place": "Ķekavas novads, Latvia"
    },
    {
      "lon": 15.25,
      "lat": 49.75,
      "type": "hotspot_cell",
      "score": 86.703,
      "count": 219,
      "cell_deg": 0.5,
      "sources": {
        "GDELT": 219,
        "GDELT_DOC": 0,
        "DIRECT_FEED": 0,
        "USGS": 0,
        "GDACS": 0
      },
      "last7_score": 75.171,
      "prev7_score": 11.532,
      "trend": "up",
      "trend_arrow": "🔺",
      "change_pct": 551.9,
      "place": "Vysočina Region, Czechia"
    },
    {
      "lon": 21.25,
      "lat": 52.25,
      "type": "hotspot_cell",
      "score": 57.772,
      "count": 160,
      "cell_deg": 0.5,
      "sources": {
        "GDELT": 160,
        "GDELT_DOC": 0,
        "DIRECT_FEED": 0,
        "USGS": 0,
        "GDACS": 0
      },
      "last7_score": 47.606,
      "prev7_score": 10.166,
      "trend": "up",
      "trend_arrow": "🔺",
      "change_pct": 368.3,
      "place": "Warsaw, Poland"
    }
  ]
}