{
  "generated_utc": "2026-03-24T07:10:54Z",
  "top": [
    {
      "lon": 14.25,
      "lat": 50.25,
      "type": "hotspot_cell",
      "score": 697.217,
      "count": 1287,
      "cell_deg": 0.5,
      "sources": {
        "GDELT": 110,
        "GDELT_DOC": 1174,
        "DIRECT_FEED": 3,
        "USGS": 0,
        "GDACS": 0
      },
      "last7_score": 688.758,
      "prev7_score": 8.459,
      "trend": "up",
      "trend_arrow": "🔺",
      "change_pct": 8042.4,
      "place": "SO ORP Kralupy nad Vltavou, Czechia"
    },
    {
      "lon": 26.25,
      "lat": 44.25,
      "type": "hotspot_cell",
      "score": 693.53,
      "count": 1277,
      "cell_deg": 0.5,
      "sources": {
        "GDELT": 179,
        "GDELT_DOC": 1098,
        "DIRECT_FEED": 0,
        "USGS": 0,
        "GDACS": 0
      },
      "last7_score": 678.545,
      "prev7_score": 14.985,
      "trend": "up",
      "trend_arrow": "🔺",
      "change_pct": 4428.2,
      "place": "Giurgiu, Romania"
    },
    {
      "lon": 25.25,
      "lat": 54.75,
      "type": "hotspot_cell",
      "score": 487.644,
      "count": 890,
      "cell_deg": 0.5,
      "sources": {
        "GDELT": 82,
        "GDELT_DOC": 808,
        "DIRECT_FEED": 0,
        "USGS": 0,
        "GDACS": 0
      },
      "last7_score": 482.586,
      "prev7_score": 5.058,
      "trend": "up",
      "trend_arrow": "🔺",
      "change_pct": 9440.9,
      "place": "Vilnius County, Lithuania"
    },
    {
      "lon": 19.25,
      "lat": 47.75,
      "type": "hotspot_cell",
      "score": 263.311,
      "count": 573,
      "cell_deg": 0.5,
      "sources": {
        "GDELT": 352,
        "GDELT_DOC": 0,
        "DIRECT_FEED": 221,
        "USGS": 0,
        "GDACS": 0
      },
      "last7_score": 235.617,
      "prev7_score": 27.694,
      "trend": "up",
      "trend_arrow": "🔺",
      "change_pct": 750.8,
      "place": "Pest, Hungary"
    },
    {
      "lon": 20.25,
      "lat": 47.25,
      "type": "hotspot_cell",
      "score": 141.261,
      "count": 396,
      "cell_deg": 0.5,
      "sources": {
        "GDELT": 396,
        "GDELT_DOC": 0,
        "DIRECT_FEED": 0,
        "USGS": 0,
        "GDACS": 0
      },
      "last7_score": 111.899,
      "prev7_score": 29.362,
      "trend": "up",
      "trend_arrow": "🔺",
      "change_pct": 281.1,
      "place": "Jász-Nagykun-Szolnok, Hungary"
    },
    {
      "lon": 20.25,
      "lat": 52.25,
      "type": "hotspot_cell",
      "score": 140.369,
      "count": 399,
      "cell_deg": 0.5,
      "sources": {
        "GDELT": 399,
        "GDELT_DOC": 0,
        "DIRECT_FEED": 0,
        "USGS": 0,
        "GDACS": 0
      },
      "last7_score": 109.243,
      "prev7_score": 31.126,
      "trend": "up",
      "trend_arrow": "🔺",
      "change_pct": 251.0,
      "place": "Sochaczew County, Poland"
    },
    {
      "lon": 24.25,
      "lat": 56.75,
      "type": "hotspot_cell",
      "score": 105.867,
      "count": 170,
      "cell_deg": 0.5,
      "sources": {
        "GDELT": 34,
        "GDELT_DOC": 0,
        "DIRECT_FEED": 136,
        "USGS": 0,
        "GDACS": 0
      },
      "last7_score": 102.827,
      "prev7_score": 3.039,
      "trend": "up",
      "trend_arrow": "🔺",
      "change_pct": 3283.2,
      "place": "Ķekavas novads, Latvia"
    },
    {
      "lon": 25.25,
      "lat": 46.25,
      "type": "hotspot_cell",
      "score": 102.019,
      "count": 304,
      "cell_deg": 0.5,
      "sources": {
        "GDELT": 304,
        "GDELT_DOC": 0,
        "DIRECT_FEED": 0,
        "USGS": 0,
        "GDACS": 0
      },
      "last7_score": 80.036,
      "prev7_score": 21.984,
      "trend": "up",
      "trend_arrow": "🔺",
      "change_pct": 264.1,
      "place": "Harghita, Romania"
    },
    {
      "lon": 15.25,
      "lat": 49.75,
      "type": "hotspot_cell",
      "score": 63.357,
      "count": 162,
      "cell_deg": 0.5,
      "sources": {
        "GDELT": 162,
        "GDELT_DOC": 0,
        "DIRECT_FEED": 0,
        "USGS": 0,
        "GDACS": 0
      },
      "last7_score": 54.524,
      "prev7_score": 8.833,
      "trend": "up",
      "trend_arrow": "🔺",
      "change_pct": 517.3,
      "place": "Vysočina Region, Czechia"
    },
    {
      "lon": 21.25,
      "lat": 52.25,
      "type": "hotspot_cell",
      "score": 51.343,
      "count": 177,
      "cell_deg": 0.5,
      "sources": {
        "GDELT": 177,
        "GDELT_DOC": 0,
        "DIRECT_FEED": 0,
        "USGS": 0,
        "GDACS": 0
      },
      "last7_score": 38.324,
      "prev7_score": 13.019,
      "trend": "up",
      "trend_arrow": "🔺",
      "change_pct": 194.4,
      "place": "Warsaw, Poland"
    }
  ]
}