{
  "generated_utc": "2026-06-12T02:49:45Z",
  "top": [
    {
      "lon": 14.25,
      "lat": 50.25,
      "type": "hotspot_cell",
      "score": 559.923,
      "count": 881,
      "cell_deg": 0.5,
      "sources": {
        "GDELT": 101,
        "GDELT_DOC": 778,
        "DIRECT_FEED": 2,
        "USGS": 0,
        "GDACS": 0
      },
      "last7_score": 550.274,
      "prev7_score": 9.649,
      "trend": "up",
      "trend_arrow": "🔺",
      "change_pct": 5602.9,
      "place": "SO ORP Kralupy nad Vltavou, Czechia"
    },
    {
      "lon": 26.25,
      "lat": 44.25,
      "type": "hotspot_cell",
      "score": 556.304,
      "count": 964,
      "cell_deg": 0.5,
      "sources": {
        "GDELT": 182,
        "GDELT_DOC": 771,
        "DIRECT_FEED": 11,
        "USGS": 0,
        "GDACS": 0
      },
      "last7_score": 537.764,
      "prev7_score": 18.54,
      "trend": "up",
      "trend_arrow": "🔺",
      "change_pct": 2800.5,
      "place": "Giurgiu, Romania"
    },
    {
      "lon": 25.25,
      "lat": 54.75,
      "type": "hotspot_cell",
      "score": 398.037,
      "count": 770,
      "cell_deg": 0.5,
      "sources": {
        "GDELT": 72,
        "GDELT_DOC": 698,
        "DIRECT_FEED": 0,
        "USGS": 0,
        "GDACS": 0
      },
      "last7_score": 390.611,
      "prev7_score": 7.426,
      "trend": "up",
      "trend_arrow": "🔺",
      "change_pct": 5159.7,
      "place": "Vilnius County, Lithuania"
    },
    {
      "lon": 20.25,
      "lat": 52.25,
      "type": "hotspot_cell",
      "score": 179.848,
      "count": 468,
      "cell_deg": 0.5,
      "sources": {
        "GDELT": 468,
        "GDELT_DOC": 0,
        "DIRECT_FEED": 0,
        "USGS": 0,
        "GDACS": 0
      },
      "last7_score": 136.438,
      "prev7_score": 43.41,
      "trend": "up",
      "trend_arrow": "🔺",
      "change_pct": 214.3,
      "place": "Sochaczew County, Poland"
    },
    {
      "lon": 19.25,
      "lat": 47.75,
      "type": "hotspot_cell",
      "score": 174.482,
      "count": 370,
      "cell_deg": 0.5,
      "sources": {
        "GDELT": 206,
        "GDELT_DOC": 0,
        "DIRECT_FEED": 164,
        "USGS": 0,
        "GDACS": 0
      },
      "last7_score": 151.734,
      "prev7_score": 22.748,
      "trend": "up",
      "trend_arrow": "🔺",
      "change_pct": 567.0,
      "place": "Pest, Hungary"
    },
    {
      "lon": 25.25,
      "lat": 46.25,
      "type": "hotspot_cell",
      "score": 161.393,
      "count": 422,
      "cell_deg": 0.5,
      "sources": {
        "GDELT": 422,
        "GDELT_DOC": 0,
        "DIRECT_FEED": 0,
        "USGS": 0,
        "GDACS": 0
      },
      "last7_score": 119.124,
      "prev7_score": 42.268,
      "trend": "up",
      "trend_arrow": "🔺",
      "change_pct": 181.8,
      "place": "Harghita, Romania"
    },
    {
      "lon": 24.25,
      "lat": 56.75,
      "type": "hotspot_cell",
      "score": 112.048,
      "count": 167,
      "cell_deg": 0.5,
      "sources": {
        "GDELT": 43,
        "GDELT_DOC": 0,
        "DIRECT_FEED": 124,
        "USGS": 0,
        "GDACS": 0
      },
      "last7_score": 108.261,
      "prev7_score": 3.787,
      "trend": "up",
      "trend_arrow": "🔺",
      "change_pct": 2758.8,
      "place": "Ķekavas novads, Latvia"
    },
    {
      "lon": 20.25,
      "lat": 47.25,
      "type": "hotspot_cell",
      "score": 93.194,
      "count": 243,
      "cell_deg": 0.5,
      "sources": {
        "GDELT": 243,
        "GDELT_DOC": 0,
        "DIRECT_FEED": 0,
        "USGS": 0,
        "GDACS": 0
      },
      "last7_score": 73.249,
      "prev7_score": 19.945,
      "trend": "up",
      "trend_arrow": "🔺",
      "change_pct": 267.3,
      "place": "Jász-Nagykun-Szolnok, Hungary"
    },
    {
      "lon": 21.25,
      "lat": 52.25,
      "type": "hotspot_cell",
      "score": 56.556,
      "count": 177,
      "cell_deg": 0.5,
      "sources": {
        "GDELT": 177,
        "GDELT_DOC": 0,
        "DIRECT_FEED": 0,
        "USGS": 0,
        "GDACS": 0
      },
      "last7_score": 40.434,
      "prev7_score": 16.122,
      "trend": "up",
      "trend_arrow": "🔺",
      "change_pct": 150.8,
      "place": "Warsaw, Poland"
    },
    {
      "lon": 15.25,
      "lat": 49.75,
      "type": "hotspot_cell",
      "score": 49.727,
      "count": 124,
      "cell_deg": 0.5,
      "sources": {
        "GDELT": 124,
        "GDELT_DOC": 0,
        "DIRECT_FEED": 0,
        "USGS": 0,
        "GDACS": 0
      },
      "last7_score": 39.232,
      "prev7_score": 10.495,
      "trend": "up",
      "trend_arrow": "🔺",
      "change_pct": 273.8,
      "place": "Vysočina Region, Czechia"
    }
  ]
}