{
  "generated_utc": "2026-03-10T13:06:38Z",
  "top": [
    {
      "lon": 26.25,
      "lat": 44.25,
      "type": "hotspot_cell",
      "score": 659.392,
      "count": 899,
      "cell_deg": 0.5,
      "sources": {
        "GDELT": 167,
        "GDELT_DOC": 731,
        "DIRECT_FEED": 1,
        "USGS": 0,
        "GDACS": 0
      },
      "last7_score": 646.297,
      "prev7_score": 13.094,
      "trend": "up",
      "trend_arrow": "🔺",
      "change_pct": 4835.7,
      "place": "Giurgiu, Romania"
    },
    {
      "lon": 14.25,
      "lat": 50.25,
      "type": "hotspot_cell",
      "score": 544.16,
      "count": 818,
      "cell_deg": 0.5,
      "sources": {
        "GDELT": 146,
        "GDELT_DOC": 672,
        "DIRECT_FEED": 0,
        "USGS": 0,
        "GDACS": 0
      },
      "last7_score": 535.57,
      "prev7_score": 8.59,
      "trend": "up",
      "trend_arrow": "🔺",
      "change_pct": 6134.7,
      "place": "SO ORP Kralupy nad Vltavou, Czechia"
    },
    {
      "lon": 25.25,
      "lat": 54.75,
      "type": "hotspot_cell",
      "score": 390.924,
      "count": 533,
      "cell_deg": 0.5,
      "sources": {
        "GDELT": 67,
        "GDELT_DOC": 466,
        "DIRECT_FEED": 0,
        "USGS": 0,
        "GDACS": 0
      },
      "last7_score": 386.462,
      "prev7_score": 4.461,
      "trend": "up",
      "trend_arrow": "🔺",
      "change_pct": 8562.6,
      "place": "Vilnius County, Lithuania"
    },
    {
      "lon": 19.25,
      "lat": 47.75,
      "type": "hotspot_cell",
      "score": 249.321,
      "count": 510,
      "cell_deg": 0.5,
      "sources": {
        "GDELT": 403,
        "GDELT_DOC": 0,
        "DIRECT_FEED": 107,
        "USGS": 0,
        "GDACS": 0
      },
      "last7_score": 230.328,
      "prev7_score": 18.993,
      "trend": "up",
      "trend_arrow": "🔺",
      "change_pct": 1112.7,
      "place": "Pest, Hungary"
    },
    {
      "lon": 20.25,
      "lat": 52.25,
      "type": "hotspot_cell",
      "score": 155.696,
      "count": 505,
      "cell_deg": 0.5,
      "sources": {
        "GDELT": 505,
        "GDELT_DOC": 0,
        "DIRECT_FEED": 0,
        "USGS": 0,
        "GDACS": 0
      },
      "last7_score": 118.394,
      "prev7_score": 37.302,
      "trend": "up",
      "trend_arrow": "🔺",
      "change_pct": 217.4,
      "place": "Sochaczew County, Poland"
    },
    {
      "lon": 20.25,
      "lat": 47.25,
      "type": "hotspot_cell",
      "score": 123.337,
      "count": 341,
      "cell_deg": 0.5,
      "sources": {
        "GDELT": 341,
        "GDELT_DOC": 0,
        "DIRECT_FEED": 0,
        "USGS": 0,
        "GDACS": 0
      },
      "last7_score": 101.535,
      "prev7_score": 21.802,
      "trend": "up",
      "trend_arrow": "🔺",
      "change_pct": 365.7,
      "place": "Jász-Nagykun-Szolnok, Hungary"
    },
    {
      "lon": 25.25,
      "lat": 46.25,
      "type": "hotspot_cell",
      "score": 101.253,
      "count": 304,
      "cell_deg": 0.5,
      "sources": {
        "GDELT": 304,
        "GDELT_DOC": 0,
        "DIRECT_FEED": 0,
        "USGS": 0,
        "GDACS": 0
      },
      "last7_score": 78.166,
      "prev7_score": 23.087,
      "trend": "up",
      "trend_arrow": "🔺",
      "change_pct": 238.6,
      "place": "Harghita, Romania"
    },
    {
      "lon": 24.25,
      "lat": 56.75,
      "type": "hotspot_cell",
      "score": 96.293,
      "count": 115,
      "cell_deg": 0.5,
      "sources": {
        "GDELT": 28,
        "GDELT_DOC": 0,
        "DIRECT_FEED": 87,
        "USGS": 0,
        "GDACS": 0
      },
      "last7_score": 94.52,
      "prev7_score": 1.773,
      "trend": "up",
      "trend_arrow": "🔺",
      "change_pct": 5231.1,
      "place": "Ķekavas novads, Latvia"
    },
    {
      "lon": 21.25,
      "lat": 52.25,
      "type": "hotspot_cell",
      "score": 69.342,
      "count": 241,
      "cell_deg": 0.5,
      "sources": {
        "GDELT": 241,
        "GDELT_DOC": 0,
        "DIRECT_FEED": 0,
        "USGS": 0,
        "GDACS": 0
      },
      "last7_score": 54.04,
      "prev7_score": 15.302,
      "trend": "up",
      "trend_arrow": "🔺",
      "change_pct": 253.2,
      "place": "Warsaw, Poland"
    },
    {
      "lon": 15.25,
      "lat": 49.75,
      "type": "hotspot_cell",
      "score": 54.5,
      "count": 163,
      "cell_deg": 0.5,
      "sources": {
        "GDELT": 163,
        "GDELT_DOC": 0,
        "DIRECT_FEED": 0,
        "USGS": 0,
        "GDACS": 0
      },
      "last7_score": 43.034,
      "prev7_score": 11.466,
      "trend": "up",
      "trend_arrow": "🔺",
      "change_pct": 275.3,
      "place": "Vysočina Region, Czechia"
    }
  ]
}