{
  "generated_utc": "2026-03-08T18:39:56Z",
  "top": [
    {
      "lon": 14.25,
      "lat": 50.25,
      "type": "hotspot_cell",
      "score": 468.654,
      "count": 610,
      "cell_deg": 0.5,
      "sources": {
        "GDELT": 161,
        "GDELT_DOC": 449,
        "DIRECT_FEED": 0,
        "USGS": 0,
        "GDACS": 0
      },
      "last7_score": 460.811,
      "prev7_score": 7.843,
      "trend": "up",
      "trend_arrow": "🔺",
      "change_pct": 5775.4,
      "place": "SO ORP Kralupy nad Vltavou, Czechia"
    },
    {
      "lon": 26.25,
      "lat": 44.25,
      "type": "hotspot_cell",
      "score": 398.855,
      "count": 547,
      "cell_deg": 0.5,
      "sources": {
        "GDELT": 180,
        "GDELT_DOC": 367,
        "DIRECT_FEED": 0,
        "USGS": 0,
        "GDACS": 0
      },
      "last7_score": 390.009,
      "prev7_score": 8.845,
      "trend": "up",
      "trend_arrow": "🔺",
      "change_pct": 4309.2,
      "place": "Giurgiu, Romania"
    },
    {
      "lon": 25.25,
      "lat": 54.75,
      "type": "hotspot_cell",
      "score": 281.926,
      "count": 358,
      "cell_deg": 0.5,
      "sources": {
        "GDELT": 75,
        "GDELT_DOC": 283,
        "DIRECT_FEED": 0,
        "USGS": 0,
        "GDACS": 0
      },
      "last7_score": 277.576,
      "prev7_score": 4.35,
      "trend": "up",
      "trend_arrow": "🔺",
      "change_pct": 6281.1,
      "place": "Vilnius County, Lithuania"
    },
    {
      "lon": 19.25,
      "lat": 47.75,
      "type": "hotspot_cell",
      "score": 234.822,
      "count": 536,
      "cell_deg": 0.5,
      "sources": {
        "GDELT": 474,
        "GDELT_DOC": 0,
        "DIRECT_FEED": 62,
        "USGS": 0,
        "GDACS": 0
      },
      "last7_score": 211.824,
      "prev7_score": 22.998,
      "trend": "up",
      "trend_arrow": "🔺",
      "change_pct": 821.0,
      "place": "Pest, Hungary"
    },
    {
      "lon": 20.25,
      "lat": 52.25,
      "type": "hotspot_cell",
      "score": 179.092,
      "count": 556,
      "cell_deg": 0.5,
      "sources": {
        "GDELT": 556,
        "GDELT_DOC": 0,
        "DIRECT_FEED": 0,
        "USGS": 0,
        "GDACS": 0
      },
      "last7_score": 145.779,
      "prev7_score": 33.313,
      "trend": "up",
      "trend_arrow": "🔺",
      "change_pct": 337.6,
      "place": "Sochaczew County, Poland"
    },
    {
      "lon": 20.25,
      "lat": 47.25,
      "type": "hotspot_cell",
      "score": 126.342,
      "count": 412,
      "cell_deg": 0.5,
      "sources": {
        "GDELT": 412,
        "GDELT_DOC": 0,
        "DIRECT_FEED": 0,
        "USGS": 0,
        "GDACS": 0
      },
      "last7_score": 101.969,
      "prev7_score": 24.373,
      "trend": "up",
      "trend_arrow": "🔺",
      "change_pct": 318.4,
      "place": "Jász-Nagykun-Szolnok, Hungary"
    },
    {
      "lon": 25.25,
      "lat": 46.25,
      "type": "hotspot_cell",
      "score": 94.001,
      "count": 326,
      "cell_deg": 0.5,
      "sources": {
        "GDELT": 326,
        "GDELT_DOC": 0,
        "DIRECT_FEED": 0,
        "USGS": 0,
        "GDACS": 0
      },
      "last7_score": 75.998,
      "prev7_score": 18.003,
      "trend": "up",
      "trend_arrow": "🔺",
      "change_pct": 322.1,
      "place": "Harghita, Romania"
    },
    {
      "lon": 21.25,
      "lat": 52.25,
      "type": "hotspot_cell",
      "score": 84.809,
      "count": 249,
      "cell_deg": 0.5,
      "sources": {
        "GDELT": 249,
        "GDELT_DOC": 0,
        "DIRECT_FEED": 0,
        "USGS": 0,
        "GDACS": 0
      },
      "last7_score": 69.855,
      "prev7_score": 14.954,
      "trend": "up",
      "trend_arrow": "🔺",
      "change_pct": 367.1,
      "place": "Warsaw, Poland"
    },
    {
      "lon": 15.25,
      "lat": 49.75,
      "type": "hotspot_cell",
      "score": 61.146,
      "count": 171,
      "cell_deg": 0.5,
      "sources": {
        "GDELT": 171,
        "GDELT_DOC": 0,
        "DIRECT_FEED": 0,
        "USGS": 0,
        "GDACS": 0
      },
      "last7_score": 51.818,
      "prev7_score": 9.327,
      "trend": "up",
      "trend_arrow": "🔺",
      "change_pct": 455.5,
      "place": "Vysočina Region, Czechia"
    },
    {
      "lon": 24.25,
      "lat": 56.25,
      "type": "hotspot_cell",
      "score": 52.55,
      "count": 158,
      "cell_deg": 0.5,
      "sources": {
        "GDELT": 158,
        "GDELT_DOC": 0,
        "DIRECT_FEED": 0,
        "USGS": 0,
        "GDACS": 0
      },
      "last7_score": 44.15,
      "prev7_score": 8.4,
      "trend": "up",
      "trend_arrow": "🔺",
      "change_pct": 425.6,
      "place": "Namišių seniūnija, Lithuania"
    }
  ]
}