{
  "generated_utc": "2026-03-29T18:52:17Z",
  "top": [
    {
      "lon": 14.25,
      "lat": 50.25,
      "type": "hotspot_cell",
      "score": 834.035,
      "count": 1401,
      "cell_deg": 0.5,
      "sources": {
        "GDELT": 128,
        "GDELT_DOC": 1271,
        "DIRECT_FEED": 2,
        "USGS": 0,
        "GDACS": 0
      },
      "last7_score": 826.015,
      "prev7_score": 8.021,
      "trend": "up",
      "trend_arrow": "🔺",
      "change_pct": 10198.8,
      "place": "SO ORP Kralupy nad Vltavou, Czechia"
    },
    {
      "lon": 26.25,
      "lat": 44.25,
      "type": "hotspot_cell",
      "score": 674.043,
      "count": 1187,
      "cell_deg": 0.5,
      "sources": {
        "GDELT": 142,
        "GDELT_DOC": 1043,
        "DIRECT_FEED": 2,
        "USGS": 0,
        "GDACS": 0
      },
      "last7_score": 665.739,
      "prev7_score": 8.304,
      "trend": "up",
      "trend_arrow": "🔺",
      "change_pct": 7917.0,
      "place": "Giurgiu, Romania"
    },
    {
      "lon": 25.25,
      "lat": 54.75,
      "type": "hotspot_cell",
      "score": 658.763,
      "count": 1019,
      "cell_deg": 0.5,
      "sources": {
        "GDELT": 92,
        "GDELT_DOC": 927,
        "DIRECT_FEED": 0,
        "USGS": 0,
        "GDACS": 0
      },
      "last7_score": 653.557,
      "prev7_score": 5.206,
      "trend": "up",
      "trend_arrow": "🔺",
      "change_pct": 12453.0,
      "place": "Vilnius County, Lithuania"
    },
    {
      "lon": 19.25,
      "lat": 47.75,
      "type": "hotspot_cell",
      "score": 238.085,
      "count": 550,
      "cell_deg": 0.5,
      "sources": {
        "GDELT": 337,
        "GDELT_DOC": 0,
        "DIRECT_FEED": 213,
        "USGS": 0,
        "GDACS": 0
      },
      "last7_score": 220.087,
      "prev7_score": 17.997,
      "trend": "up",
      "trend_arrow": "🔺",
      "change_pct": 1122.9,
      "place": "Pest, Hungary"
    },
    {
      "lon": 20.25,
      "lat": 52.25,
      "type": "hotspot_cell",
      "score": 163.107,
      "count": 464,
      "cell_deg": 0.5,
      "sources": {
        "GDELT": 464,
        "GDELT_DOC": 0,
        "DIRECT_FEED": 0,
        "USGS": 0,
        "GDACS": 0
      },
      "last7_score": 138.91,
      "prev7_score": 24.196,
      "trend": "up",
      "trend_arrow": "🔺",
      "change_pct": 474.1,
      "place": "Sochaczew County, Poland"
    },
    {
      "lon": 24.25,
      "lat": 56.75,
      "type": "hotspot_cell",
      "score": 112.987,
      "count": 194,
      "cell_deg": 0.5,
      "sources": {
        "GDELT": 44,
        "GDELT_DOC": 0,
        "DIRECT_FEED": 150,
        "USGS": 0,
        "GDACS": 0
      },
      "last7_score": 111.064,
      "prev7_score": 1.922,
      "trend": "up",
      "trend_arrow": "🔺",
      "change_pct": 5677.9,
      "place": "Ķekavas novads, Latvia"
    },
    {
      "lon": 20.25,
      "lat": 47.25,
      "type": "hotspot_cell",
      "score": 102.752,
      "count": 369,
      "cell_deg": 0.5,
      "sources": {
        "GDELT": 369,
        "GDELT_DOC": 0,
        "DIRECT_FEED": 0,
        "USGS": 0,
        "GDACS": 0
      },
      "last7_score": 78.44,
      "prev7_score": 24.312,
      "trend": "up",
      "trend_arrow": "🔺",
      "change_pct": 222.6,
      "place": "Jász-Nagykun-Szolnok, Hungary"
    },
    {
      "lon": 25.25,
      "lat": 46.25,
      "type": "hotspot_cell",
      "score": 97.362,
      "count": 329,
      "cell_deg": 0.5,
      "sources": {
        "GDELT": 329,
        "GDELT_DOC": 0,
        "DIRECT_FEED": 0,
        "USGS": 0,
        "GDACS": 0
      },
      "last7_score": 80.541,
      "prev7_score": 16.822,
      "trend": "up",
      "trend_arrow": "🔺",
      "change_pct": 378.8,
      "place": "Harghita, Romania"
    },
    {
      "lon": 27.75,
      "lat": 47.25,
      "type": "hotspot_cell",
      "score": 50.937,
      "count": 93,
      "cell_deg": 0.5,
      "sources": {
        "GDELT": 0,
        "GDELT_DOC": 93,
        "DIRECT_FEED": 0,
        "USGS": 0,
        "GDACS": 0
      },
      "last7_score": 50.937,
      "prev7_score": 0.0,
      "trend": "new",
      "trend_arrow": "🆕",
      "change_pct": null,
      "place": "Iași, Romania"
    },
    {
      "lon": 15.25,
      "lat": 49.75,
      "type": "hotspot_cell",
      "score": 48.644,
      "count": 177,
      "cell_deg": 0.5,
      "sources": {
        "GDELT": 177,
        "GDELT_DOC": 0,
        "DIRECT_FEED": 0,
        "USGS": 0,
        "GDACS": 0
      },
      "last7_score": 36.459,
      "prev7_score": 12.185,
      "trend": "up",
      "trend_arrow": "🔺",
      "change_pct": 199.2,
      "place": "Vysočina Region, Czechia"
    }
  ]
}