{
  "generated_utc": "2026-04-01T19:09:05Z",
  "top": [
    {
      "lon": 14.25,
      "lat": 50.25,
      "type": "hotspot_cell",
      "score": 1055.857,
      "count": 1651,
      "cell_deg": 0.5,
      "sources": {
        "GDELT": 123,
        "GDELT_DOC": 1525,
        "DIRECT_FEED": 3,
        "USGS": 0,
        "GDACS": 0
      },
      "last7_score": 1048.674,
      "prev7_score": 7.183,
      "trend": "up",
      "trend_arrow": "🔺",
      "change_pct": 14498.9,
      "place": "SO ORP Kralupy nad Vltavou, Czechia"
    },
    {
      "lon": 26.25,
      "lat": 44.25,
      "type": "hotspot_cell",
      "score": 879.889,
      "count": 1318,
      "cell_deg": 0.5,
      "sources": {
        "GDELT": 153,
        "GDELT_DOC": 1162,
        "DIRECT_FEED": 3,
        "USGS": 0,
        "GDACS": 0
      },
      "last7_score": 869.086,
      "prev7_score": 10.804,
      "trend": "up",
      "trend_arrow": "🔺",
      "change_pct": 7944.2,
      "place": "Giurgiu, Romania"
    },
    {
      "lon": 25.25,
      "lat": 54.75,
      "type": "hotspot_cell",
      "score": 751.905,
      "count": 1170,
      "cell_deg": 0.5,
      "sources": {
        "GDELT": 97,
        "GDELT_DOC": 1073,
        "DIRECT_FEED": 0,
        "USGS": 0,
        "GDACS": 0
      },
      "last7_score": 745.495,
      "prev7_score": 6.41,
      "trend": "up",
      "trend_arrow": "🔺",
      "change_pct": 11529.9,
      "place": "Vilnius County, Lithuania"
    },
    {
      "lon": 19.25,
      "lat": 47.75,
      "type": "hotspot_cell",
      "score": 257.297,
      "count": 522,
      "cell_deg": 0.5,
      "sources": {
        "GDELT": 304,
        "GDELT_DOC": 0,
        "DIRECT_FEED": 218,
        "USGS": 0,
        "GDACS": 0
      },
      "last7_score": 235.762,
      "prev7_score": 21.535,
      "trend": "up",
      "trend_arrow": "🔺",
      "change_pct": 994.8,
      "place": "Pest, Hungary"
    },
    {
      "lon": 20.25,
      "lat": 52.25,
      "type": "hotspot_cell",
      "score": 192.082,
      "count": 468,
      "cell_deg": 0.5,
      "sources": {
        "GDELT": 468,
        "GDELT_DOC": 0,
        "DIRECT_FEED": 0,
        "USGS": 0,
        "GDACS": 0
      },
      "last7_score": 165.935,
      "prev7_score": 26.147,
      "trend": "up",
      "trend_arrow": "🔺",
      "change_pct": 534.6,
      "place": "Sochaczew County, Poland"
    },
    {
      "lon": 20.25,
      "lat": 47.25,
      "type": "hotspot_cell",
      "score": 129.171,
      "count": 374,
      "cell_deg": 0.5,
      "sources": {
        "GDELT": 374,
        "GDELT_DOC": 0,
        "DIRECT_FEED": 0,
        "USGS": 0,
        "GDACS": 0
      },
      "last7_score": 102.63,
      "prev7_score": 26.541,
      "trend": "up",
      "trend_arrow": "🔺",
      "change_pct": 286.7,
      "place": "Jász-Nagykun-Szolnok, Hungary"
    },
    {
      "lon": 24.25,
      "lat": 56.75,
      "type": "hotspot_cell",
      "score": 122.577,
      "count": 189,
      "cell_deg": 0.5,
      "sources": {
        "GDELT": 47,
        "GDELT_DOC": 0,
        "DIRECT_FEED": 142,
        "USGS": 0,
        "GDACS": 0
      },
      "last7_score": 119.145,
      "prev7_score": 3.432,
      "trend": "up",
      "trend_arrow": "🔺",
      "change_pct": 3371.9,
      "place": "Ķekavas novads, Latvia"
    },
    {
      "lon": 25.25,
      "lat": 46.25,
      "type": "hotspot_cell",
      "score": 115.596,
      "count": 322,
      "cell_deg": 0.5,
      "sources": {
        "GDELT": 322,
        "GDELT_DOC": 0,
        "DIRECT_FEED": 0,
        "USGS": 0,
        "GDACS": 0
      },
      "last7_score": 90.055,
      "prev7_score": 25.541,
      "trend": "up",
      "trend_arrow": "🔺",
      "change_pct": 252.6,
      "place": "Harghita, Romania"
    },
    {
      "lon": 27.75,
      "lat": 47.25,
      "type": "hotspot_cell",
      "score": 67.868,
      "count": 90,
      "cell_deg": 0.5,
      "sources": {
        "GDELT": 0,
        "GDELT_DOC": 90,
        "DIRECT_FEED": 0,
        "USGS": 0,
        "GDACS": 0
      },
      "last7_score": 67.868,
      "prev7_score": 0.0,
      "trend": "new",
      "trend_arrow": "🆕",
      "change_pct": null,
      "place": "Iași, Romania"
    },
    {
      "lon": 21.25,
      "lat": 52.25,
      "type": "hotspot_cell",
      "score": 56.0,
      "count": 140,
      "cell_deg": 0.5,
      "sources": {
        "GDELT": 140,
        "GDELT_DOC": 0,
        "DIRECT_FEED": 0,
        "USGS": 0,
        "GDACS": 0
      },
      "last7_score": 47.09,
      "prev7_score": 8.911,
      "trend": "up",
      "trend_arrow": "🔺",
      "change_pct": 428.4,
      "place": "Warsaw, Poland"
    }
  ]
}