{
  "generated_utc": "2026-07-05T08:49:03Z",
  "top": [
    {
      "lon": 20.25,
      "lat": 52.25,
      "type": "hotspot_cell",
      "score": 185.927,
      "count": 544,
      "cell_deg": 0.5,
      "sources": {
        "GDELT": 544,
        "GDELT_DOC": 0,
        "DIRECT_FEED": 0,
        "USGS": 0,
        "GDACS": 0
      },
      "last7_score": 150.275,
      "prev7_score": 35.652,
      "trend": "up",
      "trend_arrow": "🔺",
      "change_pct": 321.5,
      "place": "Sochaczew County, Poland"
    },
    {
      "lon": 26.25,
      "lat": 44.25,
      "type": "hotspot_cell",
      "score": 177.156,
      "count": 443,
      "cell_deg": 0.5,
      "sources": {
        "GDELT": 142,
        "GDELT_DOC": 295,
        "DIRECT_FEED": 6,
        "USGS": 0,
        "GDACS": 0
      },
      "last7_score": 169.094,
      "prev7_score": 8.062,
      "trend": "up",
      "trend_arrow": "🔺",
      "change_pct": 1997.3,
      "place": "Giurgiu, Romania"
    },
    {
      "lon": 25.25,
      "lat": 54.75,
      "type": "hotspot_cell",
      "score": 170.214,
      "count": 373,
      "cell_deg": 0.5,
      "sources": {
        "GDELT": 70,
        "GDELT_DOC": 303,
        "DIRECT_FEED": 0,
        "USGS": 0,
        "GDACS": 0
      },
      "last7_score": 166.913,
      "prev7_score": 3.301,
      "trend": "up",
      "trend_arrow": "🔺",
      "change_pct": 4956.7,
      "place": "Vilnius County, Lithuania"
    },
    {
      "lon": 19.25,
      "lat": 47.75,
      "type": "hotspot_cell",
      "score": 163.421,
      "count": 361,
      "cell_deg": 0.5,
      "sources": {
        "GDELT": 181,
        "GDELT_DOC": 0,
        "DIRECT_FEED": 180,
        "USGS": 0,
        "GDACS": 0
      },
      "last7_score": 149.585,
      "prev7_score": 13.836,
      "trend": "up",
      "trend_arrow": "🔺",
      "change_pct": 981.1,
      "place": "Pest, Hungary"
    },
    {
      "lon": 14.25,
      "lat": 50.25,
      "type": "hotspot_cell",
      "score": 129.047,
      "count": 354,
      "cell_deg": 0.5,
      "sources": {
        "GDELT": 128,
        "GDELT_DOC": 225,
        "DIRECT_FEED": 1,
        "USGS": 0,
        "GDACS": 0
      },
      "last7_score": 120.625,
      "prev7_score": 8.422,
      "trend": "up",
      "trend_arrow": "🔺",
      "change_pct": 1332.3,
      "place": "SO ORP Kralupy nad Vltavou, Czechia"
    },
    {
      "lon": 25.25,
      "lat": 46.25,
      "type": "hotspot_cell",
      "score": 117.649,
      "count": 352,
      "cell_deg": 0.5,
      "sources": {
        "GDELT": 352,
        "GDELT_DOC": 0,
        "DIRECT_FEED": 0,
        "USGS": 0,
        "GDACS": 0
      },
      "last7_score": 95.86,
      "prev7_score": 21.789,
      "trend": "up",
      "trend_arrow": "🔺",
      "change_pct": 339.9,
      "place": "Harghita, Romania"
    },
    {
      "lon": 21.25,
      "lat": 52.25,
      "type": "hotspot_cell",
      "score": 112.549,
      "count": 314,
      "cell_deg": 0.5,
      "sources": {
        "GDELT": 314,
        "GDELT_DOC": 0,
        "DIRECT_FEED": 0,
        "USGS": 0,
        "GDACS": 0
      },
      "last7_score": 92.869,
      "prev7_score": 19.679,
      "trend": "up",
      "trend_arrow": "🔺",
      "change_pct": 371.9,
      "place": "Warsaw, Poland"
    },
    {
      "lon": 24.25,
      "lat": 56.75,
      "type": "hotspot_cell",
      "score": 104.607,
      "count": 167,
      "cell_deg": 0.5,
      "sources": {
        "GDELT": 24,
        "GDELT_DOC": 0,
        "DIRECT_FEED": 143,
        "USGS": 0,
        "GDACS": 0
      },
      "last7_score": 103.42,
      "prev7_score": 1.187,
      "trend": "up",
      "trend_arrow": "🔺",
      "change_pct": 8610.9,
      "place": "Ķekavas novads, Latvia"
    },
    {
      "lon": 15.25,
      "lat": 49.75,
      "type": "hotspot_cell",
      "score": 60.291,
      "count": 166,
      "cell_deg": 0.5,
      "sources": {
        "GDELT": 166,
        "GDELT_DOC": 0,
        "DIRECT_FEED": 0,
        "USGS": 0,
        "GDACS": 0
      },
      "last7_score": 49.261,
      "prev7_score": 11.03,
      "trend": "up",
      "trend_arrow": "🔺",
      "change_pct": 346.6,
      "place": "Vysočina Region, Czechia"
    },
    {
      "lon": 20.25,
      "lat": 47.25,
      "type": "hotspot_cell",
      "score": 51.7,
      "count": 175,
      "cell_deg": 0.5,
      "sources": {
        "GDELT": 175,
        "GDELT_DOC": 0,
        "DIRECT_FEED": 0,
        "USGS": 0,
        "GDACS": 0
      },
      "last7_score": 39.671,
      "prev7_score": 12.03,
      "trend": "up",
      "trend_arrow": "🔺",
      "change_pct": 229.8,
      "place": "Jász-Nagykun-Szolnok, Hungary"
    }
  ]
}