{
  "generated_utc": "2026-04-22T19:25:09Z",
  "top": [
    {
      "lon": 14.25,
      "lat": 50.25,
      "type": "hotspot_cell",
      "score": 950.131,
      "count": 1451,
      "cell_deg": 0.5,
      "sources": {
        "GDELT": 155,
        "GDELT_DOC": 1293,
        "DIRECT_FEED": 3,
        "USGS": 0,
        "GDACS": 0
      },
      "last7_score": 944.44,
      "prev7_score": 5.691,
      "trend": "up",
      "trend_arrow": "🔺",
      "change_pct": 16495.3,
      "place": "SO ORP Kralupy nad Vltavou, Czechia"
    },
    {
      "lon": 26.25,
      "lat": 44.25,
      "type": "hotspot_cell",
      "score": 813.384,
      "count": 1298,
      "cell_deg": 0.5,
      "sources": {
        "GDELT": 125,
        "GDELT_DOC": 1169,
        "DIRECT_FEED": 4,
        "USGS": 0,
        "GDACS": 0
      },
      "last7_score": 808.541,
      "prev7_score": 4.842,
      "trend": "up",
      "trend_arrow": "🔺",
      "change_pct": 16597.1,
      "place": "Giurgiu, Romania"
    },
    {
      "lon": 25.25,
      "lat": 54.75,
      "type": "hotspot_cell",
      "score": 651.911,
      "count": 990,
      "cell_deg": 0.5,
      "sources": {
        "GDELT": 73,
        "GDELT_DOC": 917,
        "DIRECT_FEED": 0,
        "USGS": 0,
        "GDACS": 0
      },
      "last7_score": 646.271,
      "prev7_score": 5.639,
      "trend": "up",
      "trend_arrow": "🔺",
      "change_pct": 11360.3,
      "place": "Vilnius County, Lithuania"
    },
    {
      "lon": 19.25,
      "lat": 47.75,
      "type": "hotspot_cell",
      "score": 482.381,
      "count": 1344,
      "cell_deg": 0.5,
      "sources": {
        "GDELT": 1088,
        "GDELT_DOC": 0,
        "DIRECT_FEED": 256,
        "USGS": 0,
        "GDACS": 0
      },
      "last7_score": 378.542,
      "prev7_score": 103.839,
      "trend": "up",
      "trend_arrow": "🔺",
      "change_pct": 264.5,
      "place": "Pest, Hungary"
    },
    {
      "lon": 20.25,
      "lat": 47.25,
      "type": "hotspot_cell",
      "score": 305.638,
      "count": 871,
      "cell_deg": 0.5,
      "sources": {
        "GDELT": 871,
        "GDELT_DOC": 0,
        "DIRECT_FEED": 0,
        "USGS": 0,
        "GDACS": 0
      },
      "last7_score": 234.983,
      "prev7_score": 70.656,
      "trend": "up",
      "trend_arrow": "🔺",
      "change_pct": 232.6,
      "place": "Jász-Nagykun-Szolnok, Hungary"
    },
    {
      "lon": 20.25,
      "lat": 52.25,
      "type": "hotspot_cell",
      "score": 174.199,
      "count": 451,
      "cell_deg": 0.5,
      "sources": {
        "GDELT": 451,
        "GDELT_DOC": 0,
        "DIRECT_FEED": 0,
        "USGS": 0,
        "GDACS": 0
      },
      "last7_score": 147.525,
      "prev7_score": 26.674,
      "trend": "up",
      "trend_arrow": "🔺",
      "change_pct": 453.1,
      "place": "Sochaczew County, Poland"
    },
    {
      "lon": 24.25,
      "lat": 56.75,
      "type": "hotspot_cell",
      "score": 117.726,
      "count": 174,
      "cell_deg": 0.5,
      "sources": {
        "GDELT": 34,
        "GDELT_DOC": 0,
        "DIRECT_FEED": 140,
        "USGS": 0,
        "GDACS": 0
      },
      "last7_score": 114.807,
      "prev7_score": 2.919,
      "trend": "up",
      "trend_arrow": "🔺",
      "change_pct": 3833.0,
      "place": "Ķekavas novads, Latvia"
    },
    {
      "lon": 25.25,
      "lat": 46.25,
      "type": "hotspot_cell",
      "score": 96.905,
      "count": 247,
      "cell_deg": 0.5,
      "sources": {
        "GDELT": 247,
        "GDELT_DOC": 0,
        "DIRECT_FEED": 0,
        "USGS": 0,
        "GDACS": 0
      },
      "last7_score": 78.747,
      "prev7_score": 18.158,
      "trend": "up",
      "trend_arrow": "🔺",
      "change_pct": 333.7,
      "place": "Harghita, Romania"
    },
    {
      "lon": 15.25,
      "lat": 49.75,
      "type": "hotspot_cell",
      "score": 78.621,
      "count": 204,
      "cell_deg": 0.5,
      "sources": {
        "GDELT": 204,
        "GDELT_DOC": 0,
        "DIRECT_FEED": 0,
        "USGS": 0,
        "GDACS": 0
      },
      "last7_score": 65.549,
      "prev7_score": 13.072,
      "trend": "up",
      "trend_arrow": "🔺",
      "change_pct": 401.5,
      "place": "Vysočina Region, Czechia"
    },
    {
      "lon": 27.75,
      "lat": 47.25,
      "type": "hotspot_cell",
      "score": 65.237,
      "count": 82,
      "cell_deg": 0.5,
      "sources": {
        "GDELT": 0,
        "GDELT_DOC": 82,
        "DIRECT_FEED": 0,
        "USGS": 0,
        "GDACS": 0
      },
      "last7_score": 65.237,
      "prev7_score": 0.0,
      "trend": "new",
      "trend_arrow": "🆕",
      "change_pct": null,
      "place": "Iași, Romania"
    }
  ]
}