{
  "generated_utc": "2026-07-21T13:27:35Z",
  "top": [
    {
      "lon": 26.25,
      "lat": 44.25,
      "type": "hotspot_cell",
      "score": 590.979,
      "count": 916,
      "cell_deg": 0.5,
      "sources": {
        "GDELT": 129,
        "GDELT_DOC": 782,
        "DIRECT_FEED": 5,
        "USGS": 0,
        "GDACS": 0
      },
      "last7_score": 584.788,
      "prev7_score": 6.192,
      "trend": "up",
      "trend_arrow": "🔺",
      "change_pct": 9345.0,
      "place": "Giurgiu, Romania"
    },
    {
      "lon": 14.25,
      "lat": 50.25,
      "type": "hotspot_cell",
      "score": 577.204,
      "count": 985,
      "cell_deg": 0.5,
      "sources": {
        "GDELT": 101,
        "GDELT_DOC": 881,
        "DIRECT_FEED": 3,
        "USGS": 0,
        "GDACS": 0
      },
      "last7_score": 570.814,
      "prev7_score": 6.39,
      "trend": "up",
      "trend_arrow": "🔺",
      "change_pct": 8833.5,
      "place": "SO ORP Kralupy nad Vltavou, Czechia"
    },
    {
      "lon": 25.25,
      "lat": 54.75,
      "type": "hotspot_cell",
      "score": 390.131,
      "count": 719,
      "cell_deg": 0.5,
      "sources": {
        "GDELT": 71,
        "GDELT_DOC": 648,
        "DIRECT_FEED": 0,
        "USGS": 0,
        "GDACS": 0
      },
      "last7_score": 385.077,
      "prev7_score": 5.054,
      "trend": "up",
      "trend_arrow": "🔺",
      "change_pct": 7519.0,
      "place": "Vilnius County, Lithuania"
    },
    {
      "lon": 25.25,
      "lat": 46.25,
      "type": "hotspot_cell",
      "score": 197.238,
      "count": 449,
      "cell_deg": 0.5,
      "sources": {
        "GDELT": 449,
        "GDELT_DOC": 0,
        "DIRECT_FEED": 0,
        "USGS": 0,
        "GDACS": 0
      },
      "last7_score": 168.152,
      "prev7_score": 29.086,
      "trend": "up",
      "trend_arrow": "🔺",
      "change_pct": 478.1,
      "place": "Harghita, Romania"
    },
    {
      "lon": 19.25,
      "lat": 47.75,
      "type": "hotspot_cell",
      "score": 187.846,
      "count": 370,
      "cell_deg": 0.5,
      "sources": {
        "GDELT": 184,
        "GDELT_DOC": 0,
        "DIRECT_FEED": 186,
        "USGS": 0,
        "GDACS": 0
      },
      "last7_score": 175.928,
      "prev7_score": 11.919,
      "trend": "up",
      "trend_arrow": "🔺",
      "change_pct": 1376.1,
      "place": "Pest, Hungary"
    },
    {
      "lon": 20.25,
      "lat": 52.25,
      "type": "hotspot_cell",
      "score": 147.596,
      "count": 427,
      "cell_deg": 0.5,
      "sources": {
        "GDELT": 427,
        "GDELT_DOC": 0,
        "DIRECT_FEED": 0,
        "USGS": 0,
        "GDACS": 0
      },
      "last7_score": 114.024,
      "prev7_score": 33.572,
      "trend": "up",
      "trend_arrow": "🔺",
      "change_pct": 239.6,
      "place": "Sochaczew County, Poland"
    },
    {
      "lon": 24.25,
      "lat": 56.75,
      "type": "hotspot_cell",
      "score": 101.644,
      "count": 151,
      "cell_deg": 0.5,
      "sources": {
        "GDELT": 19,
        "GDELT_DOC": 0,
        "DIRECT_FEED": 132,
        "USGS": 0,
        "GDACS": 0
      },
      "last7_score": 100.262,
      "prev7_score": 1.382,
      "trend": "up",
      "trend_arrow": "🔺",
      "change_pct": 7156.1,
      "place": "Ķekavas novads, Latvia"
    },
    {
      "lon": 20.25,
      "lat": 47.25,
      "type": "hotspot_cell",
      "score": 62.272,
      "count": 191,
      "cell_deg": 0.5,
      "sources": {
        "GDELT": 191,
        "GDELT_DOC": 0,
        "DIRECT_FEED": 0,
        "USGS": 0,
        "GDACS": 0
      },
      "last7_score": 48.046,
      "prev7_score": 14.227,
      "trend": "up",
      "trend_arrow": "🔺",
      "change_pct": 237.7,
      "place": "Jász-Nagykun-Szolnok, Hungary"
    },
    {
      "lon": 21.25,
      "lat": 52.25,
      "type": "hotspot_cell",
      "score": 58.914,
      "count": 203,
      "cell_deg": 0.5,
      "sources": {
        "GDELT": 203,
        "GDELT_DOC": 0,
        "DIRECT_FEED": 0,
        "USGS": 0,
        "GDACS": 0
      },
      "last7_score": 42.227,
      "prev7_score": 16.687,
      "trend": "up",
      "trend_arrow": "🔺",
      "change_pct": 153.0,
      "place": "Warsaw, Poland"
    },
    {
      "lon": 15.25,
      "lat": 49.75,
      "type": "hotspot_cell",
      "score": 50.353,
      "count": 147,
      "cell_deg": 0.5,
      "sources": {
        "GDELT": 147,
        "GDELT_DOC": 0,
        "DIRECT_FEED": 0,
        "USGS": 0,
        "GDACS": 0
      },
      "last7_score": 39.661,
      "prev7_score": 10.692,
      "trend": "up",
      "trend_arrow": "🔺",
      "change_pct": 270.9,
      "place": "Vysočina Region, Czechia"
    }
  ]
}