{
  "generated_utc": "2026-07-21T08:18:43Z",
  "top": [
    {
      "lon": 26.25,
      "lat": 44.25,
      "type": "hotspot_cell",
      "score": 632.446,
      "count": 981,
      "cell_deg": 0.5,
      "sources": {
        "GDELT": 124,
        "GDELT_DOC": 853,
        "DIRECT_FEED": 4,
        "USGS": 0,
        "GDACS": 0
      },
      "last7_score": 625.94,
      "prev7_score": 6.506,
      "trend": "up",
      "trend_arrow": "🔺",
      "change_pct": 9520.8,
      "place": "Giurgiu, Romania"
    },
    {
      "lon": 14.25,
      "lat": 50.25,
      "type": "hotspot_cell",
      "score": 522.197,
      "count": 968,
      "cell_deg": 0.5,
      "sources": {
        "GDELT": 98,
        "GDELT_DOC": 867,
        "DIRECT_FEED": 3,
        "USGS": 0,
        "GDACS": 0
      },
      "last7_score": 515.483,
      "prev7_score": 6.714,
      "trend": "up",
      "trend_arrow": "🔺",
      "change_pct": 7577.5,
      "place": "SO ORP Kralupy nad Vltavou, Czechia"
    },
    {
      "lon": 25.25,
      "lat": 54.75,
      "type": "hotspot_cell",
      "score": 408.753,
      "count": 718,
      "cell_deg": 0.5,
      "sources": {
        "GDELT": 70,
        "GDELT_DOC": 648,
        "DIRECT_FEED": 0,
        "USGS": 0,
        "GDACS": 0
      },
      "last7_score": 403.442,
      "prev7_score": 5.311,
      "trend": "up",
      "trend_arrow": "🔺",
      "change_pct": 7496.4,
      "place": "Vilnius County, Lithuania"
    },
    {
      "lon": 25.25,
      "lat": 46.25,
      "type": "hotspot_cell",
      "score": 193.579,
      "count": 438,
      "cell_deg": 0.5,
      "sources": {
        "GDELT": 438,
        "GDELT_DOC": 0,
        "DIRECT_FEED": 0,
        "USGS": 0,
        "GDACS": 0
      },
      "last7_score": 163.015,
      "prev7_score": 30.564,
      "trend": "up",
      "trend_arrow": "🔺",
      "change_pct": 433.4,
      "place": "Harghita, Romania"
    },
    {
      "lon": 19.25,
      "lat": 47.75,
      "type": "hotspot_cell",
      "score": 178.982,
      "count": 364,
      "cell_deg": 0.5,
      "sources": {
        "GDELT": 177,
        "GDELT_DOC": 0,
        "DIRECT_FEED": 187,
        "USGS": 0,
        "GDACS": 0
      },
      "last7_score": 166.458,
      "prev7_score": 12.524,
      "trend": "up",
      "trend_arrow": "🔺",
      "change_pct": 1229.1,
      "place": "Pest, Hungary"
    },
    {
      "lon": 20.25,
      "lat": 52.25,
      "type": "hotspot_cell",
      "score": 144.175,
      "count": 418,
      "cell_deg": 0.5,
      "sources": {
        "GDELT": 418,
        "GDELT_DOC": 0,
        "DIRECT_FEED": 0,
        "USGS": 0,
        "GDACS": 0
      },
      "last7_score": 108.897,
      "prev7_score": 35.278,
      "trend": "up",
      "trend_arrow": "🔺",
      "change_pct": 208.7,
      "place": "Sochaczew County, Poland"
    },
    {
      "lon": 24.25,
      "lat": 56.75,
      "type": "hotspot_cell",
      "score": 100.967,
      "count": 150,
      "cell_deg": 0.5,
      "sources": {
        "GDELT": 19,
        "GDELT_DOC": 0,
        "DIRECT_FEED": 131,
        "USGS": 0,
        "GDACS": 0
      },
      "last7_score": 99.515,
      "prev7_score": 1.452,
      "trend": "up",
      "trend_arrow": "🔺",
      "change_pct": 6753.8,
      "place": "Ķekavas novads, Latvia"
    },
    {
      "lon": 20.25,
      "lat": 47.25,
      "type": "hotspot_cell",
      "score": 64.236,
      "count": 190,
      "cell_deg": 0.5,
      "sources": {
        "GDELT": 190,
        "GDELT_DOC": 0,
        "DIRECT_FEED": 0,
        "USGS": 0,
        "GDACS": 0
      },
      "last7_score": 49.287,
      "prev7_score": 14.95,
      "trend": "up",
      "trend_arrow": "🔺",
      "change_pct": 229.7,
      "place": "Jász-Nagykun-Szolnok, Hungary"
    },
    {
      "lon": 21.25,
      "lat": 52.25,
      "type": "hotspot_cell",
      "score": 58.187,
      "count": 200,
      "cell_deg": 0.5,
      "sources": {
        "GDELT": 200,
        "GDELT_DOC": 0,
        "DIRECT_FEED": 0,
        "USGS": 0,
        "GDACS": 0
      },
      "last7_score": 40.652,
      "prev7_score": 17.535,
      "trend": "up",
      "trend_arrow": "🔺",
      "change_pct": 131.8,
      "place": "Warsaw, Poland"
    },
    {
      "lon": 15.25,
      "lat": 49.75,
      "type": "hotspot_cell",
      "score": 46.672,
      "count": 142,
      "cell_deg": 0.5,
      "sources": {
        "GDELT": 142,
        "GDELT_DOC": 0,
        "DIRECT_FEED": 0,
        "USGS": 0,
        "GDACS": 0
      },
      "last7_score": 35.436,
      "prev7_score": 11.236,
      "trend": "up",
      "trend_arrow": "🔺",
      "change_pct": 215.4,
      "place": "Vysočina Region, Czechia"
    }
  ]
}