{
  "generated_utc": "2026-05-18T15:42:19Z",
  "top": [
    {
      "lon": 26.25,
      "lat": 44.25,
      "type": "hotspot_cell",
      "score": 855.827,
      "count": 1445,
      "cell_deg": 0.5,
      "sources": {
        "GDELT": 227,
        "GDELT_DOC": 1214,
        "DIRECT_FEED": 4,
        "USGS": 0,
        "GDACS": 0
      },
      "last7_score": 844.875,
      "prev7_score": 10.952,
      "trend": "up",
      "trend_arrow": "🔺",
      "change_pct": 7614.2,
      "place": "Giurgiu, Romania"
    },
    {
      "lon": 14.25,
      "lat": 50.25,
      "type": "hotspot_cell",
      "score": 789.649,
      "count": 1490,
      "cell_deg": 0.5,
      "sources": {
        "GDELT": 114,
        "GDELT_DOC": 1371,
        "DIRECT_FEED": 5,
        "USGS": 0,
        "GDACS": 0
      },
      "last7_score": 782.694,
      "prev7_score": 6.955,
      "trend": "up",
      "trend_arrow": "🔺",
      "change_pct": 11154.2,
      "place": "SO ORP Kralupy nad Vltavou, Czechia"
    },
    {
      "lon": 25.25,
      "lat": 54.75,
      "type": "hotspot_cell",
      "score": 633.218,
      "count": 1058,
      "cell_deg": 0.5,
      "sources": {
        "GDELT": 71,
        "GDELT_DOC": 987,
        "DIRECT_FEED": 0,
        "USGS": 0,
        "GDACS": 0
      },
      "last7_score": 629.18,
      "prev7_score": 4.038,
      "trend": "up",
      "trend_arrow": "🔺",
      "change_pct": 15480.4,
      "place": "Vilnius County, Lithuania"
    },
    {
      "lon": 19.25,
      "lat": 47.75,
      "type": "hotspot_cell",
      "score": 231.095,
      "count": 528,
      "cell_deg": 0.5,
      "sources": {
        "GDELT": 307,
        "GDELT_DOC": 0,
        "DIRECT_FEED": 221,
        "USGS": 0,
        "GDACS": 0
      },
      "last7_score": 207.107,
      "prev7_score": 23.988,
      "trend": "up",
      "trend_arrow": "🔺",
      "change_pct": 763.4,
      "place": "Pest, Hungary"
    },
    {
      "lon": 20.25,
      "lat": 52.25,
      "type": "hotspot_cell",
      "score": 208.024,
      "count": 586,
      "cell_deg": 0.5,
      "sources": {
        "GDELT": 586,
        "GDELT_DOC": 0,
        "DIRECT_FEED": 0,
        "USGS": 0,
        "GDACS": 0
      },
      "last7_score": 174.146,
      "prev7_score": 33.878,
      "trend": "up",
      "trend_arrow": "🔺",
      "change_pct": 414.0,
      "place": "Sochaczew County, Poland"
    },
    {
      "lon": 24.25,
      "lat": 56.75,
      "type": "hotspot_cell",
      "score": 119.292,
      "count": 195,
      "cell_deg": 0.5,
      "sources": {
        "GDELT": 42,
        "GDELT_DOC": 0,
        "DIRECT_FEED": 153,
        "USGS": 0,
        "GDACS": 0
      },
      "last7_score": 117.806,
      "prev7_score": 1.486,
      "trend": "up",
      "trend_arrow": "🔺",
      "change_pct": 7825.3,
      "place": "Ķekavas novads, Latvia"
    },
    {
      "lon": 20.25,
      "lat": 47.25,
      "type": "hotspot_cell",
      "score": 93.021,
      "count": 284,
      "cell_deg": 0.5,
      "sources": {
        "GDELT": 284,
        "GDELT_DOC": 0,
        "DIRECT_FEED": 0,
        "USGS": 0,
        "GDACS": 0
      },
      "last7_score": 71.071,
      "prev7_score": 21.95,
      "trend": "up",
      "trend_arrow": "🔺",
      "change_pct": 223.8,
      "place": "Jász-Nagykun-Szolnok, Hungary"
    },
    {
      "lon": 25.25,
      "lat": 46.25,
      "type": "hotspot_cell",
      "score": 89.097,
      "count": 287,
      "cell_deg": 0.5,
      "sources": {
        "GDELT": 287,
        "GDELT_DOC": 0,
        "DIRECT_FEED": 0,
        "USGS": 0,
        "GDACS": 0
      },
      "last7_score": 72.7,
      "prev7_score": 16.396,
      "trend": "up",
      "trend_arrow": "🔺",
      "change_pct": 343.4,
      "place": "Harghita, Romania"
    },
    {
      "lon": 25.25,
      "lat": 57.25,
      "type": "hotspot_cell",
      "score": 78.427,
      "count": 181,
      "cell_deg": 0.5,
      "sources": {
        "GDELT": 181,
        "GDELT_DOC": 0,
        "DIRECT_FEED": 0,
        "USGS": 0,
        "GDACS": 0
      },
      "last7_score": 67.954,
      "prev7_score": 10.473,
      "trend": "up",
      "trend_arrow": "🔺",
      "change_pct": 548.8,
      "place": "Cēsu novads, Latvia"
    },
    {
      "lon": 21.25,
      "lat": 52.25,
      "type": "hotspot_cell",
      "score": 72.464,
      "count": 211,
      "cell_deg": 0.5,
      "sources": {
        "GDELT": 211,
        "GDELT_DOC": 0,
        "DIRECT_FEED": 0,
        "USGS": 0,
        "GDACS": 0
      },
      "last7_score": 59.489,
      "prev7_score": 12.975,
      "trend": "up",
      "trend_arrow": "🔺",
      "change_pct": 358.5,
      "place": "Warsaw, Poland"
    }
  ]
}