{
  "generated_utc": "2026-05-12T19:59:47Z",
  "top": [
    {
      "lon": 14.25,
      "lat": 50.25,
      "type": "hotspot_cell",
      "score": 896.366,
      "count": 1390,
      "cell_deg": 0.5,
      "sources": {
        "GDELT": 135,
        "GDELT_DOC": 1252,
        "DIRECT_FEED": 3,
        "USGS": 0,
        "GDACS": 0
      },
      "last7_score": 886.595,
      "prev7_score": 9.771,
      "trend": "up",
      "trend_arrow": "🔺",
      "change_pct": 8974.1,
      "place": "SO ORP Kralupy nad Vltavou, Czechia"
    },
    {
      "lon": 26.25,
      "lat": 44.25,
      "type": "hotspot_cell",
      "score": 826.792,
      "count": 1300,
      "cell_deg": 0.5,
      "sources": {
        "GDELT": 163,
        "GDELT_DOC": 1129,
        "DIRECT_FEED": 8,
        "USGS": 0,
        "GDACS": 0
      },
      "last7_score": 816.248,
      "prev7_score": 10.545,
      "trend": "up",
      "trend_arrow": "🔺",
      "change_pct": 7640.8,
      "place": "Giurgiu, Romania"
    },
    {
      "lon": 25.25,
      "lat": 54.75,
      "type": "hotspot_cell",
      "score": 610.693,
      "count": 970,
      "cell_deg": 0.5,
      "sources": {
        "GDELT": 65,
        "GDELT_DOC": 905,
        "DIRECT_FEED": 0,
        "USGS": 0,
        "GDACS": 0
      },
      "last7_score": 607.993,
      "prev7_score": 2.7,
      "trend": "up",
      "trend_arrow": "🔺",
      "change_pct": 22419.9,
      "place": "Vilnius County, Lithuania"
    },
    {
      "lon": 19.25,
      "lat": 47.75,
      "type": "hotspot_cell",
      "score": 280.841,
      "count": 508,
      "cell_deg": 0.5,
      "sources": {
        "GDELT": 284,
        "GDELT_DOC": 0,
        "DIRECT_FEED": 224,
        "USGS": 0,
        "GDACS": 0
      },
      "last7_score": 270.894,
      "prev7_score": 9.947,
      "trend": "up",
      "trend_arrow": "🔺",
      "change_pct": 2623.4,
      "place": "Pest, Hungary"
    },
    {
      "lon": 20.25,
      "lat": 52.25,
      "type": "hotspot_cell",
      "score": 182.698,
      "count": 535,
      "cell_deg": 0.5,
      "sources": {
        "GDELT": 535,
        "GDELT_DOC": 0,
        "DIRECT_FEED": 0,
        "USGS": 0,
        "GDACS": 0
      },
      "last7_score": 146.937,
      "prev7_score": 35.762,
      "trend": "up",
      "trend_arrow": "🔺",
      "change_pct": 310.9,
      "place": "Sochaczew County, Poland"
    },
    {
      "lon": 20.25,
      "lat": 47.25,
      "type": "hotspot_cell",
      "score": 120.888,
      "count": 294,
      "cell_deg": 0.5,
      "sources": {
        "GDELT": 294,
        "GDELT_DOC": 0,
        "DIRECT_FEED": 0,
        "USGS": 0,
        "GDACS": 0
      },
      "last7_score": 107.124,
      "prev7_score": 13.764,
      "trend": "up",
      "trend_arrow": "🔺",
      "change_pct": 678.3,
      "place": "Jász-Nagykun-Szolnok, Hungary"
    },
    {
      "lon": 25.25,
      "lat": 46.25,
      "type": "hotspot_cell",
      "score": 118.445,
      "count": 347,
      "cell_deg": 0.5,
      "sources": {
        "GDELT": 347,
        "GDELT_DOC": 0,
        "DIRECT_FEED": 0,
        "USGS": 0,
        "GDACS": 0
      },
      "last7_score": 93.775,
      "prev7_score": 24.669,
      "trend": "up",
      "trend_arrow": "🔺",
      "change_pct": 280.1,
      "place": "Harghita, Romania"
    },
    {
      "lon": 24.25,
      "lat": 56.75,
      "type": "hotspot_cell",
      "score": 109.983,
      "count": 162,
      "cell_deg": 0.5,
      "sources": {
        "GDELT": 26,
        "GDELT_DOC": 0,
        "DIRECT_FEED": 136,
        "USGS": 0,
        "GDACS": 0
      },
      "last7_score": 107.109,
      "prev7_score": 2.875,
      "trend": "up",
      "trend_arrow": "🔺",
      "change_pct": 3625.6,
      "place": "Ķekavas novads, Latvia"
    },
    {
      "lon": 27.75,
      "lat": 47.25,
      "type": "hotspot_cell",
      "score": 64.478,
      "count": 104,
      "cell_deg": 0.5,
      "sources": {
        "GDELT": 0,
        "GDELT_DOC": 104,
        "DIRECT_FEED": 0,
        "USGS": 0,
        "GDACS": 0
      },
      "last7_score": 64.478,
      "prev7_score": 0.0,
      "trend": "new",
      "trend_arrow": "🆕",
      "change_pct": null,
      "place": "Iași, Romania"
    },
    {
      "lon": 21.25,
      "lat": 52.25,
      "type": "hotspot_cell",
      "score": 64.418,
      "count": 165,
      "cell_deg": 0.5,
      "sources": {
        "GDELT": 165,
        "GDELT_DOC": 0,
        "DIRECT_FEED": 0,
        "USGS": 0,
        "GDACS": 0
      },
      "last7_score": 56.24,
      "prev7_score": 8.178,
      "trend": "up",
      "trend_arrow": "🔺",
      "change_pct": 587.7,
      "place": "Warsaw, Poland"
    }
  ]
}