{
  "generated_utc": "2026-05-12T03:27:15Z",
  "top": [
    {
      "lon": 26.25,
      "lat": 44.25,
      "type": "hotspot_cell",
      "score": 794.797,
      "count": 1252,
      "cell_deg": 0.5,
      "sources": {
        "GDELT": 143,
        "GDELT_DOC": 1099,
        "DIRECT_FEED": 10,
        "USGS": 0,
        "GDACS": 0
      },
      "last7_score": 782.431,
      "prev7_score": 12.365,
      "trend": "up",
      "trend_arrow": "🔺",
      "change_pct": 6227.7,
      "place": "Giurgiu, Romania"
    },
    {
      "lon": 14.25,
      "lat": 50.25,
      "type": "hotspot_cell",
      "score": 771.112,
      "count": 1259,
      "cell_deg": 0.5,
      "sources": {
        "GDELT": 127,
        "GDELT_DOC": 1129,
        "DIRECT_FEED": 3,
        "USGS": 0,
        "GDACS": 0
      },
      "last7_score": 759.654,
      "prev7_score": 11.457,
      "trend": "up",
      "trend_arrow": "🔺",
      "change_pct": 6530.3,
      "place": "SO ORP Kralupy nad Vltavou, Czechia"
    },
    {
      "lon": 25.25,
      "lat": 54.75,
      "type": "hotspot_cell",
      "score": 592.072,
      "count": 960,
      "cell_deg": 0.5,
      "sources": {
        "GDELT": 61,
        "GDELT_DOC": 899,
        "DIRECT_FEED": 0,
        "USGS": 0,
        "GDACS": 0
      },
      "last7_score": 588.906,
      "prev7_score": 3.166,
      "trend": "up",
      "trend_arrow": "🔺",
      "change_pct": 18501.6,
      "place": "Vilnius County, Lithuania"
    },
    {
      "lon": 19.25,
      "lat": 47.75,
      "type": "hotspot_cell",
      "score": 259.894,
      "count": 470,
      "cell_deg": 0.5,
      "sources": {
        "GDELT": 265,
        "GDELT_DOC": 0,
        "DIRECT_FEED": 205,
        "USGS": 0,
        "GDACS": 0
      },
      "last7_score": 248.23,
      "prev7_score": 11.664,
      "trend": "up",
      "trend_arrow": "🔺",
      "change_pct": 2028.2,
      "place": "Pest, Hungary"
    },
    {
      "lon": 20.25,
      "lat": 52.25,
      "type": "hotspot_cell",
      "score": 189.466,
      "count": 516,
      "cell_deg": 0.5,
      "sources": {
        "GDELT": 516,
        "GDELT_DOC": 0,
        "DIRECT_FEED": 0,
        "USGS": 0,
        "GDACS": 0
      },
      "last7_score": 147.53,
      "prev7_score": 41.935,
      "trend": "up",
      "trend_arrow": "🔺",
      "change_pct": 251.8,
      "place": "Sochaczew County, Poland"
    },
    {
      "lon": 20.25,
      "lat": 47.25,
      "type": "hotspot_cell",
      "score": 118.917,
      "count": 277,
      "cell_deg": 0.5,
      "sources": {
        "GDELT": 277,
        "GDELT_DOC": 0,
        "DIRECT_FEED": 0,
        "USGS": 0,
        "GDACS": 0
      },
      "last7_score": 102.777,
      "prev7_score": 16.14,
      "trend": "up",
      "trend_arrow": "🔺",
      "change_pct": 536.8,
      "place": "Jász-Nagykun-Szolnok, Hungary"
    },
    {
      "lon": 24.25,
      "lat": 56.75,
      "type": "hotspot_cell",
      "score": 100.753,
      "count": 157,
      "cell_deg": 0.5,
      "sources": {
        "GDELT": 26,
        "GDELT_DOC": 0,
        "DIRECT_FEED": 131,
        "USGS": 0,
        "GDACS": 0
      },
      "last7_score": 97.381,
      "prev7_score": 3.371,
      "trend": "up",
      "trend_arrow": "🔺",
      "change_pct": 2788.6,
      "place": "Ķekavas novads, Latvia"
    },
    {
      "lon": 25.25,
      "lat": 46.25,
      "type": "hotspot_cell",
      "score": 97.984,
      "count": 316,
      "cell_deg": 0.5,
      "sources": {
        "GDELT": 316,
        "GDELT_DOC": 0,
        "DIRECT_FEED": 0,
        "USGS": 0,
        "GDACS": 0
      },
      "last7_score": 69.056,
      "prev7_score": 28.928,
      "trend": "up",
      "trend_arrow": "🔺",
      "change_pct": 138.7,
      "place": "Harghita, Romania"
    },
    {
      "lon": 21.25,
      "lat": 52.25,
      "type": "hotspot_cell",
      "score": 65.102,
      "count": 157,
      "cell_deg": 0.5,
      "sources": {
        "GDELT": 157,
        "GDELT_DOC": 0,
        "DIRECT_FEED": 0,
        "USGS": 0,
        "GDACS": 0
      },
      "last7_score": 55.511,
      "prev7_score": 9.59,
      "trend": "up",
      "trend_arrow": "🔺",
      "change_pct": 478.8,
      "place": "Warsaw, Poland"
    },
    {
      "lon": 27.75,
      "lat": 47.25,
      "type": "hotspot_cell",
      "score": 57.811,
      "count": 96,
      "cell_deg": 0.5,
      "sources": {
        "GDELT": 0,
        "GDELT_DOC": 96,
        "DIRECT_FEED": 0,
        "USGS": 0,
        "GDACS": 0
      },
      "last7_score": 57.811,
      "prev7_score": 0.0,
      "trend": "new",
      "trend_arrow": "🆕",
      "change_pct": null,
      "place": "Iași, Romania"
    }
  ]
}