{
  "generated_utc": "2026-04-19T02:49:00Z",
  "top": [
    {
      "lon": 14.25,
      "lat": 50.25,
      "type": "hotspot_cell",
      "score": 854.206,
      "count": 1442,
      "cell_deg": 0.5,
      "sources": {
        "GDELT": 123,
        "GDELT_DOC": 1319,
        "DIRECT_FEED": 0,
        "USGS": 0,
        "GDACS": 0
      },
      "last7_score": 849.147,
      "prev7_score": 5.059,
      "trend": "up",
      "trend_arrow": "🔺",
      "change_pct": 16685.5,
      "place": "SO ORP Kralupy nad Vltavou, Czechia"
    },
    {
      "lon": 26.25,
      "lat": 44.25,
      "type": "hotspot_cell",
      "score": 709.116,
      "count": 1238,
      "cell_deg": 0.5,
      "sources": {
        "GDELT": 106,
        "GDELT_DOC": 1130,
        "DIRECT_FEED": 2,
        "USGS": 0,
        "GDACS": 0
      },
      "last7_score": 703.858,
      "prev7_score": 5.259,
      "trend": "up",
      "trend_arrow": "🔺",
      "change_pct": 13284.8,
      "place": "Giurgiu, Romania"
    },
    {
      "lon": 19.25,
      "lat": 47.75,
      "type": "hotspot_cell",
      "score": 552.016,
      "count": 1510,
      "cell_deg": 0.5,
      "sources": {
        "GDELT": 1183,
        "GDELT_DOC": 0,
        "DIRECT_FEED": 327,
        "USGS": 0,
        "GDACS": 0
      },
      "last7_score": 460.602,
      "prev7_score": 91.413,
      "trend": "up",
      "trend_arrow": "🔺",
      "change_pct": 403.9,
      "place": "Pest, Hungary"
    },
    {
      "lon": 25.25,
      "lat": 54.75,
      "type": "hotspot_cell",
      "score": 489.479,
      "count": 818,
      "cell_deg": 0.5,
      "sources": {
        "GDELT": 74,
        "GDELT_DOC": 744,
        "DIRECT_FEED": 0,
        "USGS": 0,
        "GDACS": 0
      },
      "last7_score": 485.221,
      "prev7_score": 4.258,
      "trend": "up",
      "trend_arrow": "🔺",
      "change_pct": 11296.4,
      "place": "Vilnius County, Lithuania"
    },
    {
      "lon": 20.25,
      "lat": 47.25,
      "type": "hotspot_cell",
      "score": 286.544,
      "count": 796,
      "cell_deg": 0.5,
      "sources": {
        "GDELT": 796,
        "GDELT_DOC": 0,
        "DIRECT_FEED": 0,
        "USGS": 0,
        "GDACS": 0
      },
      "last7_score": 232.865,
      "prev7_score": 53.679,
      "trend": "up",
      "trend_arrow": "🔺",
      "change_pct": 333.8,
      "place": "Jász-Nagykun-Szolnok, Hungary"
    },
    {
      "lon": 20.25,
      "lat": 52.25,
      "type": "hotspot_cell",
      "score": 153.001,
      "count": 393,
      "cell_deg": 0.5,
      "sources": {
        "GDELT": 393,
        "GDELT_DOC": 0,
        "DIRECT_FEED": 0,
        "USGS": 0,
        "GDACS": 0
      },
      "last7_score": 127.734,
      "prev7_score": 25.268,
      "trend": "up",
      "trend_arrow": "🔺",
      "change_pct": 405.5,
      "place": "Sochaczew County, Poland"
    },
    {
      "lon": 24.25,
      "lat": 56.75,
      "type": "hotspot_cell",
      "score": 98.429,
      "count": 159,
      "cell_deg": 0.5,
      "sources": {
        "GDELT": 32,
        "GDELT_DOC": 0,
        "DIRECT_FEED": 127,
        "USGS": 0,
        "GDACS": 0
      },
      "last7_score": 96.756,
      "prev7_score": 1.673,
      "trend": "up",
      "trend_arrow": "🔺",
      "change_pct": 5684.5,
      "place": "Ķekavas novads, Latvia"
    },
    {
      "lon": 25.25,
      "lat": 46.25,
      "type": "hotspot_cell",
      "score": 93.266,
      "count": 256,
      "cell_deg": 0.5,
      "sources": {
        "GDELT": 256,
        "GDELT_DOC": 0,
        "DIRECT_FEED": 0,
        "USGS": 0,
        "GDACS": 0
      },
      "last7_score": 80.516,
      "prev7_score": 12.75,
      "trend": "up",
      "trend_arrow": "🔺",
      "change_pct": 531.5,
      "place": "Harghita, Romania"
    },
    {
      "lon": 21.25,
      "lat": 52.25,
      "type": "hotspot_cell",
      "score": 70.711,
      "count": 175,
      "cell_deg": 0.5,
      "sources": {
        "GDELT": 175,
        "GDELT_DOC": 0,
        "DIRECT_FEED": 0,
        "USGS": 0,
        "GDACS": 0
      },
      "last7_score": 64.139,
      "prev7_score": 6.572,
      "trend": "up",
      "trend_arrow": "🔺",
      "change_pct": 876.0,
      "place": "Warsaw, Poland"
    },
    {
      "lon": 15.25,
      "lat": 49.75,
      "type": "hotspot_cell",
      "score": 70.14,
      "count": 173,
      "cell_deg": 0.5,
      "sources": {
        "GDELT": 173,
        "GDELT_DOC": 0,
        "DIRECT_FEED": 0,
        "USGS": 0,
        "GDACS": 0
      },
      "last7_score": 59.919,
      "prev7_score": 10.221,
      "trend": "up",
      "trend_arrow": "🔺",
      "change_pct": 486.2,
      "place": "Vysočina Region, Czechia"
    }
  ]
}