{
  "generated_utc": "2026-04-26T13:14:01Z",
  "top": [
    {
      "lon": 14.25,
      "lat": 50.25,
      "type": "hotspot_cell",
      "score": 1013.535,
      "count": 1723,
      "cell_deg": 0.5,
      "sources": {
        "GDELT": 182,
        "GDELT_DOC": 1538,
        "DIRECT_FEED": 3,
        "USGS": 0,
        "GDACS": 0
      },
      "last7_score": 1000.169,
      "prev7_score": 13.365,
      "trend": "up",
      "trend_arrow": "🔺",
      "change_pct": 7383.4,
      "place": "SO ORP Kralupy nad Vltavou, Czechia"
    },
    {
      "lon": 26.25,
      "lat": 44.25,
      "type": "hotspot_cell",
      "score": 986.23,
      "count": 1537,
      "cell_deg": 0.5,
      "sources": {
        "GDELT": 138,
        "GDELT_DOC": 1391,
        "DIRECT_FEED": 8,
        "USGS": 0,
        "GDACS": 0
      },
      "last7_score": 979.625,
      "prev7_score": 6.605,
      "trend": "up",
      "trend_arrow": "🔺",
      "change_pct": 14731.6,
      "place": "Giurgiu, Romania"
    },
    {
      "lon": 25.25,
      "lat": 54.75,
      "type": "hotspot_cell",
      "score": 702.531,
      "count": 1224,
      "cell_deg": 0.5,
      "sources": {
        "GDELT": 74,
        "GDELT_DOC": 1150,
        "DIRECT_FEED": 0,
        "USGS": 0,
        "GDACS": 0
      },
      "last7_score": 698.049,
      "prev7_score": 4.482,
      "trend": "up",
      "trend_arrow": "🔺",
      "change_pct": 15474.4,
      "place": "Vilnius County, Lithuania"
    },
    {
      "lon": 19.25,
      "lat": 47.75,
      "type": "hotspot_cell",
      "score": 318.626,
      "count": 1074,
      "cell_deg": 0.5,
      "sources": {
        "GDELT": 826,
        "GDELT_DOC": 0,
        "DIRECT_FEED": 248,
        "USGS": 0,
        "GDACS": 0
      },
      "last7_score": 267.83,
      "prev7_score": 50.796,
      "trend": "up",
      "trend_arrow": "🔺",
      "change_pct": 427.3,
      "place": "Pest, Hungary"
    },
    {
      "lon": 20.25,
      "lat": 47.25,
      "type": "hotspot_cell",
      "score": 226.838,
      "count": 802,
      "cell_deg": 0.5,
      "sources": {
        "GDELT": 802,
        "GDELT_DOC": 0,
        "DIRECT_FEED": 0,
        "USGS": 0,
        "GDACS": 0
      },
      "last7_score": 179.082,
      "prev7_score": 47.756,
      "trend": "up",
      "trend_arrow": "🔺",
      "change_pct": 275.0,
      "place": "Jász-Nagykun-Szolnok, Hungary"
    },
    {
      "lon": 20.25,
      "lat": 52.25,
      "type": "hotspot_cell",
      "score": 170.083,
      "count": 476,
      "cell_deg": 0.5,
      "sources": {
        "GDELT": 476,
        "GDELT_DOC": 0,
        "DIRECT_FEED": 0,
        "USGS": 0,
        "GDACS": 0
      },
      "last7_score": 141.956,
      "prev7_score": 28.127,
      "trend": "up",
      "trend_arrow": "🔺",
      "change_pct": 404.7,
      "place": "Sochaczew County, Poland"
    },
    {
      "lon": 26.75,
      "lat": 47.75,
      "type": "hotspot_cell",
      "score": 146.283,
      "count": 153,
      "cell_deg": 0.5,
      "sources": {
        "GDELT": 2,
        "GDELT_DOC": 149,
        "DIRECT_FEED": 2,
        "USGS": 0,
        "GDACS": 0
      },
      "last7_score": 146.126,
      "prev7_score": 0.157,
      "trend": "up",
      "trend_arrow": "🔺",
      "change_pct": 92756.2,
      "place": "Botoșani, Romania"
    },
    {
      "lon": 24.25,
      "lat": 56.75,
      "type": "hotspot_cell",
      "score": 106.879,
      "count": 177,
      "cell_deg": 0.5,
      "sources": {
        "GDELT": 33,
        "GDELT_DOC": 0,
        "DIRECT_FEED": 144,
        "USGS": 0,
        "GDACS": 0
      },
      "last7_score": 104.762,
      "prev7_score": 2.118,
      "trend": "up",
      "trend_arrow": "🔺",
      "change_pct": 4847.0,
      "place": "Ķekavas novads, Latvia"
    },
    {
      "lon": 22.25,
      "lat": 55.25,
      "type": "hotspot_cell",
      "score": 94.132,
      "count": 111,
      "cell_deg": 0.5,
      "sources": {
        "GDELT": 0,
        "GDELT_DOC": 110,
        "DIRECT_FEED": 1,
        "USGS": 0,
        "GDACS": 0
      },
      "last7_score": 94.132,
      "prev7_score": 0.0,
      "trend": "new",
      "trend_arrow": "🆕",
      "change_pct": null,
      "place": "Tauragės seniūnija, Lithuania"
    },
    {
      "lon": 25.25,
      "lat": 46.25,
      "type": "hotspot_cell",
      "score": 92.398,
      "count": 278,
      "cell_deg": 0.5,
      "sources": {
        "GDELT": 278,
        "GDELT_DOC": 0,
        "DIRECT_FEED": 0,
        "USGS": 0,
        "GDACS": 0
      },
      "last7_score": 76.765,
      "prev7_score": 15.633,
      "trend": "up",
      "trend_arrow": "🔺",
      "change_pct": 391.1,
      "place": "Harghita, Romania"
    }
  ]
}