{
  "generated_utc": "2026-07-07T19:53:28Z",
  "top": [
    {
      "lon": 14.25,
      "lat": 50.25,
      "type": "hotspot_cell",
      "score": 346.458,
      "count": 406,
      "cell_deg": 0.5,
      "sources": {
        "GDELT": 119,
        "GDELT_DOC": 285,
        "DIRECT_FEED": 2,
        "USGS": 0,
        "GDACS": 0
      },
      "last7_score": 337.645,
      "prev7_score": 8.813,
      "trend": "up",
      "trend_arrow": "🔺",
      "change_pct": 3731.2,
      "place": "SO ORP Kralupy nad Vltavou, Czechia"
    },
    {
      "lon": 26.25,
      "lat": 44.25,
      "type": "hotspot_cell",
      "score": 332.352,
      "count": 476,
      "cell_deg": 0.5,
      "sources": {
        "GDELT": 136,
        "GDELT_DOC": 333,
        "DIRECT_FEED": 7,
        "USGS": 0,
        "GDACS": 0
      },
      "last7_score": 322.667,
      "prev7_score": 9.685,
      "trend": "up",
      "trend_arrow": "🔺",
      "change_pct": 3231.6,
      "place": "Giurgiu, Romania"
    },
    {
      "lon": 20.25,
      "lat": 52.25,
      "type": "hotspot_cell",
      "score": 207.28,
      "count": 569,
      "cell_deg": 0.5,
      "sources": {
        "GDELT": 569,
        "GDELT_DOC": 0,
        "DIRECT_FEED": 0,
        "USGS": 0,
        "GDACS": 0
      },
      "last7_score": 172.663,
      "prev7_score": 34.617,
      "trend": "up",
      "trend_arrow": "🔺",
      "change_pct": 398.8,
      "place": "Sochaczew County, Poland"
    },
    {
      "lon": 19.25,
      "lat": 47.75,
      "type": "hotspot_cell",
      "score": 155.415,
      "count": 325,
      "cell_deg": 0.5,
      "sources": {
        "GDELT": 164,
        "GDELT_DOC": 0,
        "DIRECT_FEED": 161,
        "USGS": 0,
        "GDACS": 0
      },
      "last7_score": 143.974,
      "prev7_score": 11.441,
      "trend": "up",
      "trend_arrow": "🔺",
      "change_pct": 1158.4,
      "place": "Pest, Hungary"
    },
    {
      "lon": 25.25,
      "lat": 46.25,
      "type": "hotspot_cell",
      "score": 138.308,
      "count": 356,
      "cell_deg": 0.5,
      "sources": {
        "GDELT": 356,
        "GDELT_DOC": 0,
        "DIRECT_FEED": 0,
        "USGS": 0,
        "GDACS": 0
      },
      "last7_score": 116.82,
      "prev7_score": 21.488,
      "trend": "up",
      "trend_arrow": "🔺",
      "change_pct": 443.7,
      "place": "Harghita, Romania"
    },
    {
      "lon": 25.25,
      "lat": 54.75,
      "type": "hotspot_cell",
      "score": 122.972,
      "count": 178,
      "cell_deg": 0.5,
      "sources": {
        "GDELT": 69,
        "GDELT_DOC": 108,
        "DIRECT_FEED": 1,
        "USGS": 0,
        "GDACS": 0
      },
      "last7_score": 118.215,
      "prev7_score": 4.757,
      "trend": "up",
      "trend_arrow": "🔺",
      "change_pct": 2385.0,
      "place": "Vilnius County, Lithuania"
    },
    {
      "lon": 24.25,
      "lat": 56.75,
      "type": "hotspot_cell",
      "score": 109.685,
      "count": 160,
      "cell_deg": 0.5,
      "sources": {
        "GDELT": 23,
        "GDELT_DOC": 0,
        "DIRECT_FEED": 137,
        "USGS": 0,
        "GDACS": 0
      },
      "last7_score": 108.305,
      "prev7_score": 1.38,
      "trend": "up",
      "trend_arrow": "🔺",
      "change_pct": 7748.3,
      "place": "Ķekavas novads, Latvia"
    },
    {
      "lon": 21.25,
      "lat": 52.25,
      "type": "hotspot_cell",
      "score": 98.905,
      "count": 291,
      "cell_deg": 0.5,
      "sources": {
        "GDELT": 291,
        "GDELT_DOC": 0,
        "DIRECT_FEED": 0,
        "USGS": 0,
        "GDACS": 0
      },
      "last7_score": 81.826,
      "prev7_score": 17.08,
      "trend": "up",
      "trend_arrow": "🔺",
      "change_pct": 379.1,
      "place": "Warsaw, Poland"
    },
    {
      "lon": 20.25,
      "lat": 47.25,
      "type": "hotspot_cell",
      "score": 65.468,
      "count": 166,
      "cell_deg": 0.5,
      "sources": {
        "GDELT": 166,
        "GDELT_DOC": 0,
        "DIRECT_FEED": 0,
        "USGS": 0,
        "GDACS": 0
      },
      "last7_score": 55.906,
      "prev7_score": 9.562,
      "trend": "up",
      "trend_arrow": "🔺",
      "change_pct": 484.6,
      "place": "Jász-Nagykun-Szolnok, Hungary"
    },
    {
      "lon": 15.25,
      "lat": 49.75,
      "type": "hotspot_cell",
      "score": 61.387,
      "count": 173,
      "cell_deg": 0.5,
      "sources": {
        "GDELT": 173,
        "GDELT_DOC": 0,
        "DIRECT_FEED": 0,
        "USGS": 0,
        "GDACS": 0
      },
      "last7_score": 49.129,
      "prev7_score": 12.257,
      "trend": "up",
      "trend_arrow": "🔺",
      "change_pct": 300.8,
      "place": "Vysočina Region, Czechia"
    }
  ]
}