{
  "generated_utc": "2026-07-10T19:26:45Z",
  "top": [
    {
      "lon": 14.25,
      "lat": 50.25,
      "type": "hotspot_cell",
      "score": 874.871,
      "count": 1149,
      "cell_deg": 0.5,
      "sources": {
        "GDELT": 109,
        "GDELT_DOC": 1035,
        "DIRECT_FEED": 5,
        "USGS": 0,
        "GDACS": 0
      },
      "last7_score": 866.451,
      "prev7_score": 8.42,
      "trend": "up",
      "trend_arrow": "🔺",
      "change_pct": 10190.3,
      "place": "SO ORP Kralupy nad Vltavou, Czechia"
    },
    {
      "lon": 25.25,
      "lat": 54.75,
      "type": "hotspot_cell",
      "score": 565.538,
      "count": 728,
      "cell_deg": 0.5,
      "sources": {
        "GDELT": 75,
        "GDELT_DOC": 651,
        "DIRECT_FEED": 2,
        "USGS": 0,
        "GDACS": 0
      },
      "last7_score": 559.61,
      "prev7_score": 5.928,
      "trend": "up",
      "trend_arrow": "🔺",
      "change_pct": 9340.4,
      "place": "Vilnius County, Lithuania"
    },
    {
      "lon": 26.25,
      "lat": 44.25,
      "type": "hotspot_cell",
      "score": 527.271,
      "count": 854,
      "cell_deg": 0.5,
      "sources": {
        "GDELT": 131,
        "GDELT_DOC": 720,
        "DIRECT_FEED": 3,
        "USGS": 0,
        "GDACS": 0
      },
      "last7_score": 517.38,
      "prev7_score": 9.892,
      "trend": "up",
      "trend_arrow": "🔺",
      "change_pct": 5130.4,
      "place": "Giurgiu, Romania"
    },
    {
      "lon": 19.25,
      "lat": 47.75,
      "type": "hotspot_cell",
      "score": 184.061,
      "count": 315,
      "cell_deg": 0.5,
      "sources": {
        "GDELT": 160,
        "GDELT_DOC": 0,
        "DIRECT_FEED": 155,
        "USGS": 0,
        "GDACS": 0
      },
      "last7_score": 173.958,
      "prev7_score": 10.104,
      "trend": "up",
      "trend_arrow": "🔺",
      "change_pct": 1621.7,
      "place": "Pest, Hungary"
    },
    {
      "lon": 20.25,
      "lat": 52.25,
      "type": "hotspot_cell",
      "score": 183.787,
      "count": 524,
      "cell_deg": 0.5,
      "sources": {
        "GDELT": 524,
        "GDELT_DOC": 0,
        "DIRECT_FEED": 0,
        "USGS": 0,
        "GDACS": 0
      },
      "last7_score": 143.851,
      "prev7_score": 39.935,
      "trend": "up",
      "trend_arrow": "🔺",
      "change_pct": 260.2,
      "place": "Sochaczew County, Poland"
    },
    {
      "lon": 25.25,
      "lat": 46.25,
      "type": "hotspot_cell",
      "score": 160.412,
      "count": 366,
      "cell_deg": 0.5,
      "sources": {
        "GDELT": 366,
        "GDELT_DOC": 0,
        "DIRECT_FEED": 0,
        "USGS": 0,
        "GDACS": 0
      },
      "last7_score": 136.607,
      "prev7_score": 23.805,
      "trend": "up",
      "trend_arrow": "🔺",
      "change_pct": 473.9,
      "place": "Harghita, Romania"
    },
    {
      "lon": 24.25,
      "lat": 56.75,
      "type": "hotspot_cell",
      "score": 103.2,
      "count": 148,
      "cell_deg": 0.5,
      "sources": {
        "GDELT": 20,
        "GDELT_DOC": 0,
        "DIRECT_FEED": 128,
        "USGS": 0,
        "GDACS": 0
      },
      "last7_score": 101.916,
      "prev7_score": 1.284,
      "trend": "up",
      "trend_arrow": "🔺",
      "change_pct": 7837.2,
      "place": "Ķekavas novads, Latvia"
    },
    {
      "lon": 21.25,
      "lat": 52.25,
      "type": "hotspot_cell",
      "score": 90.69,
      "count": 258,
      "cell_deg": 0.5,
      "sources": {
        "GDELT": 258,
        "GDELT_DOC": 0,
        "DIRECT_FEED": 0,
        "USGS": 0,
        "GDACS": 0
      },
      "last7_score": 72.098,
      "prev7_score": 18.593,
      "trend": "up",
      "trend_arrow": "🔺",
      "change_pct": 287.8,
      "place": "Warsaw, Poland"
    },
    {
      "lon": 20.25,
      "lat": 47.25,
      "type": "hotspot_cell",
      "score": 79.468,
      "count": 171,
      "cell_deg": 0.5,
      "sources": {
        "GDELT": 171,
        "GDELT_DOC": 0,
        "DIRECT_FEED": 0,
        "USGS": 0,
        "GDACS": 0
      },
      "last7_score": 69.037,
      "prev7_score": 10.431,
      "trend": "up",
      "trend_arrow": "🔺",
      "change_pct": 561.9,
      "place": "Jász-Nagykun-Szolnok, Hungary"
    },
    {
      "lon": 15.25,
      "lat": 49.75,
      "type": "hotspot_cell",
      "score": 71.792,
      "count": 181,
      "cell_deg": 0.5,
      "sources": {
        "GDELT": 181,
        "GDELT_DOC": 0,
        "DIRECT_FEED": 0,
        "USGS": 0,
        "GDACS": 0
      },
      "last7_score": 60.226,
      "prev7_score": 11.566,
      "trend": "up",
      "trend_arrow": "🔺",
      "change_pct": 420.7,
      "place": "Vysočina Region, Czechia"
    }
  ]
}