{
  "generated_utc": "2026-06-24T02:37:01Z",
  "top": [
    {
      "lon": 26.25,
      "lat": 44.25,
      "type": "hotspot_cell",
      "score": 634.01,
      "count": 1015,
      "cell_deg": 0.5,
      "sources": {
        "GDELT": 137,
        "GDELT_DOC": 873,
        "DIRECT_FEED": 5,
        "USGS": 0,
        "GDACS": 0
      },
      "last7_score": 621.821,
      "prev7_score": 12.188,
      "trend": "up",
      "trend_arrow": "🔺",
      "change_pct": 5001.8,
      "place": "Giurgiu, Romania"
    },
    {
      "lon": 14.25,
      "lat": 50.25,
      "type": "hotspot_cell",
      "score": 575.185,
      "count": 839,
      "cell_deg": 0.5,
      "sources": {
        "GDELT": 123,
        "GDELT_DOC": 705,
        "DIRECT_FEED": 11,
        "USGS": 0,
        "GDACS": 0
      },
      "last7_score": 566.649,
      "prev7_score": 8.536,
      "trend": "up",
      "trend_arrow": "🔺",
      "change_pct": 6538.6,
      "place": "SO ORP Kralupy nad Vltavou, Czechia"
    },
    {
      "lon": 25.25,
      "lat": 54.75,
      "type": "hotspot_cell",
      "score": 403.474,
      "count": 808,
      "cell_deg": 0.5,
      "sources": {
        "GDELT": 54,
        "GDELT_DOC": 754,
        "DIRECT_FEED": 0,
        "USGS": 0,
        "GDACS": 0
      },
      "last7_score": 398.519,
      "prev7_score": 4.954,
      "trend": "up",
      "trend_arrow": "🔺",
      "change_pct": 7944.0,
      "place": "Vilnius County, Lithuania"
    },
    {
      "lon": 19.25,
      "lat": 47.75,
      "type": "hotspot_cell",
      "score": 192.445,
      "count": 349,
      "cell_deg": 0.5,
      "sources": {
        "GDELT": 174,
        "GDELT_DOC": 0,
        "DIRECT_FEED": 175,
        "USGS": 0,
        "GDACS": 0
      },
      "last7_score": 179.762,
      "prev7_score": 12.683,
      "trend": "up",
      "trend_arrow": "🔺",
      "change_pct": 1317.4,
      "place": "Pest, Hungary"
    },
    {
      "lon": 20.25,
      "lat": 52.25,
      "type": "hotspot_cell",
      "score": 174.87,
      "count": 464,
      "cell_deg": 0.5,
      "sources": {
        "GDELT": 464,
        "GDELT_DOC": 0,
        "DIRECT_FEED": 0,
        "USGS": 0,
        "GDACS": 0
      },
      "last7_score": 137.707,
      "prev7_score": 37.163,
      "trend": "up",
      "trend_arrow": "🔺",
      "change_pct": 270.6,
      "place": "Sochaczew County, Poland"
    },
    {
      "lon": 21.25,
      "lat": 52.25,
      "type": "hotspot_cell",
      "score": 142.892,
      "count": 293,
      "cell_deg": 0.5,
      "sources": {
        "GDELT": 293,
        "GDELT_DOC": 0,
        "DIRECT_FEED": 0,
        "USGS": 0,
        "GDACS": 0
      },
      "last7_score": 124.061,
      "prev7_score": 18.831,
      "trend": "up",
      "trend_arrow": "🔺",
      "change_pct": 558.8,
      "place": "Warsaw, Poland"
    },
    {
      "lon": 25.25,
      "lat": 46.25,
      "type": "hotspot_cell",
      "score": 141.843,
      "count": 379,
      "cell_deg": 0.5,
      "sources": {
        "GDELT": 379,
        "GDELT_DOC": 0,
        "DIRECT_FEED": 0,
        "USGS": 0,
        "GDACS": 0
      },
      "last7_score": 108.999,
      "prev7_score": 32.844,
      "trend": "up",
      "trend_arrow": "🔺",
      "change_pct": 231.9,
      "place": "Harghita, Romania"
    },
    {
      "lon": 24.25,
      "lat": 56.75,
      "type": "hotspot_cell",
      "score": 109.32,
      "count": 172,
      "cell_deg": 0.5,
      "sources": {
        "GDELT": 35,
        "GDELT_DOC": 0,
        "DIRECT_FEED": 137,
        "USGS": 0,
        "GDACS": 0
      },
      "last7_score": 106.948,
      "prev7_score": 2.372,
      "trend": "up",
      "trend_arrow": "🔺",
      "change_pct": 4408.7,
      "place": "Ķekavas novads, Latvia"
    },
    {
      "lon": 20.25,
      "lat": 47.25,
      "type": "hotspot_cell",
      "score": 92.225,
      "count": 240,
      "cell_deg": 0.5,
      "sources": {
        "GDELT": 239,
        "GDELT_DOC": 0,
        "DIRECT_FEED": 0,
        "USGS": 0,
        "GDACS": 1
      },
      "last7_score": 72.08,
      "prev7_score": 20.146,
      "trend": "up",
      "trend_arrow": "🔺",
      "change_pct": 257.8,
      "place": "Jász-Nagykun-Szolnok, Hungary"
    },
    {
      "lon": 15.25,
      "lat": 49.75,
      "type": "hotspot_cell",
      "score": 54.772,
      "count": 142,
      "cell_deg": 0.5,
      "sources": {
        "GDELT": 142,
        "GDELT_DOC": 0,
        "DIRECT_FEED": 0,
        "USGS": 0,
        "GDACS": 0
      },
      "last7_score": 43.486,
      "prev7_score": 11.286,
      "trend": "up",
      "trend_arrow": "🔺",
      "change_pct": 285.3,
      "place": "Vysočina Region, Czechia"
    }
  ]
}