{
  "generated_utc": "2026-05-15T14:14:27Z",
  "top": [
    {
      "lon": 14.25,
      "lat": 50.25,
      "type": "hotspot_cell",
      "score": 1064.227,
      "count": 1608,
      "cell_deg": 0.5,
      "sources": {
        "GDELT": 121,
        "GDELT_DOC": 1485,
        "DIRECT_FEED": 2,
        "USGS": 0,
        "GDACS": 0
      },
      "last7_score": 1054.756,
      "prev7_score": 9.471,
      "trend": "up",
      "trend_arrow": "🔺",
      "change_pct": 11037.1,
      "place": "SO ORP Kralupy nad Vltavou, Czechia"
    },
    {
      "lon": 26.25,
      "lat": 44.25,
      "type": "hotspot_cell",
      "score": 837.212,
      "count": 1407,
      "cell_deg": 0.5,
      "sources": {
        "GDELT": 226,
        "GDELT_DOC": 1175,
        "DIRECT_FEED": 6,
        "USGS": 0,
        "GDACS": 0
      },
      "last7_score": 823.954,
      "prev7_score": 13.259,
      "trend": "up",
      "trend_arrow": "🔺",
      "change_pct": 6114.5,
      "place": "Giurgiu, Romania"
    },
    {
      "lon": 25.25,
      "lat": 54.75,
      "type": "hotspot_cell",
      "score": 679.062,
      "count": 1070,
      "cell_deg": 0.5,
      "sources": {
        "GDELT": 70,
        "GDELT_DOC": 1000,
        "DIRECT_FEED": 0,
        "USGS": 0,
        "GDACS": 0
      },
      "last7_score": 672.58,
      "prev7_score": 6.482,
      "trend": "up",
      "trend_arrow": "🔺",
      "change_pct": 10275.4,
      "place": "Vilnius County, Lithuania"
    },
    {
      "lon": 19.25,
      "lat": 47.75,
      "type": "hotspot_cell",
      "score": 294.87,
      "count": 521,
      "cell_deg": 0.5,
      "sources": {
        "GDELT": 291,
        "GDELT_DOC": 0,
        "DIRECT_FEED": 230,
        "USGS": 0,
        "GDACS": 0
      },
      "last7_score": 276.094,
      "prev7_score": 18.777,
      "trend": "up",
      "trend_arrow": "🔺",
      "change_pct": 1370.4,
      "place": "Pest, Hungary"
    },
    {
      "lon": 20.25,
      "lat": 52.25,
      "type": "hotspot_cell",
      "score": 228.336,
      "count": 573,
      "cell_deg": 0.5,
      "sources": {
        "GDELT": 573,
        "GDELT_DOC": 0,
        "DIRECT_FEED": 0,
        "USGS": 0,
        "GDACS": 0
      },
      "last7_score": 188.868,
      "prev7_score": 39.469,
      "trend": "up",
      "trend_arrow": "🔺",
      "change_pct": 378.5,
      "place": "Sochaczew County, Poland"
    },
    {
      "lon": 24.25,
      "lat": 56.75,
      "type": "hotspot_cell",
      "score": 137.718,
      "count": 187,
      "cell_deg": 0.5,
      "sources": {
        "GDELT": 38,
        "GDELT_DOC": 0,
        "DIRECT_FEED": 149,
        "USGS": 0,
        "GDACS": 0
      },
      "last7_score": 134.834,
      "prev7_score": 2.885,
      "trend": "up",
      "trend_arrow": "🔺",
      "change_pct": 4574.3,
      "place": "Ķekavas novads, Latvia"
    },
    {
      "lon": 20.25,
      "lat": 47.25,
      "type": "hotspot_cell",
      "score": 122.56,
      "count": 286,
      "cell_deg": 0.5,
      "sources": {
        "GDELT": 286,
        "GDELT_DOC": 0,
        "DIRECT_FEED": 0,
        "USGS": 0,
        "GDACS": 0
      },
      "last7_score": 103.869,
      "prev7_score": 18.691,
      "trend": "up",
      "trend_arrow": "🔺",
      "change_pct": 455.7,
      "place": "Jász-Nagykun-Szolnok, Hungary"
    },
    {
      "lon": 25.25,
      "lat": 46.25,
      "type": "hotspot_cell",
      "score": 117.43,
      "count": 308,
      "cell_deg": 0.5,
      "sources": {
        "GDELT": 308,
        "GDELT_DOC": 0,
        "DIRECT_FEED": 0,
        "USGS": 0,
        "GDACS": 0
      },
      "last7_score": 94.694,
      "prev7_score": 22.736,
      "trend": "up",
      "trend_arrow": "🔺",
      "change_pct": 316.5,
      "place": "Harghita, Romania"
    },
    {
      "lon": 25.25,
      "lat": 57.25,
      "type": "hotspot_cell",
      "score": 101.166,
      "count": 156,
      "cell_deg": 0.5,
      "sources": {
        "GDELT": 156,
        "GDELT_DOC": 0,
        "DIRECT_FEED": 0,
        "USGS": 0,
        "GDACS": 0
      },
      "last7_score": 94.4,
      "prev7_score": 6.766,
      "trend": "up",
      "trend_arrow": "🔺",
      "change_pct": 1295.1,
      "place": "Cēsu novads, Latvia"
    },
    {
      "lon": 21.25,
      "lat": 52.25,
      "type": "hotspot_cell",
      "score": 83.975,
      "count": 189,
      "cell_deg": 0.5,
      "sources": {
        "GDELT": 189,
        "GDELT_DOC": 0,
        "DIRECT_FEED": 0,
        "USGS": 0,
        "GDACS": 0
      },
      "last7_score": 69.719,
      "prev7_score": 14.255,
      "trend": "up",
      "trend_arrow": "🔺",
      "change_pct": 389.1,
      "place": "Warsaw, Poland"
    }
  ]
}