{
  "generated_utc": "2026-07-05T19:10:42Z",
  "top": [
    {
      "lon": 26.25,
      "lat": 44.25,
      "type": "hotspot_cell",
      "score": 205.005,
      "count": 422,
      "cell_deg": 0.5,
      "sources": {
        "GDELT": 144,
        "GDELT_DOC": 272,
        "DIRECT_FEED": 6,
        "USGS": 0,
        "GDACS": 0
      },
      "last7_score": 197.708,
      "prev7_score": 7.297,
      "trend": "up",
      "trend_arrow": "🔺",
      "change_pct": 2609.4,
      "place": "Giurgiu, Romania"
    },
    {
      "lon": 20.25,
      "lat": 52.25,
      "type": "hotspot_cell",
      "score": 173.789,
      "count": 549,
      "cell_deg": 0.5,
      "sources": {
        "GDELT": 549,
        "GDELT_DOC": 0,
        "DIRECT_FEED": 0,
        "USGS": 0,
        "GDACS": 0
      },
      "last7_score": 141.521,
      "prev7_score": 32.268,
      "trend": "up",
      "trend_arrow": "🔺",
      "change_pct": 338.6,
      "place": "Sochaczew County, Poland"
    },
    {
      "lon": 19.25,
      "lat": 47.75,
      "type": "hotspot_cell",
      "score": 162.29,
      "count": 365,
      "cell_deg": 0.5,
      "sources": {
        "GDELT": 183,
        "GDELT_DOC": 0,
        "DIRECT_FEED": 182,
        "USGS": 0,
        "GDACS": 0
      },
      "last7_score": 149.767,
      "prev7_score": 12.523,
      "trend": "up",
      "trend_arrow": "🔺",
      "change_pct": 1096.0,
      "place": "Pest, Hungary"
    },
    {
      "lon": 25.25,
      "lat": 54.75,
      "type": "hotspot_cell",
      "score": 141.246,
      "count": 319,
      "cell_deg": 0.5,
      "sources": {
        "GDELT": 70,
        "GDELT_DOC": 249,
        "DIRECT_FEED": 0,
        "USGS": 0,
        "GDACS": 0
      },
      "last7_score": 138.259,
      "prev7_score": 2.988,
      "trend": "up",
      "trend_arrow": "🔺",
      "change_pct": 4527.9,
      "place": "Vilnius County, Lithuania"
    },
    {
      "lon": 14.25,
      "lat": 50.25,
      "type": "hotspot_cell",
      "score": 121.336,
      "count": 358,
      "cell_deg": 0.5,
      "sources": {
        "GDELT": 132,
        "GDELT_DOC": 225,
        "DIRECT_FEED": 1,
        "USGS": 0,
        "GDACS": 0
      },
      "last7_score": 113.713,
      "prev7_score": 7.622,
      "trend": "up",
      "trend_arrow": "🔺",
      "change_pct": 1391.9,
      "place": "SO ORP Kralupy nad Vltavou, Czechia"
    },
    {
      "lon": 25.25,
      "lat": 46.25,
      "type": "hotspot_cell",
      "score": 109.974,
      "count": 355,
      "cell_deg": 0.5,
      "sources": {
        "GDELT": 355,
        "GDELT_DOC": 0,
        "DIRECT_FEED": 0,
        "USGS": 0,
        "GDACS": 0
      },
      "last7_score": 90.253,
      "prev7_score": 19.721,
      "trend": "up",
      "trend_arrow": "🔺",
      "change_pct": 357.7,
      "place": "Harghita, Romania"
    },
    {
      "lon": 21.25,
      "lat": 52.25,
      "type": "hotspot_cell",
      "score": 108.888,
      "count": 321,
      "cell_deg": 0.5,
      "sources": {
        "GDELT": 321,
        "GDELT_DOC": 0,
        "DIRECT_FEED": 0,
        "USGS": 0,
        "GDACS": 0
      },
      "last7_score": 90.863,
      "prev7_score": 18.025,
      "trend": "up",
      "trend_arrow": "🔺",
      "change_pct": 404.1,
      "place": "Warsaw, Poland"
    },
    {
      "lon": 24.25,
      "lat": 56.75,
      "type": "hotspot_cell",
      "score": 103.776,
      "count": 166,
      "cell_deg": 0.5,
      "sources": {
        "GDELT": 25,
        "GDELT_DOC": 0,
        "DIRECT_FEED": 141,
        "USGS": 0,
        "GDACS": 0
      },
      "last7_score": 102.701,
      "prev7_score": 1.075,
      "trend": "up",
      "trend_arrow": "🔺",
      "change_pct": 9457.7,
      "place": "Ķekavas novads, Latvia"
    },
    {
      "lon": 15.25,
      "lat": 49.75,
      "type": "hotspot_cell",
      "score": 56.73,
      "count": 168,
      "cell_deg": 0.5,
      "sources": {
        "GDELT": 168,
        "GDELT_DOC": 0,
        "DIRECT_FEED": 0,
        "USGS": 0,
        "GDACS": 0
      },
      "last7_score": 46.747,
      "prev7_score": 9.983,
      "trend": "up",
      "trend_arrow": "🔺",
      "change_pct": 368.3,
      "place": "Vysočina Region, Czechia"
    },
    {
      "lon": 20.25,
      "lat": 47.25,
      "type": "hotspot_cell",
      "score": 50.035,
      "count": 178,
      "cell_deg": 0.5,
      "sources": {
        "GDELT": 178,
        "GDELT_DOC": 0,
        "DIRECT_FEED": 0,
        "USGS": 0,
        "GDACS": 0
      },
      "last7_score": 39.147,
      "prev7_score": 10.888,
      "trend": "up",
      "trend_arrow": "🔺",
      "change_pct": 259.5,
      "place": "Jász-Nagykun-Szolnok, Hungary"
    }
  ]
}