{
  "generated_utc": "2026-03-25T13:19:58Z",
  "top": [
    {
      "lon": 14.25,
      "lat": 50.25,
      "type": "hotspot_cell",
      "score": 771.704,
      "count": 1267,
      "cell_deg": 0.5,
      "sources": {
        "GDELT": 110,
        "GDELT_DOC": 1154,
        "DIRECT_FEED": 3,
        "USGS": 0,
        "GDACS": 0
      },
      "last7_score": 764.146,
      "prev7_score": 7.558,
      "trend": "up",
      "trend_arrow": "🔺",
      "change_pct": 10010.6,
      "place": "SO ORP Kralupy nad Vltavou, Czechia"
    },
    {
      "lon": 26.25,
      "lat": 44.25,
      "type": "hotspot_cell",
      "score": 770.767,
      "count": 1275,
      "cell_deg": 0.5,
      "sources": {
        "GDELT": 184,
        "GDELT_DOC": 1089,
        "DIRECT_FEED": 2,
        "USGS": 0,
        "GDACS": 0
      },
      "last7_score": 757.822,
      "prev7_score": 12.945,
      "trend": "up",
      "trend_arrow": "🔺",
      "change_pct": 5754.2,
      "place": "Giurgiu, Romania"
    },
    {
      "lon": 25.25,
      "lat": 54.75,
      "type": "hotspot_cell",
      "score": 584.431,
      "count": 930,
      "cell_deg": 0.5,
      "sources": {
        "GDELT": 90,
        "GDELT_DOC": 840,
        "DIRECT_FEED": 0,
        "USGS": 0,
        "GDACS": 0
      },
      "last7_score": 579.381,
      "prev7_score": 5.051,
      "trend": "up",
      "trend_arrow": "🔺",
      "change_pct": 11371.0,
      "place": "Vilnius County, Lithuania"
    },
    {
      "lon": 19.25,
      "lat": 47.75,
      "type": "hotspot_cell",
      "score": 274.866,
      "count": 568,
      "cell_deg": 0.5,
      "sources": {
        "GDELT": 341,
        "GDELT_DOC": 0,
        "DIRECT_FEED": 227,
        "USGS": 0,
        "GDACS": 0
      },
      "last7_score": 249.077,
      "prev7_score": 25.789,
      "trend": "up",
      "trend_arrow": "🔺",
      "change_pct": 865.8,
      "place": "Pest, Hungary"
    },
    {
      "lon": 20.25,
      "lat": 52.25,
      "type": "hotspot_cell",
      "score": 150.562,
      "count": 418,
      "cell_deg": 0.5,
      "sources": {
        "GDELT": 418,
        "GDELT_DOC": 0,
        "DIRECT_FEED": 0,
        "USGS": 0,
        "GDACS": 0
      },
      "last7_score": 117.797,
      "prev7_score": 32.765,
      "trend": "up",
      "trend_arrow": "🔺",
      "change_pct": 259.5,
      "place": "Sochaczew County, Poland"
    },
    {
      "lon": 20.25,
      "lat": 47.25,
      "type": "hotspot_cell",
      "score": 138.2,
      "count": 399,
      "cell_deg": 0.5,
      "sources": {
        "GDELT": 399,
        "GDELT_DOC": 0,
        "DIRECT_FEED": 0,
        "USGS": 0,
        "GDACS": 0
      },
      "last7_score": 112.576,
      "prev7_score": 25.624,
      "trend": "up",
      "trend_arrow": "🔺",
      "change_pct": 339.3,
      "place": "Jász-Nagykun-Szolnok, Hungary"
    },
    {
      "lon": 25.25,
      "lat": 46.25,
      "type": "hotspot_cell",
      "score": 130.526,
      "count": 321,
      "cell_deg": 0.5,
      "sources": {
        "GDELT": 321,
        "GDELT_DOC": 0,
        "DIRECT_FEED": 0,
        "USGS": 0,
        "GDACS": 0
      },
      "last7_score": 109.173,
      "prev7_score": 21.353,
      "trend": "up",
      "trend_arrow": "🔺",
      "change_pct": 411.3,
      "place": "Harghita, Romania"
    },
    {
      "lon": 24.25,
      "lat": 56.75,
      "type": "hotspot_cell",
      "score": 122.903,
      "count": 178,
      "cell_deg": 0.5,
      "sources": {
        "GDELT": 41,
        "GDELT_DOC": 0,
        "DIRECT_FEED": 137,
        "USGS": 0,
        "GDACS": 0
      },
      "last7_score": 120.452,
      "prev7_score": 2.451,
      "trend": "up",
      "trend_arrow": "🔺",
      "change_pct": 4814.4,
      "place": "Ķekavas novads, Latvia"
    },
    {
      "lon": 15.25,
      "lat": 49.75,
      "type": "hotspot_cell",
      "score": 70.623,
      "count": 172,
      "cell_deg": 0.5,
      "sources": {
        "GDELT": 172,
        "GDELT_DOC": 0,
        "DIRECT_FEED": 0,
        "USGS": 0,
        "GDACS": 0
      },
      "last7_score": 61.065,
      "prev7_score": 9.557,
      "trend": "up",
      "trend_arrow": "🔺",
      "change_pct": 539.0,
      "place": "Vysočina Region, Czechia"
    },
    {
      "lon": 27.75,
      "lat": 47.25,
      "type": "hotspot_cell",
      "score": 69.734,
      "count": 95,
      "cell_deg": 0.5,
      "sources": {
        "GDELT": 0,
        "GDELT_DOC": 95,
        "DIRECT_FEED": 0,
        "USGS": 0,
        "GDACS": 0
      },
      "last7_score": 69.734,
      "prev7_score": 0.0,
      "trend": "new",
      "trend_arrow": "🆕",
      "change_pct": null,
      "place": "Iași, Romania"
    }
  ]
}