{
  "generated_utc": "2026-07-17T13:16:06Z",
  "top": [
    {
      "lon": 14.25,
      "lat": 50.25,
      "type": "hotspot_cell",
      "score": 660.504,
      "count": 1076,
      "cell_deg": 0.5,
      "sources": {
        "GDELT": 103,
        "GDELT_DOC": 967,
        "DIRECT_FEED": 6,
        "USGS": 0,
        "GDACS": 0
      },
      "last7_score": 654.297,
      "prev7_score": 6.206,
      "trend": "up",
      "trend_arrow": "🔺",
      "change_pct": 10442.6,
      "place": "SO ORP Kralupy nad Vltavou, Czechia"
    },
    {
      "lon": 26.25,
      "lat": 44.25,
      "type": "hotspot_cell",
      "score": 577.026,
      "count": 835,
      "cell_deg": 0.5,
      "sources": {
        "GDELT": 100,
        "GDELT_DOC": 732,
        "DIRECT_FEED": 3,
        "USGS": 0,
        "GDACS": 0
      },
      "last7_score": 568.66,
      "prev7_score": 8.366,
      "trend": "up",
      "trend_arrow": "🔺",
      "change_pct": 6697.1,
      "place": "Giurgiu, Romania"
    },
    {
      "lon": 25.25,
      "lat": 54.75,
      "type": "hotspot_cell",
      "score": 406.626,
      "count": 685,
      "cell_deg": 0.5,
      "sources": {
        "GDELT": 75,
        "GDELT_DOC": 610,
        "DIRECT_FEED": 0,
        "USGS": 0,
        "GDACS": 0
      },
      "last7_score": 401.303,
      "prev7_score": 5.322,
      "trend": "up",
      "trend_arrow": "🔺",
      "change_pct": 7439.8,
      "place": "Vilnius County, Lithuania"
    },
    {
      "lon": 19.25,
      "lat": 47.75,
      "type": "hotspot_cell",
      "score": 209.661,
      "count": 351,
      "cell_deg": 0.5,
      "sources": {
        "GDELT": 164,
        "GDELT_DOC": 0,
        "DIRECT_FEED": 187,
        "USGS": 0,
        "GDACS": 0
      },
      "last7_score": 197.72,
      "prev7_score": 11.941,
      "trend": "up",
      "trend_arrow": "🔺",
      "change_pct": 1555.8,
      "place": "Pest, Hungary"
    },
    {
      "lon": 20.25,
      "lat": 52.25,
      "type": "hotspot_cell",
      "score": 179.947,
      "count": 455,
      "cell_deg": 0.5,
      "sources": {
        "GDELT": 455,
        "GDELT_DOC": 0,
        "DIRECT_FEED": 0,
        "USGS": 0,
        "GDACS": 0
      },
      "last7_score": 148.724,
      "prev7_score": 31.223,
      "trend": "up",
      "trend_arrow": "🔺",
      "change_pct": 376.3,
      "place": "Sochaczew County, Poland"
    },
    {
      "lon": 25.25,
      "lat": 46.25,
      "type": "hotspot_cell",
      "score": 163.048,
      "count": 390,
      "cell_deg": 0.5,
      "sources": {
        "GDELT": 390,
        "GDELT_DOC": 0,
        "DIRECT_FEED": 0,
        "USGS": 0,
        "GDACS": 0
      },
      "last7_score": 132.82,
      "prev7_score": 30.227,
      "trend": "up",
      "trend_arrow": "🔺",
      "change_pct": 339.4,
      "place": "Harghita, Romania"
    },
    {
      "lon": 24.25,
      "lat": 56.75,
      "type": "hotspot_cell",
      "score": 110.982,
      "count": 158,
      "cell_deg": 0.5,
      "sources": {
        "GDELT": 18,
        "GDELT_DOC": 0,
        "DIRECT_FEED": 140,
        "USGS": 0,
        "GDACS": 0
      },
      "last7_score": 109.862,
      "prev7_score": 1.12,
      "trend": "up",
      "trend_arrow": "🔺",
      "change_pct": 9709.9,
      "place": "Ķekavas novads, Latvia"
    },
    {
      "lon": 21.25,
      "lat": 52.25,
      "type": "hotspot_cell",
      "score": 96.746,
      "count": 245,
      "cell_deg": 0.5,
      "sources": {
        "GDELT": 245,
        "GDELT_DOC": 0,
        "DIRECT_FEED": 0,
        "USGS": 0,
        "GDACS": 0
      },
      "last7_score": 81.11,
      "prev7_score": 15.637,
      "trend": "up",
      "trend_arrow": "🔺",
      "change_pct": 418.7,
      "place": "Warsaw, Poland"
    },
    {
      "lon": 20.25,
      "lat": 47.25,
      "type": "hotspot_cell",
      "score": 83.911,
      "count": 198,
      "cell_deg": 0.5,
      "sources": {
        "GDELT": 198,
        "GDELT_DOC": 0,
        "DIRECT_FEED": 0,
        "USGS": 0,
        "GDACS": 0
      },
      "last7_score": 69.146,
      "prev7_score": 14.765,
      "trend": "up",
      "trend_arrow": "🔺",
      "change_pct": 368.3,
      "place": "Jász-Nagykun-Szolnok, Hungary"
    },
    {
      "lon": 24.25,
      "lat": 56.25,
      "type": "hotspot_cell",
      "score": 60.578,
      "count": 143,
      "cell_deg": 0.5,
      "sources": {
        "GDELT": 143,
        "GDELT_DOC": 0,
        "DIRECT_FEED": 0,
        "USGS": 0,
        "GDACS": 0
      },
      "last7_score": 47.559,
      "prev7_score": 13.018,
      "trend": "up",
      "trend_arrow": "🔺",
      "change_pct": 265.3,
      "place": "Namišių seniūnija, Lithuania"
    }
  ]
}