{
  "generated_utc": "2026-07-24T02:00:43Z",
  "top": [
    {
      "lon": 26.25,
      "lat": 44.25,
      "type": "hotspot_cell",
      "score": 713.435,
      "count": 1115,
      "cell_deg": 0.5,
      "sources": {
        "GDELT": 132,
        "GDELT_DOC": 978,
        "DIRECT_FEED": 5,
        "USGS": 0,
        "GDACS": 0
      },
      "last7_score": 705.83,
      "prev7_score": 7.605,
      "trend": "up",
      "trend_arrow": "🔺",
      "change_pct": 9181.0,
      "place": "Giurgiu, Romania"
    },
    {
      "lon": 14.25,
      "lat": 50.25,
      "type": "hotspot_cell",
      "score": 640.956,
      "count": 1040,
      "cell_deg": 0.5,
      "sources": {
        "GDELT": 99,
        "GDELT_DOC": 939,
        "DIRECT_FEED": 2,
        "USGS": 0,
        "GDACS": 0
      },
      "last7_score": 630.62,
      "prev7_score": 10.336,
      "trend": "up",
      "trend_arrow": "🔺",
      "change_pct": 6001.2,
      "place": "SO ORP Kralupy nad Vltavou, Czechia"
    },
    {
      "lon": 25.25,
      "lat": 54.75,
      "type": "hotspot_cell",
      "score": 414.838,
      "count": 686,
      "cell_deg": 0.5,
      "sources": {
        "GDELT": 67,
        "GDELT_DOC": 619,
        "DIRECT_FEED": 0,
        "USGS": 0,
        "GDACS": 0
      },
      "last7_score": 407.801,
      "prev7_score": 7.036,
      "trend": "up",
      "trend_arrow": "🔺",
      "change_pct": 5695.5,
      "place": "Vilnius County, Lithuania"
    },
    {
      "lon": 19.25,
      "lat": 47.75,
      "type": "hotspot_cell",
      "score": 200.852,
      "count": 351,
      "cell_deg": 0.5,
      "sources": {
        "GDELT": 177,
        "GDELT_DOC": 0,
        "DIRECT_FEED": 174,
        "USGS": 0,
        "GDACS": 0
      },
      "last7_score": 187.03,
      "prev7_score": 13.822,
      "trend": "up",
      "trend_arrow": "🔺",
      "change_pct": 1253.1,
      "place": "Pest, Hungary"
    },
    {
      "lon": 25.25,
      "lat": 46.25,
      "type": "hotspot_cell",
      "score": 173.231,
      "count": 416,
      "cell_deg": 0.5,
      "sources": {
        "GDELT": 416,
        "GDELT_DOC": 0,
        "DIRECT_FEED": 0,
        "USGS": 0,
        "GDACS": 0
      },
      "last7_score": 141.254,
      "prev7_score": 31.977,
      "trend": "up",
      "trend_arrow": "🔺",
      "change_pct": 341.7,
      "place": "Harghita, Romania"
    },
    {
      "lon": 20.25,
      "lat": 52.25,
      "type": "hotspot_cell",
      "score": 141.482,
      "count": 398,
      "cell_deg": 0.5,
      "sources": {
        "GDELT": 398,
        "GDELT_DOC": 0,
        "DIRECT_FEED": 0,
        "USGS": 0,
        "GDACS": 0
      },
      "last7_score": 102.851,
      "prev7_score": 38.631,
      "trend": "up",
      "trend_arrow": "🔺",
      "change_pct": 166.2,
      "place": "Sochaczew County, Poland"
    },
    {
      "lon": 24.25,
      "lat": 56.75,
      "type": "hotspot_cell",
      "score": 104.488,
      "count": 149,
      "cell_deg": 0.5,
      "sources": {
        "GDELT": 22,
        "GDELT_DOC": 0,
        "DIRECT_FEED": 127,
        "USGS": 0,
        "GDACS": 0
      },
      "last7_score": 102.906,
      "prev7_score": 1.581,
      "trend": "up",
      "trend_arrow": "🔺",
      "change_pct": 6408.7,
      "place": "Ķekavas novads, Latvia"
    },
    {
      "lon": 21.25,
      "lat": 52.25,
      "type": "hotspot_cell",
      "score": 63.765,
      "count": 190,
      "cell_deg": 0.5,
      "sources": {
        "GDELT": 190,
        "GDELT_DOC": 0,
        "DIRECT_FEED": 0,
        "USGS": 0,
        "GDACS": 0
      },
      "last7_score": 43.426,
      "prev7_score": 20.34,
      "trend": "up",
      "trend_arrow": "🔺",
      "change_pct": 113.5,
      "place": "Warsaw, Poland"
    },
    {
      "lon": 20.25,
      "lat": 47.25,
      "type": "hotspot_cell",
      "score": 61.167,
      "count": 171,
      "cell_deg": 0.5,
      "sources": {
        "GDELT": 171,
        "GDELT_DOC": 0,
        "DIRECT_FEED": 0,
        "USGS": 0,
        "GDACS": 0
      },
      "last7_score": 43.675,
      "prev7_score": 17.492,
      "trend": "up",
      "trend_arrow": "🔺",
      "change_pct": 149.7,
      "place": "Jász-Nagykun-Szolnok, Hungary"
    },
    {
      "lon": 27.75,
      "lat": 47.25,
      "type": "hotspot_cell",
      "score": 44.577,
      "count": 71,
      "cell_deg": 0.5,
      "sources": {
        "GDELT": 0,
        "GDELT_DOC": 71,
        "DIRECT_FEED": 0,
        "USGS": 0,
        "GDACS": 0
      },
      "last7_score": 44.577,
      "prev7_score": 0.0,
      "trend": "new",
      "trend_arrow": "🆕",
      "change_pct": null,
      "place": "Iași, Romania"
    }
  ]
}