{
  "generated_utc": "2026-03-07T12:54:50Z",
  "top": [
    {
      "lon": 14.25,
      "lat": 50.25,
      "type": "hotspot_cell",
      "score": 396.255,
      "count": 468,
      "cell_deg": 0.5,
      "sources": {
        "GDELT": 164,
        "GDELT_DOC": 304,
        "DIRECT_FEED": 0,
        "USGS": 0,
        "GDACS": 0
      },
      "last7_score": 386.7,
      "prev7_score": 9.555,
      "trend": "up",
      "trend_arrow": "🔺",
      "change_pct": 3947.0,
      "place": "SO ORP Kralupy nad Vltavou, Czechia"
    },
    {
      "lon": 26.25,
      "lat": 44.25,
      "type": "hotspot_cell",
      "score": 305.19,
      "count": 402,
      "cell_deg": 0.5,
      "sources": {
        "GDELT": 184,
        "GDELT_DOC": 218,
        "DIRECT_FEED": 0,
        "USGS": 0,
        "GDACS": 0
      },
      "last7_score": 293.552,
      "prev7_score": 11.637,
      "trend": "up",
      "trend_arrow": "🔺",
      "change_pct": 2422.5,
      "place": "Giurgiu, Romania"
    },
    {
      "lon": 19.25,
      "lat": 47.75,
      "type": "hotspot_cell",
      "score": 242.254,
      "count": 508,
      "cell_deg": 0.5,
      "sources": {
        "GDELT": 469,
        "GDELT_DOC": 0,
        "DIRECT_FEED": 39,
        "USGS": 0,
        "GDACS": 0
      },
      "last7_score": 210.96,
      "prev7_score": 31.294,
      "trend": "up",
      "trend_arrow": "🔺",
      "change_pct": 574.1,
      "place": "Pest, Hungary"
    },
    {
      "lon": 25.25,
      "lat": 54.75,
      "type": "hotspot_cell",
      "score": 223.776,
      "count": 252,
      "cell_deg": 0.5,
      "sources": {
        "GDELT": 74,
        "GDELT_DOC": 178,
        "DIRECT_FEED": 0,
        "USGS": 0,
        "GDACS": 0
      },
      "last7_score": 218.27,
      "prev7_score": 5.506,
      "trend": "up",
      "trend_arrow": "🔺",
      "change_pct": 3864.5,
      "place": "Vilnius County, Lithuania"
    },
    {
      "lon": 20.25,
      "lat": 52.25,
      "type": "hotspot_cell",
      "score": 197.629,
      "count": 547,
      "cell_deg": 0.5,
      "sources": {
        "GDELT": 547,
        "GDELT_DOC": 0,
        "DIRECT_FEED": 0,
        "USGS": 0,
        "GDACS": 0
      },
      "last7_score": 158.544,
      "prev7_score": 39.085,
      "trend": "up",
      "trend_arrow": "🔺",
      "change_pct": 305.6,
      "place": "Sochaczew County, Poland"
    },
    {
      "lon": 20.25,
      "lat": 47.25,
      "type": "hotspot_cell",
      "score": 137.527,
      "count": 410,
      "cell_deg": 0.5,
      "sources": {
        "GDELT": 410,
        "GDELT_DOC": 0,
        "DIRECT_FEED": 0,
        "USGS": 0,
        "GDACS": 0
      },
      "last7_score": 107.951,
      "prev7_score": 29.575,
      "trend": "up",
      "trend_arrow": "🔺",
      "change_pct": 265.0,
      "place": "Jász-Nagykun-Szolnok, Hungary"
    },
    {
      "lon": 25.25,
      "lat": 46.25,
      "type": "hotspot_cell",
      "score": 118.724,
      "count": 328,
      "cell_deg": 0.5,
      "sources": {
        "GDELT": 328,
        "GDELT_DOC": 0,
        "DIRECT_FEED": 0,
        "USGS": 0,
        "GDACS": 0
      },
      "last7_score": 96.751,
      "prev7_score": 21.973,
      "trend": "up",
      "trend_arrow": "🔺",
      "change_pct": 340.3,
      "place": "Harghita, Romania"
    },
    {
      "lon": 21.25,
      "lat": 52.25,
      "type": "hotspot_cell",
      "score": 96.319,
      "count": 243,
      "cell_deg": 0.5,
      "sources": {
        "GDELT": 243,
        "GDELT_DOC": 0,
        "DIRECT_FEED": 0,
        "USGS": 0,
        "GDACS": 0
      },
      "last7_score": 77.982,
      "prev7_score": 18.337,
      "trend": "up",
      "trend_arrow": "🔺",
      "change_pct": 325.3,
      "place": "Warsaw, Poland"
    },
    {
      "lon": 15.25,
      "lat": 49.75,
      "type": "hotspot_cell",
      "score": 68.026,
      "count": 167,
      "cell_deg": 0.5,
      "sources": {
        "GDELT": 167,
        "GDELT_DOC": 0,
        "DIRECT_FEED": 0,
        "USGS": 0,
        "GDACS": 0
      },
      "last7_score": 58.487,
      "prev7_score": 9.538,
      "trend": "up",
      "trend_arrow": "🔺",
      "change_pct": 513.2,
      "place": "Vysočina Region, Czechia"
    },
    {
      "lon": 24.25,
      "lat": 56.25,
      "type": "hotspot_cell",
      "score": 60.287,
      "count": 152,
      "cell_deg": 0.5,
      "sources": {
        "GDELT": 152,
        "GDELT_DOC": 0,
        "DIRECT_FEED": 0,
        "USGS": 0,
        "GDACS": 0
      },
      "last7_score": 50.249,
      "prev7_score": 10.038,
      "trend": "up",
      "trend_arrow": "🔺",
      "change_pct": 400.6,
      "place": "Namišių seniūnija, Lithuania"
    }
  ]
}