{
  "generated_utc": "2026-05-07T02:57:48Z",
  "top": [
    {
      "lon": 14.25,
      "lat": 50.25,
      "type": "hotspot_cell",
      "score": 739.138,
      "count": 1332,
      "cell_deg": 0.5,
      "sources": {
        "GDELT": 161,
        "GDELT_DOC": 1166,
        "DIRECT_FEED": 5,
        "USGS": 0,
        "GDACS": 0
      },
      "last7_score": 724.834,
      "prev7_score": 14.304,
      "trend": "up",
      "trend_arrow": "🔺",
      "change_pct": 4967.3,
      "place": "SO ORP Kralupy nad Vltavou, Czechia"
    },
    {
      "lon": 26.25,
      "lat": 44.25,
      "type": "hotspot_cell",
      "score": 683.015,
      "count": 1130,
      "cell_deg": 0.5,
      "sources": {
        "GDELT": 137,
        "GDELT_DOC": 986,
        "DIRECT_FEED": 7,
        "USGS": 0,
        "GDACS": 0
      },
      "last7_score": 670.792,
      "prev7_score": 12.223,
      "trend": "up",
      "trend_arrow": "🔺",
      "change_pct": 5387.8,
      "place": "Giurgiu, Romania"
    },
    {
      "lon": 25.25,
      "lat": 54.75,
      "type": "hotspot_cell",
      "score": 543.7,
      "count": 971,
      "cell_deg": 0.5,
      "sources": {
        "GDELT": 57,
        "GDELT_DOC": 914,
        "DIRECT_FEED": 0,
        "USGS": 0,
        "GDACS": 0
      },
      "last7_score": 537.065,
      "prev7_score": 6.634,
      "trend": "up",
      "trend_arrow": "🔺",
      "change_pct": 7995.1,
      "place": "Vilnius County, Lithuania"
    },
    {
      "lon": 20.25,
      "lat": 52.25,
      "type": "hotspot_cell",
      "score": 208.191,
      "count": 483,
      "cell_deg": 0.5,
      "sources": {
        "GDELT": 483,
        "GDELT_DOC": 0,
        "DIRECT_FEED": 0,
        "USGS": 0,
        "GDACS": 0
      },
      "last7_score": 171.566,
      "prev7_score": 36.625,
      "trend": "up",
      "trend_arrow": "🔺",
      "change_pct": 368.4,
      "place": "Sochaczew County, Poland"
    },
    {
      "lon": 19.25,
      "lat": 47.75,
      "type": "hotspot_cell",
      "score": 186.788,
      "count": 348,
      "cell_deg": 0.5,
      "sources": {
        "GDELT": 193,
        "GDELT_DOC": 0,
        "DIRECT_FEED": 155,
        "USGS": 0,
        "GDACS": 0
      },
      "last7_score": 168.785,
      "prev7_score": 18.002,
      "trend": "up",
      "trend_arrow": "🔺",
      "change_pct": 837.6,
      "place": "Pest, Hungary"
    },
    {
      "lon": 25.25,
      "lat": 46.25,
      "type": "hotspot_cell",
      "score": 136.822,
      "count": 340,
      "cell_deg": 0.5,
      "sources": {
        "GDELT": 340,
        "GDELT_DOC": 0,
        "DIRECT_FEED": 0,
        "USGS": 0,
        "GDACS": 0
      },
      "last7_score": 105.515,
      "prev7_score": 31.307,
      "trend": "up",
      "trend_arrow": "🔺",
      "change_pct": 237.0,
      "place": "Harghita, Romania"
    },
    {
      "lon": 24.25,
      "lat": 56.75,
      "type": "hotspot_cell",
      "score": 103.809,
      "count": 155,
      "cell_deg": 0.5,
      "sources": {
        "GDELT": 35,
        "GDELT_DOC": 0,
        "DIRECT_FEED": 120,
        "USGS": 0,
        "GDACS": 0
      },
      "last7_score": 101.847,
      "prev7_score": 1.962,
      "trend": "up",
      "trend_arrow": "🔺",
      "change_pct": 5090.8,
      "place": "Ķekavas novads, Latvia"
    },
    {
      "lon": 20.25,
      "lat": 47.25,
      "type": "hotspot_cell",
      "score": 93.497,
      "count": 299,
      "cell_deg": 0.5,
      "sources": {
        "GDELT": 299,
        "GDELT_DOC": 0,
        "DIRECT_FEED": 0,
        "USGS": 0,
        "GDACS": 0
      },
      "last7_score": 63.739,
      "prev7_score": 29.758,
      "trend": "up",
      "trend_arrow": "🔺",
      "change_pct": 114.2,
      "place": "Jász-Nagykun-Szolnok, Hungary"
    },
    {
      "lon": 15.25,
      "lat": 49.75,
      "type": "hotspot_cell",
      "score": 61.48,
      "count": 187,
      "cell_deg": 0.5,
      "sources": {
        "GDELT": 187,
        "GDELT_DOC": 0,
        "DIRECT_FEED": 0,
        "USGS": 0,
        "GDACS": 0
      },
      "last7_score": 42.161,
      "prev7_score": 19.319,
      "trend": "up",
      "trend_arrow": "🔺",
      "change_pct": 118.2,
      "place": "Vysočina Region, Czechia"
    },
    {
      "lon": 21.25,
      "lat": 52.25,
      "type": "hotspot_cell",
      "score": 56.059,
      "count": 149,
      "cell_deg": 0.5,
      "sources": {
        "GDELT": 149,
        "GDELT_DOC": 0,
        "DIRECT_FEED": 0,
        "USGS": 0,
        "GDACS": 0
      },
      "last7_score": 43.12,
      "prev7_score": 12.939,
      "trend": "up",
      "trend_arrow": "🔺",
      "change_pct": 233.2,
      "place": "Warsaw, Poland"
    }
  ]
}