{
  "generated_utc": "2026-05-13T20:02:10Z",
  "top": [
    {
      "lon": 26.25,
      "lat": 44.25,
      "type": "hotspot_cell",
      "score": 927.053,
      "count": 1400,
      "cell_deg": 0.5,
      "sources": {
        "GDELT": 193,
        "GDELT_DOC": 1201,
        "DIRECT_FEED": 6,
        "USGS": 0,
        "GDACS": 0
      },
      "last7_score": 914.97,
      "prev7_score": 12.083,
      "trend": "up",
      "trend_arrow": "🔺",
      "change_pct": 7472.2,
      "place": "Giurgiu, Romania"
    },
    {
      "lon": 14.25,
      "lat": 50.25,
      "type": "hotspot_cell",
      "score": 908.499,
      "count": 1457,
      "cell_deg": 0.5,
      "sources": {
        "GDELT": 130,
        "GDELT_DOC": 1325,
        "DIRECT_FEED": 2,
        "USGS": 0,
        "GDACS": 0
      },
      "last7_score": 899.198,
      "prev7_score": 9.301,
      "trend": "up",
      "trend_arrow": "🔺",
      "change_pct": 9567.5,
      "place": "SO ORP Kralupy nad Vltavou, Czechia"
    },
    {
      "lon": 25.25,
      "lat": 54.75,
      "type": "hotspot_cell",
      "score": 601.629,
      "count": 993,
      "cell_deg": 0.5,
      "sources": {
        "GDELT": 66,
        "GDELT_DOC": 927,
        "DIRECT_FEED": 0,
        "USGS": 0,
        "GDACS": 0
      },
      "last7_score": 598.697,
      "prev7_score": 2.932,
      "trend": "up",
      "trend_arrow": "🔺",
      "change_pct": 20322.8,
      "place": "Vilnius County, Lithuania"
    },
    {
      "lon": 19.25,
      "lat": 47.75,
      "type": "hotspot_cell",
      "score": 280.277,
      "count": 498,
      "cell_deg": 0.5,
      "sources": {
        "GDELT": 268,
        "GDELT_DOC": 0,
        "DIRECT_FEED": 230,
        "USGS": 0,
        "GDACS": 0
      },
      "last7_score": 267.442,
      "prev7_score": 12.834,
      "trend": "up",
      "trend_arrow": "🔺",
      "change_pct": 1983.8,
      "place": "Pest, Hungary"
    },
    {
      "lon": 20.25,
      "lat": 52.25,
      "type": "hotspot_cell",
      "score": 203.88,
      "count": 549,
      "cell_deg": 0.5,
      "sources": {
        "GDELT": 549,
        "GDELT_DOC": 0,
        "DIRECT_FEED": 0,
        "USGS": 0,
        "GDACS": 0
      },
      "last7_score": 166.328,
      "prev7_score": 37.552,
      "trend": "up",
      "trend_arrow": "🔺",
      "change_pct": 342.9,
      "place": "Sochaczew County, Poland"
    },
    {
      "lon": 24.25,
      "lat": 56.75,
      "type": "hotspot_cell",
      "score": 118.565,
      "count": 171,
      "cell_deg": 0.5,
      "sources": {
        "GDELT": 27,
        "GDELT_DOC": 0,
        "DIRECT_FEED": 144,
        "USGS": 0,
        "GDACS": 0
      },
      "last7_score": 115.245,
      "prev7_score": 3.32,
      "trend": "up",
      "trend_arrow": "🔺",
      "change_pct": 3371.6,
      "place": "Ķekavas novads, Latvia"
    },
    {
      "lon": 25.25,
      "lat": 46.25,
      "type": "hotspot_cell",
      "score": 118.048,
      "count": 330,
      "cell_deg": 0.5,
      "sources": {
        "GDELT": 330,
        "GDELT_DOC": 0,
        "DIRECT_FEED": 0,
        "USGS": 0,
        "GDACS": 0
      },
      "last7_score": 94.042,
      "prev7_score": 24.006,
      "trend": "up",
      "trend_arrow": "🔺",
      "change_pct": 291.7,
      "place": "Harghita, Romania"
    },
    {
      "lon": 20.25,
      "lat": 47.25,
      "type": "hotspot_cell",
      "score": 117.891,
      "count": 286,
      "cell_deg": 0.5,
      "sources": {
        "GDELT": 286,
        "GDELT_DOC": 0,
        "DIRECT_FEED": 0,
        "USGS": 0,
        "GDACS": 0
      },
      "last7_score": 102.98,
      "prev7_score": 14.911,
      "trend": "up",
      "trend_arrow": "🔺",
      "change_pct": 590.6,
      "place": "Jász-Nagykun-Szolnok, Hungary"
    },
    {
      "lon": 21.25,
      "lat": 52.25,
      "type": "hotspot_cell",
      "score": 69.201,
      "count": 172,
      "cell_deg": 0.5,
      "sources": {
        "GDELT": 172,
        "GDELT_DOC": 0,
        "DIRECT_FEED": 0,
        "USGS": 0,
        "GDACS": 0
      },
      "last7_score": 59.749,
      "prev7_score": 9.452,
      "trend": "up",
      "trend_arrow": "🔺",
      "change_pct": 532.1,
      "place": "Warsaw, Poland"
    },
    {
      "lon": 27.75,
      "lat": 47.25,
      "type": "hotspot_cell",
      "score": 62.29,
      "count": 104,
      "cell_deg": 0.5,
      "sources": {
        "GDELT": 0,
        "GDELT_DOC": 104,
        "DIRECT_FEED": 0,
        "USGS": 0,
        "GDACS": 0
      },
      "last7_score": 62.29,
      "prev7_score": 0.0,
      "trend": "new",
      "trend_arrow": "🆕",
      "change_pct": null,
      "place": "Iași, Romania"
    }
  ]
}