{
  "generated_utc": "2026-07-15T01:39:01Z",
  "top": [
    {
      "lon": 14.25,
      "lat": 50.25,
      "type": "hotspot_cell",
      "score": 667.366,
      "count": 1257,
      "cell_deg": 0.5,
      "sources": {
        "GDELT": 94,
        "GDELT_DOC": 1157,
        "DIRECT_FEED": 6,
        "USGS": 0,
        "GDACS": 0
      },
      "last7_score": 658.802,
      "prev7_score": 8.564,
      "trend": "up",
      "trend_arrow": "🔺",
      "change_pct": 7592.3,
      "place": "SO ORP Kralupy nad Vltavou, Czechia"
    },
    {
      "lon": 25.25,
      "lat": 54.75,
      "type": "hotspot_cell",
      "score": 475.576,
      "count": 909,
      "cell_deg": 0.5,
      "sources": {
        "GDELT": 73,
        "GDELT_DOC": 835,
        "DIRECT_FEED": 1,
        "USGS": 0,
        "GDACS": 0
      },
      "last7_score": 469.062,
      "prev7_score": 6.514,
      "trend": "up",
      "trend_arrow": "🔺",
      "change_pct": 7101.0,
      "place": "Vilnius County, Lithuania"
    },
    {
      "lon": 26.25,
      "lat": 44.25,
      "type": "hotspot_cell",
      "score": 466.378,
      "count": 824,
      "cell_deg": 0.5,
      "sources": {
        "GDELT": 98,
        "GDELT_DOC": 724,
        "DIRECT_FEED": 2,
        "USGS": 0,
        "GDACS": 0
      },
      "last7_score": 456.965,
      "prev7_score": 9.412,
      "trend": "up",
      "trend_arrow": "🔺",
      "change_pct": 4754.9,
      "place": "Giurgiu, Romania"
    },
    {
      "lon": 19.25,
      "lat": 47.75,
      "type": "hotspot_cell",
      "score": 182.962,
      "count": 327,
      "cell_deg": 0.5,
      "sources": {
        "GDELT": 147,
        "GDELT_DOC": 0,
        "DIRECT_FEED": 180,
        "USGS": 0,
        "GDACS": 0
      },
      "last7_score": 172.992,
      "prev7_score": 9.969,
      "trend": "up",
      "trend_arrow": "🔺",
      "change_pct": 1635.3,
      "place": "Pest, Hungary"
    },
    {
      "lon": 20.25,
      "lat": 52.25,
      "type": "hotspot_cell",
      "score": 182.63,
      "count": 473,
      "cell_deg": 0.5,
      "sources": {
        "GDELT": 473,
        "GDELT_DOC": 0,
        "DIRECT_FEED": 0,
        "USGS": 0,
        "GDACS": 0
      },
      "last7_score": 137.254,
      "prev7_score": 45.375,
      "trend": "up",
      "trend_arrow": "🔺",
      "change_pct": 202.5,
      "place": "Sochaczew County, Poland"
    },
    {
      "lon": 25.25,
      "lat": 46.25,
      "type": "hotspot_cell",
      "score": 152.956,
      "count": 372,
      "cell_deg": 0.5,
      "sources": {
        "GDELT": 372,
        "GDELT_DOC": 0,
        "DIRECT_FEED": 0,
        "USGS": 0,
        "GDACS": 0
      },
      "last7_score": 123.048,
      "prev7_score": 29.909,
      "trend": "up",
      "trend_arrow": "🔺",
      "change_pct": 311.4,
      "place": "Harghita, Romania"
    },
    {
      "lon": 24.25,
      "lat": 56.75,
      "type": "hotspot_cell",
      "score": 104.229,
      "count": 149,
      "cell_deg": 0.5,
      "sources": {
        "GDELT": 17,
        "GDELT_DOC": 0,
        "DIRECT_FEED": 132,
        "USGS": 0,
        "GDACS": 0
      },
      "last7_score": 102.564,
      "prev7_score": 1.665,
      "trend": "up",
      "trend_arrow": "🔺",
      "change_pct": 6059.7,
      "place": "Ķekavas novads, Latvia"
    },
    {
      "lon": 21.25,
      "lat": 52.25,
      "type": "hotspot_cell",
      "score": 90.932,
      "count": 241,
      "cell_deg": 0.5,
      "sources": {
        "GDELT": 241,
        "GDELT_DOC": 0,
        "DIRECT_FEED": 0,
        "USGS": 0,
        "GDACS": 0
      },
      "last7_score": 70.634,
      "prev7_score": 20.298,
      "trend": "up",
      "trend_arrow": "🔺",
      "change_pct": 248.0,
      "place": "Warsaw, Poland"
    },
    {
      "lon": 20.25,
      "lat": 47.25,
      "type": "hotspot_cell",
      "score": 74.555,
      "count": 183,
      "cell_deg": 0.5,
      "sources": {
        "GDELT": 183,
        "GDELT_DOC": 0,
        "DIRECT_FEED": 0,
        "USGS": 0,
        "GDACS": 0
      },
      "last7_score": 57.81,
      "prev7_score": 16.745,
      "trend": "up",
      "trend_arrow": "🔺",
      "change_pct": 245.2,
      "place": "Jász-Nagykun-Szolnok, Hungary"
    },
    {
      "lon": 15.25,
      "lat": 49.75,
      "type": "hotspot_cell",
      "score": 57.852,
      "count": 157,
      "cell_deg": 0.5,
      "sources": {
        "GDELT": 157,
        "GDELT_DOC": 0,
        "DIRECT_FEED": 0,
        "USGS": 0,
        "GDACS": 0
      },
      "last7_score": 44.974,
      "prev7_score": 12.878,
      "trend": "up",
      "trend_arrow": "🔺",
      "change_pct": 249.2,
      "place": "Vysočina Region, Czechia"
    }
  ]
}