{
  "generated_utc": "2026-03-18T13:17:51Z",
  "top": [
    {
      "lon": 14.25,
      "lat": 50.25,
      "type": "hotspot_cell",
      "score": 916.682,
      "count": 1511,
      "cell_deg": 0.5,
      "sources": {
        "GDELT": 122,
        "GDELT_DOC": 1384,
        "DIRECT_FEED": 5,
        "USGS": 0,
        "GDACS": 0
      },
      "last7_score": 908.009,
      "prev7_score": 8.674,
      "trend": "up",
      "trend_arrow": "🔺",
      "change_pct": 10368.7,
      "place": "SO ORP Kralupy nad Vltavou, Czechia"
    },
    {
      "lon": 26.25,
      "lat": 44.25,
      "type": "hotspot_cell",
      "score": 834.849,
      "count": 1365,
      "cell_deg": 0.5,
      "sources": {
        "GDELT": 181,
        "GDELT_DOC": 1181,
        "DIRECT_FEED": 3,
        "USGS": 0,
        "GDACS": 0
      },
      "last7_score": 823.888,
      "prev7_score": 10.961,
      "trend": "up",
      "trend_arrow": "🔺",
      "change_pct": 7416.8,
      "place": "Giurgiu, Romania"
    },
    {
      "lon": 25.25,
      "lat": 54.75,
      "type": "hotspot_cell",
      "score": 553.958,
      "count": 931,
      "cell_deg": 0.5,
      "sources": {
        "GDELT": 70,
        "GDELT_DOC": 861,
        "DIRECT_FEED": 0,
        "USGS": 0,
        "GDACS": 0
      },
      "last7_score": 549.393,
      "prev7_score": 4.565,
      "trend": "up",
      "trend_arrow": "🔺",
      "change_pct": 11933.6,
      "place": "Vilnius County, Lithuania"
    },
    {
      "lon": 19.25,
      "lat": 47.75,
      "type": "hotspot_cell",
      "score": 284.037,
      "count": 629,
      "cell_deg": 0.5,
      "sources": {
        "GDELT": 430,
        "GDELT_DOC": 0,
        "DIRECT_FEED": 199,
        "USGS": 0,
        "GDACS": 0
      },
      "last7_score": 250.564,
      "prev7_score": 33.474,
      "trend": "up",
      "trend_arrow": "🔺",
      "change_pct": 648.5,
      "place": "Pest, Hungary"
    },
    {
      "lon": 20.25,
      "lat": 52.25,
      "type": "hotspot_cell",
      "score": 151.782,
      "count": 418,
      "cell_deg": 0.5,
      "sources": {
        "GDELT": 418,
        "GDELT_DOC": 0,
        "DIRECT_FEED": 0,
        "USGS": 0,
        "GDACS": 0
      },
      "last7_score": 124.881,
      "prev7_score": 26.9,
      "trend": "up",
      "trend_arrow": "🔺",
      "change_pct": 364.2,
      "place": "Sochaczew County, Poland"
    },
    {
      "lon": 20.25,
      "lat": 47.25,
      "type": "hotspot_cell",
      "score": 141.421,
      "count": 371,
      "cell_deg": 0.5,
      "sources": {
        "GDELT": 371,
        "GDELT_DOC": 0,
        "DIRECT_FEED": 0,
        "USGS": 0,
        "GDACS": 0
      },
      "last7_score": 116.704,
      "prev7_score": 24.717,
      "trend": "up",
      "trend_arrow": "🔺",
      "change_pct": 372.2,
      "place": "Jász-Nagykun-Szolnok, Hungary"
    },
    {
      "lon": 24.25,
      "lat": 56.75,
      "type": "hotspot_cell",
      "score": 115.717,
      "count": 173,
      "cell_deg": 0.5,
      "sources": {
        "GDELT": 34,
        "GDELT_DOC": 0,
        "DIRECT_FEED": 139,
        "USGS": 0,
        "GDACS": 0
      },
      "last7_score": 114.055,
      "prev7_score": 1.663,
      "trend": "up",
      "trend_arrow": "🔺",
      "change_pct": 6760.1,
      "place": "Ķekavas novads, Latvia"
    },
    {
      "lon": 25.25,
      "lat": 46.25,
      "type": "hotspot_cell",
      "score": 110.343,
      "count": 303,
      "cell_deg": 0.5,
      "sources": {
        "GDELT": 303,
        "GDELT_DOC": 0,
        "DIRECT_FEED": 0,
        "USGS": 0,
        "GDACS": 0
      },
      "last7_score": 87.366,
      "prev7_score": 22.977,
      "trend": "up",
      "trend_arrow": "🔺",
      "change_pct": 280.2,
      "place": "Harghita, Romania"
    },
    {
      "lon": 21.25,
      "lat": 52.25,
      "type": "hotspot_cell",
      "score": 62.273,
      "count": 195,
      "cell_deg": 0.5,
      "sources": {
        "GDELT": 195,
        "GDELT_DOC": 0,
        "DIRECT_FEED": 0,
        "USGS": 0,
        "GDACS": 0
      },
      "last7_score": 50.294,
      "prev7_score": 11.979,
      "trend": "up",
      "trend_arrow": "🔺",
      "change_pct": 319.9,
      "place": "Warsaw, Poland"
    },
    {
      "lon": 27.75,
      "lat": 47.25,
      "type": "hotspot_cell",
      "score": 61.203,
      "count": 103,
      "cell_deg": 0.5,
      "sources": {
        "GDELT": 0,
        "GDELT_DOC": 103,
        "DIRECT_FEED": 0,
        "USGS": 0,
        "GDACS": 0
      },
      "last7_score": 61.203,
      "prev7_score": 0.0,
      "trend": "new",
      "trend_arrow": "🆕",
      "change_pct": null,
      "place": "Iași, Romania"
    }
  ]
}