{
  "generated_utc": "2026-06-19T19:35:46Z",
  "top": [
    {
      "lon": 25.25,
      "lat": 54.75,
      "type": "hotspot_cell",
      "score": 628.351,
      "count": 899,
      "cell_deg": 0.5,
      "sources": {
        "GDELT": 54,
        "GDELT_DOC": 844,
        "DIRECT_FEED": 1,
        "USGS": 0,
        "GDACS": 0
      },
      "last7_score": 624.484,
      "prev7_score": 3.868,
      "trend": "up",
      "trend_arrow": "🔺",
      "change_pct": 16046.9,
      "place": "Vilnius County, Lithuania"
    },
    {
      "lon": 26.25,
      "lat": 44.25,
      "type": "hotspot_cell",
      "score": 513.682,
      "count": 943,
      "cell_deg": 0.5,
      "sources": {
        "GDELT": 154,
        "GDELT_DOC": 783,
        "DIRECT_FEED": 6,
        "USGS": 0,
        "GDACS": 0
      },
      "last7_score": 502.145,
      "prev7_score": 11.537,
      "trend": "up",
      "trend_arrow": "🔺",
      "change_pct": 4252.6,
      "place": "Giurgiu, Romania"
    },
    {
      "lon": 14.25,
      "lat": 50.25,
      "type": "hotspot_cell",
      "score": 412.175,
      "count": 658,
      "cell_deg": 0.5,
      "sources": {
        "GDELT": 101,
        "GDELT_DOC": 547,
        "DIRECT_FEED": 10,
        "USGS": 0,
        "GDACS": 0
      },
      "last7_score": 406.986,
      "prev7_score": 5.189,
      "trend": "up",
      "trend_arrow": "🔺",
      "change_pct": 7743.8,
      "place": "SO ORP Kralupy nad Vltavou, Czechia"
    },
    {
      "lon": 19.25,
      "lat": 47.75,
      "type": "hotspot_cell",
      "score": 193.58,
      "count": 336,
      "cell_deg": 0.5,
      "sources": {
        "GDELT": 161,
        "GDELT_DOC": 0,
        "DIRECT_FEED": 175,
        "USGS": 0,
        "GDACS": 0
      },
      "last7_score": 183.389,
      "prev7_score": 10.192,
      "trend": "up",
      "trend_arrow": "🔺",
      "change_pct": 1699.4,
      "place": "Pest, Hungary"
    },
    {
      "lon": 20.25,
      "lat": 52.25,
      "type": "hotspot_cell",
      "score": 189.028,
      "count": 455,
      "cell_deg": 0.5,
      "sources": {
        "GDELT": 455,
        "GDELT_DOC": 0,
        "DIRECT_FEED": 0,
        "USGS": 0,
        "GDACS": 0
      },
      "last7_score": 157.931,
      "prev7_score": 31.097,
      "trend": "up",
      "trend_arrow": "🔺",
      "change_pct": 407.9,
      "place": "Sochaczew County, Poland"
    },
    {
      "lon": 25.25,
      "lat": 46.25,
      "type": "hotspot_cell",
      "score": 180.22,
      "count": 429,
      "cell_deg": 0.5,
      "sources": {
        "GDELT": 429,
        "GDELT_DOC": 0,
        "DIRECT_FEED": 0,
        "USGS": 0,
        "GDACS": 0
      },
      "last7_score": 152.979,
      "prev7_score": 27.241,
      "trend": "up",
      "trend_arrow": "🔺",
      "change_pct": 461.6,
      "place": "Harghita, Romania"
    },
    {
      "lon": 24.25,
      "lat": 56.75,
      "type": "hotspot_cell",
      "score": 120.705,
      "count": 179,
      "cell_deg": 0.5,
      "sources": {
        "GDELT": 40,
        "GDELT_DOC": 0,
        "DIRECT_FEED": 139,
        "USGS": 0,
        "GDACS": 0
      },
      "last7_score": 117.613,
      "prev7_score": 3.092,
      "trend": "up",
      "trend_arrow": "🔺",
      "change_pct": 3704.1,
      "place": "Ķekavas novads, Latvia"
    },
    {
      "lon": 20.25,
      "lat": 47.25,
      "type": "hotspot_cell",
      "score": 98.401,
      "count": 256,
      "cell_deg": 0.5,
      "sources": {
        "GDELT": 256,
        "GDELT_DOC": 0,
        "DIRECT_FEED": 0,
        "USGS": 0,
        "GDACS": 0
      },
      "last7_score": 80.355,
      "prev7_score": 18.046,
      "trend": "up",
      "trend_arrow": "🔺",
      "change_pct": 345.3,
      "place": "Jász-Nagykun-Szolnok, Hungary"
    },
    {
      "lon": 21.25,
      "lat": 52.25,
      "type": "hotspot_cell",
      "score": 93.815,
      "count": 199,
      "cell_deg": 0.5,
      "sources": {
        "GDELT": 199,
        "GDELT_DOC": 0,
        "DIRECT_FEED": 0,
        "USGS": 0,
        "GDACS": 0
      },
      "last7_score": 83.036,
      "prev7_score": 10.779,
      "trend": "up",
      "trend_arrow": "🔺",
      "change_pct": 670.4,
      "place": "Warsaw, Poland"
    },
    {
      "lon": 17.25,
      "lat": 48.25,
      "type": "hotspot_cell",
      "score": 76.188,
      "count": 168,
      "cell_deg": 0.5,
      "sources": {
        "GDELT": 166,
        "GDELT_DOC": 0,
        "DIRECT_FEED": 2,
        "USGS": 0,
        "GDACS": 0
      },
      "last7_score": 72.997,
      "prev7_score": 3.192,
      "trend": "up",
      "trend_arrow": "🔺",
      "change_pct": 2187.1,
      "place": "District of Pezinok, Slovakia"
    }
  ]
}