{
  "generated_utc": "2026-06-06T08:29:50Z",
  "top": [
    {
      "lon": 26.25,
      "lat": 44.25,
      "type": "hotspot_cell",
      "score": 724.203,
      "count": 1100,
      "cell_deg": 0.5,
      "sources": {
        "GDELT": 250,
        "GDELT_DOC": 842,
        "DIRECT_FEED": 8,
        "USGS": 0,
        "GDACS": 0
      },
      "last7_score": 694.712,
      "prev7_score": 29.492,
      "trend": "up",
      "trend_arrow": "🔺",
      "change_pct": 2255.6,
      "place": "Giurgiu, Romania"
    },
    {
      "lon": 25.25,
      "lat": 54.75,
      "type": "hotspot_cell",
      "score": 655.061,
      "count": 1036,
      "cell_deg": 0.5,
      "sources": {
        "GDELT": 86,
        "GDELT_DOC": 947,
        "DIRECT_FEED": 3,
        "USGS": 0,
        "GDACS": 0
      },
      "last7_score": 649.895,
      "prev7_score": 5.166,
      "trend": "up",
      "trend_arrow": "🔺",
      "change_pct": 12479.8,
      "place": "Vilnius County, Lithuania"
    },
    {
      "lon": 14.25,
      "lat": 50.25,
      "type": "hotspot_cell",
      "score": 647.697,
      "count": 1052,
      "cell_deg": 0.5,
      "sources": {
        "GDELT": 126,
        "GDELT_DOC": 922,
        "DIRECT_FEED": 4,
        "USGS": 0,
        "GDACS": 0
      },
      "last7_score": 638.66,
      "prev7_score": 9.037,
      "trend": "up",
      "trend_arrow": "🔺",
      "change_pct": 6967.1,
      "place": "SO ORP Kralupy nad Vltavou, Czechia"
    },
    {
      "lon": 19.25,
      "lat": 47.75,
      "type": "hotspot_cell",
      "score": 230.266,
      "count": 441,
      "cell_deg": 0.5,
      "sources": {
        "GDELT": 255,
        "GDELT_DOC": 0,
        "DIRECT_FEED": 186,
        "USGS": 0,
        "GDACS": 0
      },
      "last7_score": 210.9,
      "prev7_score": 19.366,
      "trend": "up",
      "trend_arrow": "🔺",
      "change_pct": 989.0,
      "place": "Pest, Hungary"
    },
    {
      "lon": 25.25,
      "lat": 46.25,
      "type": "hotspot_cell",
      "score": 208.536,
      "count": 507,
      "cell_deg": 0.5,
      "sources": {
        "GDELT": 507,
        "GDELT_DOC": 0,
        "DIRECT_FEED": 0,
        "USGS": 0,
        "GDACS": 0
      },
      "last7_score": 161.341,
      "prev7_score": 47.195,
      "trend": "up",
      "trend_arrow": "🔺",
      "change_pct": 241.9,
      "place": "Harghita, Romania"
    },
    {
      "lon": 20.25,
      "lat": 52.25,
      "type": "hotspot_cell",
      "score": 207.137,
      "count": 560,
      "cell_deg": 0.5,
      "sources": {
        "GDELT": 560,
        "GDELT_DOC": 0,
        "DIRECT_FEED": 0,
        "USGS": 0,
        "GDACS": 0
      },
      "last7_score": 166.154,
      "prev7_score": 40.983,
      "trend": "up",
      "trend_arrow": "🔺",
      "change_pct": 305.4,
      "place": "Sochaczew County, Poland"
    },
    {
      "lon": 24.25,
      "lat": 56.75,
      "type": "hotspot_cell",
      "score": 121.272,
      "count": 189,
      "cell_deg": 0.5,
      "sources": {
        "GDELT": 45,
        "GDELT_DOC": 0,
        "DIRECT_FEED": 144,
        "USGS": 0,
        "GDACS": 0
      },
      "last7_score": 117.484,
      "prev7_score": 3.788,
      "trend": "up",
      "trend_arrow": "🔺",
      "change_pct": 3001.4,
      "place": "Ķekavas novads, Latvia"
    },
    {
      "lon": 20.25,
      "lat": 47.25,
      "type": "hotspot_cell",
      "score": 93.795,
      "count": 251,
      "cell_deg": 0.5,
      "sources": {
        "GDELT": 251,
        "GDELT_DOC": 0,
        "DIRECT_FEED": 0,
        "USGS": 0,
        "GDACS": 0
      },
      "last7_score": 74.462,
      "prev7_score": 19.333,
      "trend": "up",
      "trend_arrow": "🔺",
      "change_pct": 285.2,
      "place": "Jász-Nagykun-Szolnok, Hungary"
    },
    {
      "lon": 21.25,
      "lat": 52.25,
      "type": "hotspot_cell",
      "score": 78.796,
      "count": 214,
      "cell_deg": 0.5,
      "sources": {
        "GDELT": 214,
        "GDELT_DOC": 0,
        "DIRECT_FEED": 0,
        "USGS": 0,
        "GDACS": 0
      },
      "last7_score": 61.024,
      "prev7_score": 17.772,
      "trend": "up",
      "trend_arrow": "🔺",
      "change_pct": 243.4,
      "place": "Warsaw, Poland"
    },
    {
      "lon": 24.25,
      "lat": 56.25,
      "type": "hotspot_cell",
      "score": 53.865,
      "count": 138,
      "cell_deg": 0.5,
      "sources": {
        "GDELT": 138,
        "GDELT_DOC": 0,
        "DIRECT_FEED": 0,
        "USGS": 0,
        "GDACS": 0
      },
      "last7_score": 42.977,
      "prev7_score": 10.888,
      "trend": "up",
      "trend_arrow": "🔺",
      "change_pct": 294.7,
      "place": "Namišių seniūnija, Lithuania"
    }
  ]
}