{
  "generated_utc": "2026-04-17T19:05:54Z",
  "top": [
    {
      "lon": 14.25,
      "lat": 50.25,
      "type": "hotspot_cell",
      "score": 921.029,
      "count": 1376,
      "cell_deg": 0.5,
      "sources": {
        "GDELT": 122,
        "GDELT_DOC": 1254,
        "DIRECT_FEED": 0,
        "USGS": 0,
        "GDACS": 0
      },
      "last7_score": 915.364,
      "prev7_score": 5.665,
      "trend": "up",
      "trend_arrow": "🔺",
      "change_pct": 16059.4,
      "place": "SO ORP Kralupy nad Vltavou, Czechia"
    },
    {
      "lon": 26.25,
      "lat": 44.25,
      "type": "hotspot_cell",
      "score": 844.199,
      "count": 1317,
      "cell_deg": 0.5,
      "sources": {
        "GDELT": 112,
        "GDELT_DOC": 1203,
        "DIRECT_FEED": 2,
        "USGS": 0,
        "GDACS": 0
      },
      "last7_score": 837.461,
      "prev7_score": 6.738,
      "trend": "up",
      "trend_arrow": "🔺",
      "change_pct": 12328.5,
      "place": "Giurgiu, Romania"
    },
    {
      "lon": 19.25,
      "lat": 47.75,
      "type": "hotspot_cell",
      "score": 677.989,
      "count": 1513,
      "cell_deg": 0.5,
      "sources": {
        "GDELT": 1182,
        "GDELT_DOC": 0,
        "DIRECT_FEED": 331,
        "USGS": 0,
        "GDACS": 0
      },
      "last7_score": 615.644,
      "prev7_score": 62.345,
      "trend": "up",
      "trend_arrow": "🔺",
      "change_pct": 887.5,
      "place": "Pest, Hungary"
    },
    {
      "lon": 25.25,
      "lat": 54.75,
      "type": "hotspot_cell",
      "score": 481.361,
      "count": 783,
      "cell_deg": 0.5,
      "sources": {
        "GDELT": 77,
        "GDELT_DOC": 706,
        "DIRECT_FEED": 0,
        "USGS": 0,
        "GDACS": 0
      },
      "last7_score": 476.725,
      "prev7_score": 4.636,
      "trend": "up",
      "trend_arrow": "🔺",
      "change_pct": 10182.1,
      "place": "Vilnius County, Lithuania"
    },
    {
      "lon": 20.25,
      "lat": 47.25,
      "type": "hotspot_cell",
      "score": 345.785,
      "count": 801,
      "cell_deg": 0.5,
      "sources": {
        "GDELT": 801,
        "GDELT_DOC": 0,
        "DIRECT_FEED": 0,
        "USGS": 0,
        "GDACS": 0
      },
      "last7_score": 306.946,
      "prev7_score": 38.84,
      "trend": "up",
      "trend_arrow": "🔺",
      "change_pct": 690.3,
      "place": "Jász-Nagykun-Szolnok, Hungary"
    },
    {
      "lon": 20.25,
      "lat": 52.25,
      "type": "hotspot_cell",
      "score": 170.281,
      "count": 398,
      "cell_deg": 0.5,
      "sources": {
        "GDELT": 398,
        "GDELT_DOC": 0,
        "DIRECT_FEED": 0,
        "USGS": 0,
        "GDACS": 0
      },
      "last7_score": 144.613,
      "prev7_score": 25.668,
      "trend": "up",
      "trend_arrow": "🔺",
      "change_pct": 463.4,
      "place": "Sochaczew County, Poland"
    },
    {
      "lon": 24.25,
      "lat": 56.75,
      "type": "hotspot_cell",
      "score": 122.582,
      "count": 162,
      "cell_deg": 0.5,
      "sources": {
        "GDELT": 31,
        "GDELT_DOC": 0,
        "DIRECT_FEED": 131,
        "USGS": 0,
        "GDACS": 0
      },
      "last7_score": 120.985,
      "prev7_score": 1.598,
      "trend": "up",
      "trend_arrow": "🔺",
      "change_pct": 7472.0,
      "place": "Ķekavas novads, Latvia"
    },
    {
      "lon": 25.25,
      "lat": 46.25,
      "type": "hotspot_cell",
      "score": 117.854,
      "count": 266,
      "cell_deg": 0.5,
      "sources": {
        "GDELT": 266,
        "GDELT_DOC": 0,
        "DIRECT_FEED": 0,
        "USGS": 0,
        "GDACS": 0
      },
      "last7_score": 102.058,
      "prev7_score": 15.795,
      "trend": "up",
      "trend_arrow": "🔺",
      "change_pct": 546.1,
      "place": "Harghita, Romania"
    },
    {
      "lon": 15.25,
      "lat": 49.75,
      "type": "hotspot_cell",
      "score": 81.308,
      "count": 170,
      "cell_deg": 0.5,
      "sources": {
        "GDELT": 170,
        "GDELT_DOC": 0,
        "DIRECT_FEED": 0,
        "USGS": 0,
        "GDACS": 0
      },
      "last7_score": 72.422,
      "prev7_score": 8.886,
      "trend": "up",
      "trend_arrow": "🔺",
      "change_pct": 715.0,
      "place": "Vysočina Region, Czechia"
    },
    {
      "lon": 21.25,
      "lat": 52.25,
      "type": "hotspot_cell",
      "score": 80.59,
      "count": 170,
      "cell_deg": 0.5,
      "sources": {
        "GDELT": 170,
        "GDELT_DOC": 0,
        "DIRECT_FEED": 0,
        "USGS": 0,
        "GDACS": 0
      },
      "last7_score": 73.078,
      "prev7_score": 7.512,
      "trend": "up",
      "trend_arrow": "🔺",
      "change_pct": 872.8,
      "place": "Warsaw, Poland"
    }
  ]
}