{
  "generated_utc": "2026-03-04T06:53:45Z",
  "top": [
    {
      "lon": 21.25,
      "lat": 52.25,
      "type": "hotspot_cell",
      "score": 18.275,
      "count": 45,
      "cell_deg": 0.5,
      "sources": {
        "GDELT": 45,
        "USGS": 0,
        "GDACS": 0
      },
      "last7_score": 15.388,
      "prev7_score": 2.887,
      "trend": "up",
      "trend_arrow": "🔺",
      "change_pct": 433.0,
      "place": "Warsaw, Poland"
    },
    {
      "lon": 20.25,
      "lat": 47.25,
      "type": "hotspot_cell",
      "score": 17.429,
      "count": 41,
      "cell_deg": 0.5,
      "sources": {
        "GDELT": 41,
        "USGS": 0,
        "GDACS": 0
      },
      "last7_score": 14.359,
      "prev7_score": 3.071,
      "trend": "up",
      "trend_arrow": "🔺",
      "change_pct": 367.6,
      "place": "Jász-Nagykun-Szolnok, Hungary"
    },
    {
      "lon": 20.25,
      "lat": 52.25,
      "type": "hotspot_cell",
      "score": 16.819,
      "count": 47,
      "cell_deg": 0.5,
      "sources": {
        "GDELT": 47,
        "USGS": 0,
        "GDACS": 0
      },
      "last7_score": 13.525,
      "prev7_score": 3.294,
      "trend": "up",
      "trend_arrow": "🔺",
      "change_pct": 310.6,
      "place": "Sochaczew County, Poland"
    },
    {
      "lon": 26.25,
      "lat": 59.25,
      "type": "hotspot_cell",
      "score": 15.428,
      "count": 35,
      "cell_deg": 0.5,
      "sources": {
        "GDELT": 35,
        "USGS": 0,
        "GDACS": 0
      },
      "last7_score": 13.546,
      "prev7_score": 1.882,
      "trend": "up",
      "trend_arrow": "🔺",
      "change_pct": 619.7,
      "place": "Lääne-Viru County, Estonia"
    },
    {
      "lon": 14.25,
      "lat": 50.25,
      "type": "hotspot_cell",
      "score": 14.96,
      "count": 37,
      "cell_deg": 0.5,
      "sources": {
        "GDELT": 37,
        "USGS": 0,
        "GDACS": 0
      },
      "last7_score": 12.124,
      "prev7_score": 2.836,
      "trend": "up",
      "trend_arrow": "🔺",
      "change_pct": 327.5,
      "place": "SO ORP Kralupy nad Vltavou, Czechia"
    },
    {
      "lon": 25.25,
      "lat": 46.25,
      "type": "hotspot_cell",
      "score": 14.129,
      "count": 34,
      "cell_deg": 0.5,
      "sources": {
        "GDELT": 34,
        "USGS": 0,
        "GDACS": 0
      },
      "last7_score": 11.675,
      "prev7_score": 2.454,
      "trend": "up",
      "trend_arrow": "🔺",
      "change_pct": 375.7,
      "place": "Harghita, Romania"
    },
    {
      "lon": 19.25,
      "lat": 47.75,
      "type": "hotspot_cell",
      "score": 12.026,
      "count": 37,
      "cell_deg": 0.5,
      "sources": {
        "GDELT": 37,
        "USGS": 0,
        "GDACS": 0
      },
      "last7_score": 9.156,
      "prev7_score": 2.87,
      "trend": "up",
      "trend_arrow": "🔺",
      "change_pct": 219.0,
      "place": "Pest, Hungary"
    },
    {
      "lon": 15.25,
      "lat": 49.75,
      "type": "hotspot_cell",
      "score": 10.618,
      "count": 32,
      "cell_deg": 0.5,
      "sources": {
        "GDELT": 32,
        "USGS": 0,
        "GDACS": 0
      },
      "last7_score": 8.111,
      "prev7_score": 2.507,
      "trend": "up",
      "trend_arrow": "🔺",
      "change_pct": 223.6,
      "place": "Vysočina Region, Czechia"
    },
    {
      "lon": 26.25,
      "lat": 44.25,
      "type": "hotspot_cell",
      "score": 10.591,
      "count": 28,
      "cell_deg": 0.5,
      "sources": {
        "GDELT": 28,
        "USGS": 0,
        "GDACS": 0
      },
      "last7_score": 8.467,
      "prev7_score": 2.124,
      "trend": "up",
      "trend_arrow": "🔺",
      "change_pct": 298.7,
      "place": "Giurgiu, Romania"
    },
    {
      "lon": 25.25,
      "lat": 57.25,
      "type": "hotspot_cell",
      "score": 9.758,
      "count": 31,
      "cell_deg": 0.5,
      "sources": {
        "GDELT": 31,
        "USGS": 0,
        "GDACS": 0
      },
      "last7_score": 7.886,
      "prev7_score": 1.872,
      "trend": "up",
      "trend_arrow": "🔺",
      "change_pct": 321.3,
      "place": "Cēsu novads, Latvia"
    }
  ]
}