{
  "generated_utc": "2026-03-20T02:14:19Z",
  "top": [
    {
      "lon": 26.25,
      "lat": 44.25,
      "type": "hotspot_cell",
      "score": 839.061,
      "count": 1363,
      "cell_deg": 0.5,
      "sources": {
        "GDELT": 173,
        "GDELT_DOC": 1189,
        "DIRECT_FEED": 1,
        "USGS": 0,
        "GDACS": 0
      },
      "last7_score": 820.383,
      "prev7_score": 18.677,
      "trend": "up",
      "trend_arrow": "🔺",
      "change_pct": 4292.4,
      "place": "Giurgiu, Romania"
    },
    {
      "lon": 14.25,
      "lat": 50.25,
      "type": "hotspot_cell",
      "score": 781.308,
      "count": 1335,
      "cell_deg": 0.5,
      "sources": {
        "GDELT": 105,
        "GDELT_DOC": 1227,
        "DIRECT_FEED": 3,
        "USGS": 0,
        "GDACS": 0
      },
      "last7_score": 773.258,
      "prev7_score": 8.05,
      "trend": "up",
      "trend_arrow": "🔺",
      "change_pct": 9506.2,
      "place": "SO ORP Kralupy nad Vltavou, Czechia"
    },
    {
      "lon": 25.25,
      "lat": 54.75,
      "type": "hotspot_cell",
      "score": 507.371,
      "count": 849,
      "cell_deg": 0.5,
      "sources": {
        "GDELT": 71,
        "GDELT_DOC": 778,
        "DIRECT_FEED": 0,
        "USGS": 0,
        "GDACS": 0
      },
      "last7_score": 500.31,
      "prev7_score": 7.062,
      "trend": "up",
      "trend_arrow": "🔺",
      "change_pct": 6984.8,
      "place": "Vilnius County, Lithuania"
    },
    {
      "lon": 19.25,
      "lat": 47.75,
      "type": "hotspot_cell",
      "score": 310.958,
      "count": 583,
      "cell_deg": 0.5,
      "sources": {
        "GDELT": 367,
        "GDELT_DOC": 0,
        "DIRECT_FEED": 216,
        "USGS": 0,
        "GDACS": 0
      },
      "last7_score": 281.275,
      "prev7_score": 29.683,
      "trend": "up",
      "trend_arrow": "🔺",
      "change_pct": 847.6,
      "place": "Pest, Hungary"
    },
    {
      "lon": 20.25,
      "lat": 52.25,
      "type": "hotspot_cell",
      "score": 174.63,
      "count": 405,
      "cell_deg": 0.5,
      "sources": {
        "GDELT": 405,
        "GDELT_DOC": 0,
        "DIRECT_FEED": 0,
        "USGS": 0,
        "GDACS": 0
      },
      "last7_score": 141.275,
      "prev7_score": 33.355,
      "trend": "up",
      "trend_arrow": "🔺",
      "change_pct": 323.5,
      "place": "Sochaczew County, Poland"
    },
    {
      "lon": 20.25,
      "lat": 47.25,
      "type": "hotspot_cell",
      "score": 164.81,
      "count": 380,
      "cell_deg": 0.5,
      "sources": {
        "GDELT": 380,
        "GDELT_DOC": 0,
        "DIRECT_FEED": 0,
        "USGS": 0,
        "GDACS": 0
      },
      "last7_score": 133.513,
      "prev7_score": 31.297,
      "trend": "up",
      "trend_arrow": "🔺",
      "change_pct": 326.6,
      "place": "Jász-Nagykun-Szolnok, Hungary"
    },
    {
      "lon": 25.25,
      "lat": 46.25,
      "type": "hotspot_cell",
      "score": 120.367,
      "count": 294,
      "cell_deg": 0.5,
      "sources": {
        "GDELT": 294,
        "GDELT_DOC": 0,
        "DIRECT_FEED": 0,
        "USGS": 0,
        "GDACS": 0
      },
      "last7_score": 92.674,
      "prev7_score": 27.693,
      "trend": "up",
      "trend_arrow": "🔺",
      "change_pct": 234.6,
      "place": "Harghita, Romania"
    },
    {
      "lon": 24.25,
      "lat": 56.75,
      "type": "hotspot_cell",
      "score": 110.632,
      "count": 162,
      "cell_deg": 0.5,
      "sources": {
        "GDELT": 31,
        "GDELT_DOC": 0,
        "DIRECT_FEED": 131,
        "USGS": 0,
        "GDACS": 0
      },
      "last7_score": 107.623,
      "prev7_score": 3.009,
      "trend": "up",
      "trend_arrow": "🔺",
      "change_pct": 3476.5,
      "place": "Ķekavas novads, Latvia"
    },
    {
      "lon": 15.25,
      "lat": 49.75,
      "type": "hotspot_cell",
      "score": 78.806,
      "count": 160,
      "cell_deg": 0.5,
      "sources": {
        "GDELT": 160,
        "GDELT_DOC": 0,
        "DIRECT_FEED": 0,
        "USGS": 0,
        "GDACS": 0
      },
      "last7_score": 67.277,
      "prev7_score": 11.529,
      "trend": "up",
      "trend_arrow": "🔺",
      "change_pct": 483.6,
      "place": "Vysočina Region, Czechia"
    },
    {
      "lon": 21.25,
      "lat": 52.25,
      "type": "hotspot_cell",
      "score": 71.512,
      "count": 181,
      "cell_deg": 0.5,
      "sources": {
        "GDELT": 181,
        "GDELT_DOC": 0,
        "DIRECT_FEED": 0,
        "USGS": 0,
        "GDACS": 0
      },
      "last7_score": 54.869,
      "prev7_score": 16.643,
      "trend": "up",
      "trend_arrow": "🔺",
      "change_pct": 229.7,
      "place": "Warsaw, Poland"
    }
  ]
}