{
  "generated_utc": "2026-06-14T09:25:43Z",
  "top": [
    {
      "lon": 26.25,
      "lat": 44.25,
      "type": "hotspot_cell",
      "score": 542.848,
      "count": 922,
      "cell_deg": 0.5,
      "sources": {
        "GDELT": 175,
        "GDELT_DOC": 736,
        "DIRECT_FEED": 11,
        "USGS": 0,
        "GDACS": 0
      },
      "last7_score": 531.605,
      "prev7_score": 11.244,
      "trend": "up",
      "trend_arrow": "🔺",
      "change_pct": 4628.0,
      "place": "Giurgiu, Romania"
    },
    {
      "lon": 14.25,
      "lat": 50.25,
      "type": "hotspot_cell",
      "score": 506.753,
      "count": 877,
      "cell_deg": 0.5,
      "sources": {
        "GDELT": 96,
        "GDELT_DOC": 776,
        "DIRECT_FEED": 5,
        "USGS": 0,
        "GDACS": 0
      },
      "last7_score": 500.713,
      "prev7_score": 6.04,
      "trend": "up",
      "trend_arrow": "🔺",
      "change_pct": 8190.6,
      "place": "SO ORP Kralupy nad Vltavou, Czechia"
    },
    {
      "lon": 25.25,
      "lat": 54.75,
      "type": "hotspot_cell",
      "score": 355.965,
      "count": 701,
      "cell_deg": 0.5,
      "sources": {
        "GDELT": 74,
        "GDELT_DOC": 627,
        "DIRECT_FEED": 0,
        "USGS": 0,
        "GDACS": 0
      },
      "last7_score": 351.49,
      "prev7_score": 4.475,
      "trend": "up",
      "trend_arrow": "🔺",
      "change_pct": 7754.3,
      "place": "Vilnius County, Lithuania"
    },
    {
      "lon": 19.25,
      "lat": 47.75,
      "type": "hotspot_cell",
      "score": 174.361,
      "count": 378,
      "cell_deg": 0.5,
      "sources": {
        "GDELT": 209,
        "GDELT_DOC": 0,
        "DIRECT_FEED": 169,
        "USGS": 0,
        "GDACS": 0
      },
      "last7_score": 159.486,
      "prev7_score": 14.875,
      "trend": "up",
      "trend_arrow": "🔺",
      "change_pct": 972.2,
      "place": "Pest, Hungary"
    },
    {
      "lon": 20.25,
      "lat": 52.25,
      "type": "hotspot_cell",
      "score": 153.802,
      "count": 472,
      "cell_deg": 0.5,
      "sources": {
        "GDELT": 472,
        "GDELT_DOC": 0,
        "DIRECT_FEED": 0,
        "USGS": 0,
        "GDACS": 0
      },
      "last7_score": 121.789,
      "prev7_score": 32.012,
      "trend": "up",
      "trend_arrow": "🔺",
      "change_pct": 280.4,
      "place": "Sochaczew County, Poland"
    },
    {
      "lon": 25.25,
      "lat": 46.25,
      "type": "hotspot_cell",
      "score": 134.447,
      "count": 430,
      "cell_deg": 0.5,
      "sources": {
        "GDELT": 430,
        "GDELT_DOC": 0,
        "DIRECT_FEED": 0,
        "USGS": 0,
        "GDACS": 0
      },
      "last7_score": 104.563,
      "prev7_score": 29.884,
      "trend": "up",
      "trend_arrow": "🔺",
      "change_pct": 249.9,
      "place": "Harghita, Romania"
    },
    {
      "lon": 24.25,
      "lat": 56.75,
      "type": "hotspot_cell",
      "score": 105.34,
      "count": 172,
      "cell_deg": 0.5,
      "sources": {
        "GDELT": 44,
        "GDELT_DOC": 0,
        "DIRECT_FEED": 128,
        "USGS": 0,
        "GDACS": 0
      },
      "last7_score": 101.657,
      "prev7_score": 3.683,
      "trend": "up",
      "trend_arrow": "🔺",
      "change_pct": 2660.3,
      "place": "Ķekavas novads, Latvia"
    },
    {
      "lon": 20.25,
      "lat": 47.25,
      "type": "hotspot_cell",
      "score": 92.633,
      "count": 260,
      "cell_deg": 0.5,
      "sources": {
        "GDELT": 260,
        "GDELT_DOC": 0,
        "DIRECT_FEED": 0,
        "USGS": 0,
        "GDACS": 0
      },
      "last7_score": 75.725,
      "prev7_score": 16.908,
      "trend": "up",
      "trend_arrow": "🔺",
      "change_pct": 347.9,
      "place": "Jász-Nagykun-Szolnok, Hungary"
    },
    {
      "lon": 27.75,
      "lat": 47.25,
      "type": "hotspot_cell",
      "score": 62.07,
      "count": 83,
      "cell_deg": 0.5,
      "sources": {
        "GDELT": 0,
        "GDELT_DOC": 83,
        "DIRECT_FEED": 0,
        "USGS": 0,
        "GDACS": 0
      },
      "last7_score": 62.07,
      "prev7_score": 0.0,
      "trend": "new",
      "trend_arrow": "🆕",
      "change_pct": null,
      "place": "Iași, Romania"
    },
    {
      "lon": 21.25,
      "lat": 52.25,
      "type": "hotspot_cell",
      "score": 54.826,
      "count": 176,
      "cell_deg": 0.5,
      "sources": {
        "GDELT": 176,
        "GDELT_DOC": 0,
        "DIRECT_FEED": 0,
        "USGS": 0,
        "GDACS": 0
      },
      "last7_score": 42.963,
      "prev7_score": 11.863,
      "trend": "up",
      "trend_arrow": "🔺",
      "change_pct": 262.2,
      "place": "Warsaw, Poland"
    }
  ]
}