{
  "generated_utc": "2026-04-23T19:16:15Z",
  "top": [
    {
      "lon": 14.25,
      "lat": 50.25,
      "type": "hotspot_cell",
      "score": 1048.585,
      "count": 1501,
      "cell_deg": 0.5,
      "sources": {
        "GDELT": 168,
        "GDELT_DOC": 1329,
        "DIRECT_FEED": 4,
        "USGS": 0,
        "GDACS": 0
      },
      "last7_score": 1038.724,
      "prev7_score": 9.861,
      "trend": "up",
      "trend_arrow": "🔺",
      "change_pct": 10433.8,
      "place": "SO ORP Kralupy nad Vltavou, Czechia"
    },
    {
      "lon": 26.25,
      "lat": 44.25,
      "type": "hotspot_cell",
      "score": 880.435,
      "count": 1365,
      "cell_deg": 0.5,
      "sources": {
        "GDELT": 132,
        "GDELT_DOC": 1227,
        "DIRECT_FEED": 6,
        "USGS": 0,
        "GDACS": 0
      },
      "last7_score": 873.072,
      "prev7_score": 7.363,
      "trend": "up",
      "trend_arrow": "🔺",
      "change_pct": 11757.0,
      "place": "Giurgiu, Romania"
    },
    {
      "lon": 25.25,
      "lat": 54.75,
      "type": "hotspot_cell",
      "score": 747.145,
      "count": 1116,
      "cell_deg": 0.5,
      "sources": {
        "GDELT": 74,
        "GDELT_DOC": 1042,
        "DIRECT_FEED": 0,
        "USGS": 0,
        "GDACS": 0
      },
      "last7_score": 741.249,
      "prev7_score": 5.896,
      "trend": "up",
      "trend_arrow": "🔺",
      "change_pct": 12471.1,
      "place": "Vilnius County, Lithuania"
    },
    {
      "lon": 19.25,
      "lat": 47.75,
      "type": "hotspot_cell",
      "score": 462.263,
      "count": 1293,
      "cell_deg": 0.5,
      "sources": {
        "GDELT": 1038,
        "GDELT_DOC": 0,
        "DIRECT_FEED": 255,
        "USGS": 0,
        "GDACS": 0
      },
      "last7_score": 372.318,
      "prev7_score": 89.945,
      "trend": "up",
      "trend_arrow": "🔺",
      "change_pct": 313.9,
      "place": "Pest, Hungary"
    },
    {
      "lon": 20.25,
      "lat": 47.25,
      "type": "hotspot_cell",
      "score": 312.79,
      "count": 879,
      "cell_deg": 0.5,
      "sources": {
        "GDELT": 879,
        "GDELT_DOC": 0,
        "DIRECT_FEED": 0,
        "USGS": 0,
        "GDACS": 0
      },
      "last7_score": 245.786,
      "prev7_score": 67.004,
      "trend": "up",
      "trend_arrow": "🔺",
      "change_pct": 266.8,
      "place": "Jász-Nagykun-Szolnok, Hungary"
    },
    {
      "lon": 20.25,
      "lat": 52.25,
      "type": "hotspot_cell",
      "score": 192.997,
      "count": 457,
      "cell_deg": 0.5,
      "sources": {
        "GDELT": 457,
        "GDELT_DOC": 0,
        "DIRECT_FEED": 0,
        "USGS": 0,
        "GDACS": 0
      },
      "last7_score": 165.962,
      "prev7_score": 27.036,
      "trend": "up",
      "trend_arrow": "🔺",
      "change_pct": 513.9,
      "place": "Sochaczew County, Poland"
    },
    {
      "lon": 24.25,
      "lat": 56.75,
      "type": "hotspot_cell",
      "score": 118.051,
      "count": 166,
      "cell_deg": 0.5,
      "sources": {
        "GDELT": 31,
        "GDELT_DOC": 0,
        "DIRECT_FEED": 135,
        "USGS": 0,
        "GDACS": 0
      },
      "last7_score": 115.038,
      "prev7_score": 3.014,
      "trend": "up",
      "trend_arrow": "🔺",
      "change_pct": 3717.4,
      "place": "Ķekavas novads, Latvia"
    },
    {
      "lon": 25.25,
      "lat": 46.25,
      "type": "hotspot_cell",
      "score": 103.532,
      "count": 249,
      "cell_deg": 0.5,
      "sources": {
        "GDELT": 249,
        "GDELT_DOC": 0,
        "DIRECT_FEED": 0,
        "USGS": 0,
        "GDACS": 0
      },
      "last7_score": 84.305,
      "prev7_score": 19.227,
      "trend": "up",
      "trend_arrow": "🔺",
      "change_pct": 338.5,
      "place": "Harghita, Romania"
    },
    {
      "lon": 27.75,
      "lat": 47.25,
      "type": "hotspot_cell",
      "score": 89.824,
      "count": 109,
      "cell_deg": 0.5,
      "sources": {
        "GDELT": 0,
        "GDELT_DOC": 109,
        "DIRECT_FEED": 0,
        "USGS": 0,
        "GDACS": 0
      },
      "last7_score": 89.824,
      "prev7_score": 0.0,
      "trend": "new",
      "trend_arrow": "🆕",
      "change_pct": null,
      "place": "Iași, Romania"
    },
    {
      "lon": 15.25,
      "lat": 49.75,
      "type": "hotspot_cell",
      "score": 77.988,
      "count": 206,
      "cell_deg": 0.5,
      "sources": {
        "GDELT": 206,
        "GDELT_DOC": 0,
        "DIRECT_FEED": 0,
        "USGS": 0,
        "GDACS": 0
      },
      "last7_score": 65.4,
      "prev7_score": 12.588,
      "trend": "up",
      "trend_arrow": "🔺",
      "change_pct": 419.5,
      "place": "Vysočina Region, Czechia"
    }
  ]
}