{
  "generated_utc": "2026-05-24T19:10:49Z",
  "top": [
    {
      "lon": 14.25,
      "lat": 50.25,
      "type": "hotspot_cell",
      "score": 1002.775,
      "count": 1566,
      "cell_deg": 0.5,
      "sources": {
        "GDELT": 143,
        "GDELT_DOC": 1407,
        "DIRECT_FEED": 16,
        "USGS": 0,
        "GDACS": 0
      },
      "last7_score": 995.765,
      "prev7_score": 7.009,
      "trend": "up",
      "trend_arrow": "🔺",
      "change_pct": 14106.3,
      "place": "SO ORP Kralupy nad Vltavou, Czechia"
    },
    {
      "lon": 26.25,
      "lat": 44.25,
      "type": "hotspot_cell",
      "score": 722.275,
      "count": 1410,
      "cell_deg": 0.5,
      "sources": {
        "GDELT": 194,
        "GDELT_DOC": 1214,
        "DIRECT_FEED": 2,
        "USGS": 0,
        "GDACS": 0
      },
      "last7_score": 708.846,
      "prev7_score": 13.429,
      "trend": "up",
      "trend_arrow": "🔺",
      "change_pct": 5178.3,
      "place": "Giurgiu, Romania"
    },
    {
      "lon": 25.25,
      "lat": 54.75,
      "type": "hotspot_cell",
      "score": 710.207,
      "count": 1134,
      "cell_deg": 0.5,
      "sources": {
        "GDELT": 102,
        "GDELT_DOC": 1031,
        "DIRECT_FEED": 1,
        "USGS": 0,
        "GDACS": 0
      },
      "last7_score": 706.644,
      "prev7_score": 3.562,
      "trend": "up",
      "trend_arrow": "🔺",
      "change_pct": 19737.2,
      "place": "Vilnius County, Lithuania"
    },
    {
      "lon": 20.25,
      "lat": 52.25,
      "type": "hotspot_cell",
      "score": 341.544,
      "count": 807,
      "cell_deg": 0.5,
      "sources": {
        "GDELT": 807,
        "GDELT_DOC": 0,
        "DIRECT_FEED": 0,
        "USGS": 0,
        "GDACS": 0
      },
      "last7_score": 301.54,
      "prev7_score": 40.004,
      "trend": "up",
      "trend_arrow": "🔺",
      "change_pct": 653.8,
      "place": "Sochaczew County, Poland"
    },
    {
      "lon": 19.25,
      "lat": 47.75,
      "type": "hotspot_cell",
      "score": 217.495,
      "count": 484,
      "cell_deg": 0.5,
      "sources": {
        "GDELT": 245,
        "GDELT_DOC": 0,
        "DIRECT_FEED": 239,
        "USGS": 0,
        "GDACS": 0
      },
      "last7_score": 203.077,
      "prev7_score": 14.417,
      "trend": "up",
      "trend_arrow": "🔺",
      "change_pct": 1308.6,
      "place": "Pest, Hungary"
    },
    {
      "lon": 25.25,
      "lat": 46.25,
      "type": "hotspot_cell",
      "score": 114.575,
      "count": 329,
      "cell_deg": 0.5,
      "sources": {
        "GDELT": 329,
        "GDELT_DOC": 0,
        "DIRECT_FEED": 0,
        "USGS": 0,
        "GDACS": 0
      },
      "last7_score": 98.606,
      "prev7_score": 15.969,
      "trend": "up",
      "trend_arrow": "🔺",
      "change_pct": 517.5,
      "place": "Harghita, Romania"
    },
    {
      "lon": 21.25,
      "lat": 52.25,
      "type": "hotspot_cell",
      "score": 105.532,
      "count": 276,
      "cell_deg": 0.5,
      "sources": {
        "GDELT": 276,
        "GDELT_DOC": 0,
        "DIRECT_FEED": 0,
        "USGS": 0,
        "GDACS": 0
      },
      "last7_score": 91.102,
      "prev7_score": 14.43,
      "trend": "up",
      "trend_arrow": "🔺",
      "change_pct": 531.3,
      "place": "Warsaw, Poland"
    },
    {
      "lon": 24.25,
      "lat": 56.75,
      "type": "hotspot_cell",
      "score": 96.294,
      "count": 171,
      "cell_deg": 0.5,
      "sources": {
        "GDELT": 51,
        "GDELT_DOC": 0,
        "DIRECT_FEED": 120,
        "USGS": 0,
        "GDACS": 0
      },
      "last7_score": 93.252,
      "prev7_score": 3.042,
      "trend": "up",
      "trend_arrow": "🔺",
      "change_pct": 2965.2,
      "place": "Ķekavas novads, Latvia"
    },
    {
      "lon": 20.25,
      "lat": 47.25,
      "type": "hotspot_cell",
      "score": 89.811,
      "count": 290,
      "cell_deg": 0.5,
      "sources": {
        "GDELT": 290,
        "GDELT_DOC": 0,
        "DIRECT_FEED": 0,
        "USGS": 0,
        "GDACS": 0
      },
      "last7_score": 74.051,
      "prev7_score": 15.76,
      "trend": "up",
      "trend_arrow": "🔺",
      "change_pct": 369.9,
      "place": "Jász-Nagykun-Szolnok, Hungary"
    },
    {
      "lon": 26.25,
      "lat": 59.25,
      "type": "hotspot_cell",
      "score": 61.697,
      "count": 160,
      "cell_deg": 0.5,
      "sources": {
        "GDELT": 160,
        "GDELT_DOC": 0,
        "DIRECT_FEED": 0,
        "USGS": 0,
        "GDACS": 0
      },
      "last7_score": 55.088,
      "prev7_score": 6.609,
      "trend": "up",
      "trend_arrow": "🔺",
      "change_pct": 733.5,
      "place": "Lääne-Viru County, Estonia"
    }
  ]
}