{
  "generated_utc": "2026-07-15T07:58:22Z",
  "top": [
    {
      "lon": 14.25,
      "lat": 50.25,
      "type": "hotspot_cell",
      "score": 697.141,
      "count": 1257,
      "cell_deg": 0.5,
      "sources": {
        "GDELT": 94,
        "GDELT_DOC": 1157,
        "DIRECT_FEED": 6,
        "USGS": 0,
        "GDACS": 0
      },
      "last7_score": 689.082,
      "prev7_score": 8.059,
      "trend": "up",
      "trend_arrow": "🔺",
      "change_pct": 8450.8,
      "place": "SO ORP Kralupy nad Vltavou, Czechia"
    },
    {
      "lon": 25.25,
      "lat": 54.75,
      "type": "hotspot_cell",
      "score": 469.225,
      "count": 883,
      "cell_deg": 0.5,
      "sources": {
        "GDELT": 74,
        "GDELT_DOC": 808,
        "DIRECT_FEED": 1,
        "USGS": 0,
        "GDACS": 0
      },
      "last7_score": 463.095,
      "prev7_score": 6.129,
      "trend": "up",
      "trend_arrow": "🔺",
      "change_pct": 7455.6,
      "place": "Vilnius County, Lithuania"
    },
    {
      "lon": 26.25,
      "lat": 44.25,
      "type": "hotspot_cell",
      "score": 422.226,
      "count": 759,
      "cell_deg": 0.5,
      "sources": {
        "GDELT": 98,
        "GDELT_DOC": 659,
        "DIRECT_FEED": 2,
        "USGS": 0,
        "GDACS": 0
      },
      "last7_score": 413.369,
      "prev7_score": 8.857,
      "trend": "up",
      "trend_arrow": "🔺",
      "change_pct": 4567.4,
      "place": "Giurgiu, Romania"
    },
    {
      "lon": 19.25,
      "lat": 47.75,
      "type": "hotspot_cell",
      "score": 181.314,
      "count": 329,
      "cell_deg": 0.5,
      "sources": {
        "GDELT": 148,
        "GDELT_DOC": 0,
        "DIRECT_FEED": 181,
        "USGS": 0,
        "GDACS": 0
      },
      "last7_score": 171.933,
      "prev7_score": 9.381,
      "trend": "up",
      "trend_arrow": "🔺",
      "change_pct": 1732.9,
      "place": "Pest, Hungary"
    },
    {
      "lon": 20.25,
      "lat": 52.25,
      "type": "hotspot_cell",
      "score": 180.513,
      "count": 480,
      "cell_deg": 0.5,
      "sources": {
        "GDELT": 480,
        "GDELT_DOC": 0,
        "DIRECT_FEED": 0,
        "USGS": 0,
        "GDACS": 0
      },
      "last7_score": 137.818,
      "prev7_score": 42.696,
      "trend": "up",
      "trend_arrow": "🔺",
      "change_pct": 222.8,
      "place": "Sochaczew County, Poland"
    },
    {
      "lon": 25.25,
      "lat": 46.25,
      "type": "hotspot_cell",
      "score": 143.924,
      "count": 372,
      "cell_deg": 0.5,
      "sources": {
        "GDELT": 372,
        "GDELT_DOC": 0,
        "DIRECT_FEED": 0,
        "USGS": 0,
        "GDACS": 0
      },
      "last7_score": 115.782,
      "prev7_score": 28.142,
      "trend": "up",
      "trend_arrow": "🔺",
      "change_pct": 311.4,
      "place": "Harghita, Romania"
    },
    {
      "lon": 24.25,
      "lat": 56.75,
      "type": "hotspot_cell",
      "score": 108.465,
      "count": 152,
      "cell_deg": 0.5,
      "sources": {
        "GDELT": 17,
        "GDELT_DOC": 0,
        "DIRECT_FEED": 135,
        "USGS": 0,
        "GDACS": 0
      },
      "last7_score": 106.898,
      "prev7_score": 1.567,
      "trend": "up",
      "trend_arrow": "🔺",
      "change_pct": 6722.9,
      "place": "Ķekavas novads, Latvia"
    },
    {
      "lon": 21.25,
      "lat": 52.25,
      "type": "hotspot_cell",
      "score": 91.943,
      "count": 246,
      "cell_deg": 0.5,
      "sources": {
        "GDELT": 246,
        "GDELT_DOC": 0,
        "DIRECT_FEED": 0,
        "USGS": 0,
        "GDACS": 0
      },
      "last7_score": 72.844,
      "prev7_score": 19.099,
      "trend": "up",
      "trend_arrow": "🔺",
      "change_pct": 281.4,
      "place": "Warsaw, Poland"
    },
    {
      "lon": 20.25,
      "lat": 47.25,
      "type": "hotspot_cell",
      "score": 72.801,
      "count": 185,
      "cell_deg": 0.5,
      "sources": {
        "GDELT": 185,
        "GDELT_DOC": 0,
        "DIRECT_FEED": 0,
        "USGS": 0,
        "GDACS": 0
      },
      "last7_score": 57.045,
      "prev7_score": 15.756,
      "trend": "up",
      "trend_arrow": "🔺",
      "change_pct": 262.1,
      "place": "Jász-Nagykun-Szolnok, Hungary"
    },
    {
      "lon": 15.25,
      "lat": 49.75,
      "type": "hotspot_cell",
      "score": 55.64,
      "count": 158,
      "cell_deg": 0.5,
      "sources": {
        "GDELT": 158,
        "GDELT_DOC": 0,
        "DIRECT_FEED": 0,
        "USGS": 0,
        "GDACS": 0
      },
      "last7_score": 43.522,
      "prev7_score": 12.118,
      "trend": "up",
      "trend_arrow": "🔺",
      "change_pct": 259.2,
      "place": "Vysočina Region, Czechia"
    }
  ]
}