{
  "generated_utc": "2026-05-21T03:54:13Z",
  "top": [
    {
      "lon": 26.25,
      "lat": 44.25,
      "type": "hotspot_cell",
      "score": 879.368,
      "count": 1440,
      "cell_deg": 0.5,
      "sources": {
        "GDELT": 188,
        "GDELT_DOC": 1248,
        "DIRECT_FEED": 4,
        "USGS": 0,
        "GDACS": 0
      },
      "last7_score": 853.922,
      "prev7_score": 25.446,
      "trend": "up",
      "trend_arrow": "🔺",
      "change_pct": 3255.8,
      "place": "Giurgiu, Romania"
    },
    {
      "lon": 14.25,
      "lat": 50.25,
      "type": "hotspot_cell",
      "score": 877.924,
      "count": 1514,
      "cell_deg": 0.5,
      "sources": {
        "GDELT": 108,
        "GDELT_DOC": 1399,
        "DIRECT_FEED": 7,
        "USGS": 0,
        "GDACS": 0
      },
      "last7_score": 868.772,
      "prev7_score": 9.151,
      "trend": "up",
      "trend_arrow": "🔺",
      "change_pct": 9393.2,
      "place": "SO ORP Kralupy nad Vltavou, Czechia"
    },
    {
      "lon": 25.25,
      "lat": 54.75,
      "type": "hotspot_cell",
      "score": 704.733,
      "count": 1092,
      "cell_deg": 0.5,
      "sources": {
        "GDELT": 90,
        "GDELT_DOC": 1001,
        "DIRECT_FEED": 1,
        "USGS": 0,
        "GDACS": 0
      },
      "last7_score": 697.789,
      "prev7_score": 6.945,
      "trend": "up",
      "trend_arrow": "🔺",
      "change_pct": 9947.9,
      "place": "Vilnius County, Lithuania"
    },
    {
      "lon": 20.25,
      "lat": 52.25,
      "type": "hotspot_cell",
      "score": 257.116,
      "count": 576,
      "cell_deg": 0.5,
      "sources": {
        "GDELT": 576,
        "GDELT_DOC": 0,
        "DIRECT_FEED": 0,
        "USGS": 0,
        "GDACS": 0
      },
      "last7_score": 216.33,
      "prev7_score": 40.786,
      "trend": "up",
      "trend_arrow": "🔺",
      "change_pct": 430.4,
      "place": "Sochaczew County, Poland"
    },
    {
      "lon": 19.25,
      "lat": 47.75,
      "type": "hotspot_cell",
      "score": 245.553,
      "count": 503,
      "cell_deg": 0.5,
      "sources": {
        "GDELT": 281,
        "GDELT_DOC": 0,
        "DIRECT_FEED": 222,
        "USGS": 0,
        "GDACS": 0
      },
      "last7_score": 217.843,
      "prev7_score": 27.71,
      "trend": "up",
      "trend_arrow": "🔺",
      "change_pct": 686.1,
      "place": "Pest, Hungary"
    },
    {
      "lon": 25.25,
      "lat": 46.25,
      "type": "hotspot_cell",
      "score": 124.16,
      "count": 279,
      "cell_deg": 0.5,
      "sources": {
        "GDELT": 279,
        "GDELT_DOC": 0,
        "DIRECT_FEED": 0,
        "USGS": 0,
        "GDACS": 0
      },
      "last7_score": 101.957,
      "prev7_score": 22.203,
      "trend": "up",
      "trend_arrow": "🔺",
      "change_pct": 359.2,
      "place": "Harghita, Romania"
    },
    {
      "lon": 24.25,
      "lat": 56.75,
      "type": "hotspot_cell",
      "score": 114.476,
      "count": 174,
      "cell_deg": 0.5,
      "sources": {
        "GDELT": 41,
        "GDELT_DOC": 0,
        "DIRECT_FEED": 133,
        "USGS": 0,
        "GDACS": 0
      },
      "last7_score": 111.312,
      "prev7_score": 3.164,
      "trend": "up",
      "trend_arrow": "🔺",
      "change_pct": 3417.5,
      "place": "Ķekavas novads, Latvia"
    },
    {
      "lon": 20.25,
      "lat": 47.25,
      "type": "hotspot_cell",
      "score": 103.417,
      "count": 282,
      "cell_deg": 0.5,
      "sources": {
        "GDELT": 282,
        "GDELT_DOC": 0,
        "DIRECT_FEED": 0,
        "USGS": 0,
        "GDACS": 0
      },
      "last7_score": 76.698,
      "prev7_score": 26.719,
      "trend": "up",
      "trend_arrow": "🔺",
      "change_pct": 187.1,
      "place": "Jász-Nagykun-Szolnok, Hungary"
    },
    {
      "lon": 21.25,
      "lat": 52.25,
      "type": "hotspot_cell",
      "score": 95.131,
      "count": 231,
      "cell_deg": 0.5,
      "sources": {
        "GDELT": 231,
        "GDELT_DOC": 0,
        "DIRECT_FEED": 0,
        "USGS": 0,
        "GDACS": 0
      },
      "last7_score": 78.706,
      "prev7_score": 16.424,
      "trend": "up",
      "trend_arrow": "🔺",
      "change_pct": 379.2,
      "place": "Warsaw, Poland"
    },
    {
      "lon": 25.25,
      "lat": 57.25,
      "type": "hotspot_cell",
      "score": 70.529,
      "count": 187,
      "cell_deg": 0.5,
      "sources": {
        "GDELT": 187,
        "GDELT_DOC": 0,
        "DIRECT_FEED": 0,
        "USGS": 0,
        "GDACS": 0
      },
      "last7_score": 47.707,
      "prev7_score": 22.823,
      "trend": "up",
      "trend_arrow": "🔺",
      "change_pct": 109.0,
      "place": "Cēsu novads, Latvia"
    }
  ]
}