{
  "generated_utc": "2026-04-11T02:27:42Z",
  "top": [
    {
      "lon": 26.25,
      "lat": 44.25,
      "type": "hotspot_cell",
      "score": 869.918,
      "count": 1420,
      "cell_deg": 0.5,
      "sources": {
        "GDELT": 156,
        "GDELT_DOC": 1257,
        "DIRECT_FEED": 7,
        "USGS": 0,
        "GDACS": 0
      },
      "last7_score": 855.157,
      "prev7_score": 14.761,
      "trend": "up",
      "trend_arrow": "🔺",
      "change_pct": 5693.2,
      "place": "Giurgiu, Romania"
    },
    {
      "lon": 14.25,
      "lat": 50.25,
      "type": "hotspot_cell",
      "score": 757.682,
      "count": 1145,
      "cell_deg": 0.5,
      "sources": {
        "GDELT": 85,
        "GDELT_DOC": 1060,
        "DIRECT_FEED": 0,
        "USGS": 0,
        "GDACS": 0
      },
      "last7_score": 750.844,
      "prev7_score": 6.839,
      "trend": "up",
      "trend_arrow": "🔺",
      "change_pct": 10879.3,
      "place": "SO ORP Kralupy nad Vltavou, Czechia"
    },
    {
      "lon": 25.25,
      "lat": 54.75,
      "type": "hotspot_cell",
      "score": 513.276,
      "count": 824,
      "cell_deg": 0.5,
      "sources": {
        "GDELT": 74,
        "GDELT_DOC": 748,
        "DIRECT_FEED": 2,
        "USGS": 0,
        "GDACS": 0
      },
      "last7_score": 506.537,
      "prev7_score": 6.739,
      "trend": "up",
      "trend_arrow": "🔺",
      "change_pct": 7416.6,
      "place": "Vilnius County, Lithuania"
    },
    {
      "lon": 19.25,
      "lat": 47.75,
      "type": "hotspot_cell",
      "score": 492.327,
      "count": 789,
      "cell_deg": 0.5,
      "sources": {
        "GDELT": 547,
        "GDELT_DOC": 0,
        "DIRECT_FEED": 242,
        "USGS": 0,
        "GDACS": 0
      },
      "last7_score": 476.331,
      "prev7_score": 15.996,
      "trend": "up",
      "trend_arrow": "🔺",
      "change_pct": 2877.9,
      "place": "Pest, Hungary"
    },
    {
      "lon": 20.25,
      "lat": 47.25,
      "type": "hotspot_cell",
      "score": 199.896,
      "count": 411,
      "cell_deg": 0.5,
      "sources": {
        "GDELT": 411,
        "GDELT_DOC": 0,
        "DIRECT_FEED": 0,
        "USGS": 0,
        "GDACS": 0
      },
      "last7_score": 180.491,
      "prev7_score": 19.405,
      "trend": "up",
      "trend_arrow": "🔺",
      "change_pct": 830.1,
      "place": "Jász-Nagykun-Szolnok, Hungary"
    },
    {
      "lon": 20.25,
      "lat": 52.25,
      "type": "hotspot_cell",
      "score": 150.086,
      "count": 407,
      "cell_deg": 0.5,
      "sources": {
        "GDELT": 407,
        "GDELT_DOC": 0,
        "DIRECT_FEED": 0,
        "USGS": 0,
        "GDACS": 0
      },
      "last7_score": 116.836,
      "prev7_score": 33.25,
      "trend": "up",
      "trend_arrow": "🔺",
      "change_pct": 251.4,
      "place": "Sochaczew County, Poland"
    },
    {
      "lon": 24.25,
      "lat": 56.75,
      "type": "hotspot_cell",
      "score": 114.906,
      "count": 164,
      "cell_deg": 0.5,
      "sources": {
        "GDELT": 27,
        "GDELT_DOC": 0,
        "DIRECT_FEED": 137,
        "USGS": 0,
        "GDACS": 0
      },
      "last7_score": 112.872,
      "prev7_score": 2.035,
      "trend": "up",
      "trend_arrow": "🔺",
      "change_pct": 5447.7,
      "place": "Ķekavas novads, Latvia"
    },
    {
      "lon": 25.25,
      "lat": 46.25,
      "type": "hotspot_cell",
      "score": 90.369,
      "count": 254,
      "cell_deg": 0.5,
      "sources": {
        "GDELT": 254,
        "GDELT_DOC": 0,
        "DIRECT_FEED": 0,
        "USGS": 0,
        "GDACS": 0
      },
      "last7_score": 71.531,
      "prev7_score": 18.838,
      "trend": "up",
      "trend_arrow": "🔺",
      "change_pct": 279.7,
      "place": "Harghita, Romania"
    },
    {
      "lon": 24.25,
      "lat": 56.25,
      "type": "hotspot_cell",
      "score": 57.914,
      "count": 114,
      "cell_deg": 0.5,
      "sources": {
        "GDELT": 114,
        "GDELT_DOC": 0,
        "DIRECT_FEED": 0,
        "USGS": 0,
        "GDACS": 0
      },
      "last7_score": 51.998,
      "prev7_score": 5.917,
      "trend": "up",
      "trend_arrow": "🔺",
      "change_pct": 778.9,
      "place": "Namišių seniūnija, Lithuania"
    },
    {
      "lon": 15.25,
      "lat": 49.75,
      "type": "hotspot_cell",
      "score": 48.753,
      "count": 119,
      "cell_deg": 0.5,
      "sources": {
        "GDELT": 119,
        "GDELT_DOC": 0,
        "DIRECT_FEED": 0,
        "USGS": 0,
        "GDACS": 0
      },
      "last7_score": 40.684,
      "prev7_score": 8.068,
      "trend": "up",
      "trend_arrow": "🔺",
      "change_pct": 404.3,
      "place": "Vysočina Region, Czechia"
    }
  ]
}