{
  "generated_utc": "2026-06-26T02:40:28Z",
  "top": [
    {
      "lon": 14.25,
      "lat": 50.25,
      "type": "hotspot_cell",
      "score": 759.751,
      "count": 1110,
      "cell_deg": 0.5,
      "sources": {
        "GDELT": 123,
        "GDELT_DOC": 973,
        "DIRECT_FEED": 14,
        "USGS": 0,
        "GDACS": 0
      },
      "last7_score": 750.056,
      "prev7_score": 9.695,
      "trend": "up",
      "trend_arrow": "🔺",
      "change_pct": 7636.6,
      "place": "SO ORP Kralupy nad Vltavou, Czechia"
    },
    {
      "lon": 26.25,
      "lat": 44.25,
      "type": "hotspot_cell",
      "score": 642.453,
      "count": 1068,
      "cell_deg": 0.5,
      "sources": {
        "GDELT": 138,
        "GDELT_DOC": 920,
        "DIRECT_FEED": 10,
        "USGS": 0,
        "GDACS": 0
      },
      "last7_score": 631.128,
      "prev7_score": 11.325,
      "trend": "up",
      "trend_arrow": "🔺",
      "change_pct": 5473.1,
      "place": "Giurgiu, Romania"
    },
    {
      "lon": 25.25,
      "lat": 54.75,
      "type": "hotspot_cell",
      "score": 325.867,
      "count": 573,
      "cell_deg": 0.5,
      "sources": {
        "GDELT": 53,
        "GDELT_DOC": 520,
        "DIRECT_FEED": 0,
        "USGS": 0,
        "GDACS": 0
      },
      "last7_score": 321.586,
      "prev7_score": 4.281,
      "trend": "up",
      "trend_arrow": "🔺",
      "change_pct": 7411.8,
      "place": "Vilnius County, Lithuania"
    },
    {
      "lon": 20.25,
      "lat": 52.25,
      "type": "hotspot_cell",
      "score": 208.154,
      "count": 479,
      "cell_deg": 0.5,
      "sources": {
        "GDELT": 479,
        "GDELT_DOC": 0,
        "DIRECT_FEED": 0,
        "USGS": 0,
        "GDACS": 0
      },
      "last7_score": 169.362,
      "prev7_score": 38.792,
      "trend": "up",
      "trend_arrow": "🔺",
      "change_pct": 336.6,
      "place": "Sochaczew County, Poland"
    },
    {
      "lon": 19.25,
      "lat": 47.75,
      "type": "hotspot_cell",
      "score": 200.28,
      "count": 349,
      "cell_deg": 0.5,
      "sources": {
        "GDELT": 185,
        "GDELT_DOC": 0,
        "DIRECT_FEED": 164,
        "USGS": 0,
        "GDACS": 0
      },
      "last7_score": 186.217,
      "prev7_score": 14.063,
      "trend": "up",
      "trend_arrow": "🔺",
      "change_pct": 1224.2,
      "place": "Pest, Hungary"
    },
    {
      "lon": 21.25,
      "lat": 52.25,
      "type": "hotspot_cell",
      "score": 147.138,
      "count": 327,
      "cell_deg": 0.5,
      "sources": {
        "GDELT": 327,
        "GDELT_DOC": 0,
        "DIRECT_FEED": 0,
        "USGS": 0,
        "GDACS": 0
      },
      "last7_score": 124.217,
      "prev7_score": 22.921,
      "trend": "up",
      "trend_arrow": "🔺",
      "change_pct": 441.9,
      "place": "Warsaw, Poland"
    },
    {
      "lon": 25.25,
      "lat": 46.25,
      "type": "hotspot_cell",
      "score": 141.336,
      "count": 375,
      "cell_deg": 0.5,
      "sources": {
        "GDELT": 375,
        "GDELT_DOC": 0,
        "DIRECT_FEED": 0,
        "USGS": 0,
        "GDACS": 0
      },
      "last7_score": 105.36,
      "prev7_score": 35.977,
      "trend": "up",
      "trend_arrow": "🔺",
      "change_pct": 192.9,
      "place": "Harghita, Romania"
    },
    {
      "lon": 24.25,
      "lat": 56.75,
      "type": "hotspot_cell",
      "score": 124.567,
      "count": 175,
      "cell_deg": 0.5,
      "sources": {
        "GDELT": 29,
        "GDELT_DOC": 0,
        "DIRECT_FEED": 146,
        "USGS": 0,
        "GDACS": 0
      },
      "last7_score": 121.791,
      "prev7_score": 2.776,
      "trend": "up",
      "trend_arrow": "🔺",
      "change_pct": 4287.1,
      "place": "Ķekavas novads, Latvia"
    },
    {
      "lon": 20.25,
      "lat": 47.25,
      "type": "hotspot_cell",
      "score": 87.419,
      "count": 227,
      "cell_deg": 0.5,
      "sources": {
        "GDELT": 226,
        "GDELT_DOC": 0,
        "DIRECT_FEED": 0,
        "USGS": 0,
        "GDACS": 1
      },
      "last7_score": 67.899,
      "prev7_score": 19.52,
      "trend": "up",
      "trend_arrow": "🔺",
      "change_pct": 247.8,
      "place": "Jász-Nagykun-Szolnok, Hungary"
    },
    {
      "lon": 15.25,
      "lat": 49.75,
      "type": "hotspot_cell",
      "score": 55.178,
      "count": 139,
      "cell_deg": 0.5,
      "sources": {
        "GDELT": 139,
        "GDELT_DOC": 0,
        "DIRECT_FEED": 0,
        "USGS": 0,
        "GDACS": 0
      },
      "last7_score": 43.115,
      "prev7_score": 12.063,
      "trend": "up",
      "trend_arrow": "🔺",
      "change_pct": 257.4,
      "place": "Vysočina Region, Czechia"
    }
  ]
}