{
  "generated_utc": "2026-05-23T08:26:05Z",
  "top": [
    {
      "lon": 26.25,
      "lat": 44.25,
      "type": "hotspot_cell",
      "score": 931.704,
      "count": 1577,
      "cell_deg": 0.5,
      "sources": {
        "GDELT": 191,
        "GDELT_DOC": 1384,
        "DIRECT_FEED": 2,
        "USGS": 0,
        "GDACS": 0
      },
      "last7_score": 913.72,
      "prev7_score": 17.984,
      "trend": "up",
      "trend_arrow": "🔺",
      "change_pct": 4980.7,
      "place": "Giurgiu, Romania"
    },
    {
      "lon": 14.25,
      "lat": 50.25,
      "type": "hotspot_cell",
      "score": 885.038,
      "count": 1399,
      "cell_deg": 0.5,
      "sources": {
        "GDELT": 132,
        "GDELT_DOC": 1253,
        "DIRECT_FEED": 14,
        "USGS": 0,
        "GDACS": 0
      },
      "last7_score": 876.319,
      "prev7_score": 8.719,
      "trend": "up",
      "trend_arrow": "🔺",
      "change_pct": 9950.1,
      "place": "SO ORP Kralupy nad Vltavou, Czechia"
    },
    {
      "lon": 25.25,
      "lat": 54.75,
      "type": "hotspot_cell",
      "score": 702.85,
      "count": 1069,
      "cell_deg": 0.5,
      "sources": {
        "GDELT": 101,
        "GDELT_DOC": 967,
        "DIRECT_FEED": 1,
        "USGS": 0,
        "GDACS": 0
      },
      "last7_score": 697.807,
      "prev7_score": 5.043,
      "trend": "up",
      "trend_arrow": "🔺",
      "change_pct": 13738.1,
      "place": "Vilnius County, Lithuania"
    },
    {
      "lon": 20.25,
      "lat": 52.25,
      "type": "hotspot_cell",
      "score": 405.6,
      "count": 782,
      "cell_deg": 0.5,
      "sources": {
        "GDELT": 782,
        "GDELT_DOC": 0,
        "DIRECT_FEED": 0,
        "USGS": 0,
        "GDACS": 0
      },
      "last7_score": 355.831,
      "prev7_score": 49.769,
      "trend": "up",
      "trend_arrow": "🔺",
      "change_pct": 615.0,
      "place": "Sochaczew County, Poland"
    },
    {
      "lon": 19.25,
      "lat": 47.75,
      "type": "hotspot_cell",
      "score": 253.696,
      "count": 497,
      "cell_deg": 0.5,
      "sources": {
        "GDELT": 257,
        "GDELT_DOC": 0,
        "DIRECT_FEED": 240,
        "USGS": 0,
        "GDACS": 0
      },
      "last7_score": 234.615,
      "prev7_score": 19.081,
      "trend": "up",
      "trend_arrow": "🔺",
      "change_pct": 1129.6,
      "place": "Pest, Hungary"
    },
    {
      "lon": 21.25,
      "lat": 52.25,
      "type": "hotspot_cell",
      "score": 127.668,
      "count": 267,
      "cell_deg": 0.5,
      "sources": {
        "GDELT": 267,
        "GDELT_DOC": 0,
        "DIRECT_FEED": 0,
        "USGS": 0,
        "GDACS": 0
      },
      "last7_score": 109.313,
      "prev7_score": 18.355,
      "trend": "up",
      "trend_arrow": "🔺",
      "change_pct": 495.5,
      "place": "Warsaw, Poland"
    },
    {
      "lon": 25.25,
      "lat": 46.25,
      "type": "hotspot_cell",
      "score": 124.7,
      "count": 310,
      "cell_deg": 0.5,
      "sources": {
        "GDELT": 310,
        "GDELT_DOC": 0,
        "DIRECT_FEED": 0,
        "USGS": 0,
        "GDACS": 0
      },
      "last7_score": 104.322,
      "prev7_score": 20.377,
      "trend": "up",
      "trend_arrow": "🔺",
      "change_pct": 412.0,
      "place": "Harghita, Romania"
    },
    {
      "lon": 24.25,
      "lat": 56.75,
      "type": "hotspot_cell",
      "score": 117.243,
      "count": 176,
      "cell_deg": 0.5,
      "sources": {
        "GDELT": 51,
        "GDELT_DOC": 0,
        "DIRECT_FEED": 125,
        "USGS": 0,
        "GDACS": 0
      },
      "last7_score": 113.562,
      "prev7_score": 3.681,
      "trend": "up",
      "trend_arrow": "🔺",
      "change_pct": 2985.1,
      "place": "Ķekavas novads, Latvia"
    },
    {
      "lon": 20.25,
      "lat": 47.25,
      "type": "hotspot_cell",
      "score": 101.92,
      "count": 283,
      "cell_deg": 0.5,
      "sources": {
        "GDELT": 283,
        "GDELT_DOC": 0,
        "DIRECT_FEED": 0,
        "USGS": 0,
        "GDACS": 0
      },
      "last7_score": 81.338,
      "prev7_score": 20.583,
      "trend": "up",
      "trend_arrow": "🔺",
      "change_pct": 295.2,
      "place": "Jász-Nagykun-Szolnok, Hungary"
    },
    {
      "lon": 24.25,
      "lat": 56.25,
      "type": "hotspot_cell",
      "score": 77.883,
      "count": 176,
      "cell_deg": 0.5,
      "sources": {
        "GDELT": 176,
        "GDELT_DOC": 0,
        "DIRECT_FEED": 0,
        "USGS": 0,
        "GDACS": 0
      },
      "last7_score": 68.148,
      "prev7_score": 9.735,
      "trend": "up",
      "trend_arrow": "🔺",
      "change_pct": 600.0,
      "place": "Namišių seniūnija, Lithuania"
    }
  ]
}