{
  "generated_utc": "2026-03-10T06:56:09Z",
  "top": [
    {
      "lon": 26.25,
      "lat": 44.25,
      "type": "hotspot_cell",
      "score": 600.885,
      "count": 823,
      "cell_deg": 0.5,
      "sources": {
        "GDELT": 160,
        "GDELT_DOC": 662,
        "DIRECT_FEED": 1,
        "USGS": 0,
        "GDACS": 0
      },
      "last7_score": 586.989,
      "prev7_score": 13.896,
      "trend": "up",
      "trend_arrow": "🔺",
      "change_pct": 4124.0,
      "place": "Giurgiu, Romania"
    },
    {
      "lon": 14.25,
      "lat": 50.25,
      "type": "hotspot_cell",
      "score": 573.597,
      "count": 815,
      "cell_deg": 0.5,
      "sources": {
        "GDELT": 143,
        "GDELT_DOC": 672,
        "DIRECT_FEED": 0,
        "USGS": 0,
        "GDACS": 0
      },
      "last7_score": 564.481,
      "prev7_score": 9.116,
      "trend": "up",
      "trend_arrow": "🔺",
      "change_pct": 6092.0,
      "place": "SO ORP Kralupy nad Vltavou, Czechia"
    },
    {
      "lon": 25.25,
      "lat": 54.75,
      "type": "hotspot_cell",
      "score": 334.724,
      "count": 471,
      "cell_deg": 0.5,
      "sources": {
        "GDELT": 65,
        "GDELT_DOC": 406,
        "DIRECT_FEED": 0,
        "USGS": 0,
        "GDACS": 0
      },
      "last7_score": 329.989,
      "prev7_score": 4.735,
      "trend": "up",
      "trend_arrow": "🔺",
      "change_pct": 6869.9,
      "place": "Vilnius County, Lithuania"
    },
    {
      "lon": 19.25,
      "lat": 47.75,
      "type": "hotspot_cell",
      "score": 238.969,
      "count": 491,
      "cell_deg": 0.5,
      "sources": {
        "GDELT": 396,
        "GDELT_DOC": 0,
        "DIRECT_FEED": 95,
        "USGS": 0,
        "GDACS": 0
      },
      "last7_score": 218.813,
      "prev7_score": 20.156,
      "trend": "up",
      "trend_arrow": "🔺",
      "change_pct": 985.6,
      "place": "Pest, Hungary"
    },
    {
      "lon": 20.25,
      "lat": 52.25,
      "type": "hotspot_cell",
      "score": 155.139,
      "count": 497,
      "cell_deg": 0.5,
      "sources": {
        "GDELT": 497,
        "GDELT_DOC": 0,
        "DIRECT_FEED": 0,
        "USGS": 0,
        "GDACS": 0
      },
      "last7_score": 115.552,
      "prev7_score": 39.587,
      "trend": "up",
      "trend_arrow": "🔺",
      "change_pct": 191.9,
      "place": "Sochaczew County, Poland"
    },
    {
      "lon": 20.25,
      "lat": 47.25,
      "type": "hotspot_cell",
      "score": 121.649,
      "count": 334,
      "cell_deg": 0.5,
      "sources": {
        "GDELT": 334,
        "GDELT_DOC": 0,
        "DIRECT_FEED": 0,
        "USGS": 0,
        "GDACS": 0
      },
      "last7_score": 98.512,
      "prev7_score": 23.137,
      "trend": "up",
      "trend_arrow": "🔺",
      "change_pct": 325.8,
      "place": "Jász-Nagykun-Szolnok, Hungary"
    },
    {
      "lon": 25.25,
      "lat": 46.25,
      "type": "hotspot_cell",
      "score": 88.971,
      "count": 289,
      "cell_deg": 0.5,
      "sources": {
        "GDELT": 289,
        "GDELT_DOC": 0,
        "DIRECT_FEED": 0,
        "USGS": 0,
        "GDACS": 0
      },
      "last7_score": 64.47,
      "prev7_score": 24.501,
      "trend": "up",
      "trend_arrow": "🔺",
      "change_pct": 163.1,
      "place": "Harghita, Romania"
    },
    {
      "lon": 24.25,
      "lat": 56.75,
      "type": "hotspot_cell",
      "score": 87.23,
      "count": 105,
      "cell_deg": 0.5,
      "sources": {
        "GDELT": 27,
        "GDELT_DOC": 0,
        "DIRECT_FEED": 78,
        "USGS": 0,
        "GDACS": 0
      },
      "last7_score": 85.348,
      "prev7_score": 1.882,
      "trend": "up",
      "trend_arrow": "🔺",
      "change_pct": 4436.0,
      "place": "Ķekavas novads, Latvia"
    },
    {
      "lon": 21.25,
      "lat": 52.25,
      "type": "hotspot_cell",
      "score": 69.796,
      "count": 238,
      "cell_deg": 0.5,
      "sources": {
        "GDELT": 238,
        "GDELT_DOC": 0,
        "DIRECT_FEED": 0,
        "USGS": 0,
        "GDACS": 0
      },
      "last7_score": 53.556,
      "prev7_score": 16.239,
      "trend": "up",
      "trend_arrow": "🔺",
      "change_pct": 229.8,
      "place": "Warsaw, Poland"
    },
    {
      "lon": 15.25,
      "lat": 49.75,
      "type": "hotspot_cell",
      "score": 51.637,
      "count": 158,
      "cell_deg": 0.5,
      "sources": {
        "GDELT": 158,
        "GDELT_DOC": 0,
        "DIRECT_FEED": 0,
        "USGS": 0,
        "GDACS": 0
      },
      "last7_score": 39.468,
      "prev7_score": 12.168,
      "trend": "up",
      "trend_arrow": "🔺",
      "change_pct": 224.4,
      "place": "Vysočina Region, Czechia"
    }
  ]
}