{
  "generated_utc": "2026-05-28T02:18:59Z",
  "top": [
    {
      "lon": 14.25,
      "lat": 50.25,
      "type": "hotspot_cell",
      "score": 953.04,
      "count": 1572,
      "cell_deg": 0.5,
      "sources": {
        "GDELT": 140,
        "GDELT_DOC": 1411,
        "DIRECT_FEED": 21,
        "USGS": 0,
        "GDACS": 0
      },
      "last7_score": 941.923,
      "prev7_score": 11.118,
      "trend": "up",
      "trend_arrow": "🔺",
      "change_pct": 8372.3,
      "place": "SO ORP Kralupy nad Vltavou, Czechia"
    },
    {
      "lon": 26.25,
      "lat": 44.25,
      "type": "hotspot_cell",
      "score": 770.227,
      "count": 1295,
      "cell_deg": 0.5,
      "sources": {
        "GDELT": 112,
        "GDELT_DOC": 1182,
        "DIRECT_FEED": 1,
        "USGS": 0,
        "GDACS": 0
      },
      "last7_score": 760.589,
      "prev7_score": 9.638,
      "trend": "up",
      "trend_arrow": "🔺",
      "change_pct": 7791.8,
      "place": "Giurgiu, Romania"
    },
    {
      "lon": 25.25,
      "lat": 54.75,
      "type": "hotspot_cell",
      "score": 729.062,
      "count": 1125,
      "cell_deg": 0.5,
      "sources": {
        "GDELT": 99,
        "GDELT_DOC": 1024,
        "DIRECT_FEED": 2,
        "USGS": 0,
        "GDACS": 0
      },
      "last7_score": 715.624,
      "prev7_score": 13.437,
      "trend": "up",
      "trend_arrow": "🔺",
      "change_pct": 5225.7,
      "place": "Vilnius County, Lithuania"
    },
    {
      "lon": 20.25,
      "lat": 52.25,
      "type": "hotspot_cell",
      "score": 289.466,
      "count": 789,
      "cell_deg": 0.5,
      "sources": {
        "GDELT": 789,
        "GDELT_DOC": 0,
        "DIRECT_FEED": 0,
        "USGS": 0,
        "GDACS": 0
      },
      "last7_score": 224.452,
      "prev7_score": 65.014,
      "trend": "up",
      "trend_arrow": "🔺",
      "change_pct": 245.2,
      "place": "Sochaczew County, Poland"
    },
    {
      "lon": 19.25,
      "lat": 47.75,
      "type": "hotspot_cell",
      "score": 219.909,
      "count": 402,
      "cell_deg": 0.5,
      "sources": {
        "GDELT": 181,
        "GDELT_DOC": 0,
        "DIRECT_FEED": 221,
        "USGS": 0,
        "GDACS": 0
      },
      "last7_score": 202.692,
      "prev7_score": 17.217,
      "trend": "up",
      "trend_arrow": "🔺",
      "change_pct": 1077.3,
      "place": "Pest, Hungary"
    },
    {
      "lon": 25.25,
      "lat": 46.25,
      "type": "hotspot_cell",
      "score": 121.814,
      "count": 310,
      "cell_deg": 0.5,
      "sources": {
        "GDELT": 310,
        "GDELT_DOC": 0,
        "DIRECT_FEED": 0,
        "USGS": 0,
        "GDACS": 0
      },
      "last7_score": 94.596,
      "prev7_score": 27.218,
      "trend": "up",
      "trend_arrow": "🔺",
      "change_pct": 247.5,
      "place": "Harghita, Romania"
    },
    {
      "lon": 24.25,
      "lat": 56.75,
      "type": "hotspot_cell",
      "score": 105.726,
      "count": 169,
      "cell_deg": 0.5,
      "sources": {
        "GDELT": 47,
        "GDELT_DOC": 0,
        "DIRECT_FEED": 122,
        "USGS": 0,
        "GDACS": 0
      },
      "last7_score": 100.398,
      "prev7_score": 5.328,
      "trend": "up",
      "trend_arrow": "🔺",
      "change_pct": 1784.2,
      "place": "Ķekavas novads, Latvia"
    },
    {
      "lon": 20.25,
      "lat": 47.25,
      "type": "hotspot_cell",
      "score": 84.673,
      "count": 225,
      "cell_deg": 0.5,
      "sources": {
        "GDELT": 225,
        "GDELT_DOC": 0,
        "DIRECT_FEED": 0,
        "USGS": 0,
        "GDACS": 0
      },
      "last7_score": 65.05,
      "prev7_score": 19.624,
      "trend": "up",
      "trend_arrow": "🔺",
      "change_pct": 231.5,
      "place": "Jász-Nagykun-Szolnok, Hungary"
    },
    {
      "lon": 21.25,
      "lat": 52.25,
      "type": "hotspot_cell",
      "score": 81.441,
      "count": 250,
      "cell_deg": 0.5,
      "sources": {
        "GDELT": 250,
        "GDELT_DOC": 0,
        "DIRECT_FEED": 0,
        "USGS": 0,
        "GDACS": 0
      },
      "last7_score": 58.166,
      "prev7_score": 23.274,
      "trend": "up",
      "trend_arrow": "🔺",
      "change_pct": 149.9,
      "place": "Warsaw, Poland"
    },
    {
      "lon": 27.75,
      "lat": 47.25,
      "type": "hotspot_cell",
      "score": 63.444,
      "count": 86,
      "cell_deg": 0.5,
      "sources": {
        "GDELT": 0,
        "GDELT_DOC": 86,
        "DIRECT_FEED": 0,
        "USGS": 0,
        "GDACS": 0
      },
      "last7_score": 63.444,
      "prev7_score": 0.0,
      "trend": "new",
      "trend_arrow": "🆕",
      "change_pct": null,
      "place": "Iași, Romania"
    }
  ]
}