{
  "generated_utc": "2026-07-06T15:21:05Z",
  "top": [
    {
      "lon": 26.25,
      "lat": 44.25,
      "type": "hotspot_cell",
      "score": 412.529,
      "count": 579,
      "cell_deg": 0.5,
      "sources": {
        "GDELT": 139,
        "GDELT_DOC": 434,
        "DIRECT_FEED": 6,
        "USGS": 0,
        "GDACS": 0
      },
      "last7_score": 402.667,
      "prev7_score": 9.863,
      "trend": "up",
      "trend_arrow": "🔺",
      "change_pct": 3982.7,
      "place": "Giurgiu, Romania"
    },
    {
      "lon": 20.25,
      "lat": 52.25,
      "type": "hotspot_cell",
      "score": 184.99,
      "count": 546,
      "cell_deg": 0.5,
      "sources": {
        "GDELT": 546,
        "GDELT_DOC": 0,
        "DIRECT_FEED": 0,
        "USGS": 0,
        "GDACS": 0
      },
      "last7_score": 151.873,
      "prev7_score": 33.117,
      "trend": "up",
      "trend_arrow": "🔺",
      "change_pct": 358.6,
      "place": "Sochaczew County, Poland"
    },
    {
      "lon": 19.25,
      "lat": 47.75,
      "type": "hotspot_cell",
      "score": 151.049,
      "count": 352,
      "cell_deg": 0.5,
      "sources": {
        "GDELT": 172,
        "GDELT_DOC": 0,
        "DIRECT_FEED": 180,
        "USGS": 0,
        "GDACS": 0
      },
      "last7_score": 138.835,
      "prev7_score": 12.213,
      "trend": "up",
      "trend_arrow": "🔺",
      "change_pct": 1036.8,
      "place": "Pest, Hungary"
    },
    {
      "lon": 25.25,
      "lat": 46.25,
      "type": "hotspot_cell",
      "score": 120.983,
      "count": 350,
      "cell_deg": 0.5,
      "sources": {
        "GDELT": 350,
        "GDELT_DOC": 0,
        "DIRECT_FEED": 0,
        "USGS": 0,
        "GDACS": 0
      },
      "last7_score": 97.285,
      "prev7_score": 23.698,
      "trend": "up",
      "trend_arrow": "🔺",
      "change_pct": 310.5,
      "place": "Harghita, Romania"
    },
    {
      "lon": 25.25,
      "lat": 54.75,
      "type": "hotspot_cell",
      "score": 107.444,
      "count": 264,
      "cell_deg": 0.5,
      "sources": {
        "GDELT": 66,
        "GDELT_DOC": 197,
        "DIRECT_FEED": 1,
        "USGS": 0,
        "GDACS": 0
      },
      "last7_score": 104.069,
      "prev7_score": 3.375,
      "trend": "up",
      "trend_arrow": "🔺",
      "change_pct": 2983.8,
      "place": "Vilnius County, Lithuania"
    },
    {
      "lon": 24.25,
      "lat": 56.75,
      "type": "hotspot_cell",
      "score": 101.308,
      "count": 165,
      "cell_deg": 0.5,
      "sources": {
        "GDELT": 22,
        "GDELT_DOC": 0,
        "DIRECT_FEED": 143,
        "USGS": 0,
        "GDACS": 0
      },
      "last7_score": 100.155,
      "prev7_score": 1.153,
      "trend": "up",
      "trend_arrow": "🔺",
      "change_pct": 8584.3,
      "place": "Ķekavas novads, Latvia"
    },
    {
      "lon": 21.25,
      "lat": 52.25,
      "type": "hotspot_cell",
      "score": 94.074,
      "count": 302,
      "cell_deg": 0.5,
      "sources": {
        "GDELT": 302,
        "GDELT_DOC": 0,
        "DIRECT_FEED": 0,
        "USGS": 0,
        "GDACS": 0
      },
      "last7_score": 74.319,
      "prev7_score": 19.755,
      "trend": "up",
      "trend_arrow": "🔺",
      "change_pct": 276.2,
      "place": "Warsaw, Poland"
    },
    {
      "lon": 14.25,
      "lat": 50.25,
      "type": "hotspot_cell",
      "score": 69.92,
      "count": 197,
      "cell_deg": 0.5,
      "sources": {
        "GDELT": 120,
        "GDELT_DOC": 76,
        "DIRECT_FEED": 1,
        "USGS": 0,
        "GDACS": 0
      },
      "last7_score": 62.307,
      "prev7_score": 7.614,
      "trend": "up",
      "trend_arrow": "🔺",
      "change_pct": 718.4,
      "place": "SO ORP Kralupy nad Vltavou, Czechia"
    },
    {
      "lon": 15.25,
      "lat": 49.75,
      "type": "hotspot_cell",
      "score": 57.938,
      "count": 171,
      "cell_deg": 0.5,
      "sources": {
        "GDELT": 171,
        "GDELT_DOC": 0,
        "DIRECT_FEED": 0,
        "USGS": 0,
        "GDACS": 0
      },
      "last7_score": 46.33,
      "prev7_score": 11.609,
      "trend": "up",
      "trend_arrow": "🔺",
      "change_pct": 299.1,
      "place": "Vysočina Region, Czechia"
    },
    {
      "lon": 20.25,
      "lat": 47.25,
      "type": "hotspot_cell",
      "score": 52.744,
      "count": 167,
      "cell_deg": 0.5,
      "sources": {
        "GDELT": 167,
        "GDELT_DOC": 0,
        "DIRECT_FEED": 0,
        "USGS": 0,
        "GDACS": 0
      },
      "last7_score": 42.928,
      "prev7_score": 9.817,
      "trend": "up",
      "trend_arrow": "🔺",
      "change_pct": 337.3,
      "place": "Jász-Nagykun-Szolnok, Hungary"
    }
  ]
}