{
  "generated_utc": "2026-04-30T08:27:14Z",
  "top": [
    {
      "lon": 26.25,
      "lat": 44.25,
      "type": "hotspot_cell",
      "score": 938.418,
      "count": 1598,
      "cell_deg": 0.5,
      "sources": {
        "GDELT": 150,
        "GDELT_DOC": 1440,
        "DIRECT_FEED": 8,
        "USGS": 0,
        "GDACS": 0
      },
      "last7_score": 924.888,
      "prev7_score": 13.531,
      "trend": "up",
      "trend_arrow": "🔺",
      "change_pct": 6735.4,
      "place": "Giurgiu, Romania"
    },
    {
      "lon": 14.25,
      "lat": 50.25,
      "type": "hotspot_cell",
      "score": 915.949,
      "count": 1613,
      "cell_deg": 0.5,
      "sources": {
        "GDELT": 197,
        "GDELT_DOC": 1415,
        "DIRECT_FEED": 1,
        "USGS": 0,
        "GDACS": 0
      },
      "last7_score": 900.95,
      "prev7_score": 14.999,
      "trend": "up",
      "trend_arrow": "🔺",
      "change_pct": 5906.6,
      "place": "SO ORP Kralupy nad Vltavou, Czechia"
    },
    {
      "lon": 25.25,
      "lat": 54.75,
      "type": "hotspot_cell",
      "score": 660.221,
      "count": 1119,
      "cell_deg": 0.5,
      "sources": {
        "GDELT": 66,
        "GDELT_DOC": 1053,
        "DIRECT_FEED": 0,
        "USGS": 0,
        "GDACS": 0
      },
      "last7_score": 655.575,
      "prev7_score": 4.646,
      "trend": "up",
      "trend_arrow": "🔺",
      "change_pct": 14010.8,
      "place": "Vilnius County, Lithuania"
    },
    {
      "lon": 19.25,
      "lat": 47.75,
      "type": "hotspot_cell",
      "score": 265.503,
      "count": 605,
      "cell_deg": 0.5,
      "sources": {
        "GDELT": 381,
        "GDELT_DOC": 0,
        "DIRECT_FEED": 224,
        "USGS": 0,
        "GDACS": 0
      },
      "last7_score": 223.62,
      "prev7_score": 41.883,
      "trend": "up",
      "trend_arrow": "🔺",
      "change_pct": 433.9,
      "place": "Pest, Hungary"
    },
    {
      "lon": 20.25,
      "lat": 52.25,
      "type": "hotspot_cell",
      "score": 176.276,
      "count": 465,
      "cell_deg": 0.5,
      "sources": {
        "GDELT": 465,
        "GDELT_DOC": 0,
        "DIRECT_FEED": 0,
        "USGS": 0,
        "GDACS": 0
      },
      "last7_score": 137.805,
      "prev7_score": 38.471,
      "trend": "up",
      "trend_arrow": "🔺",
      "change_pct": 258.2,
      "place": "Sochaczew County, Poland"
    },
    {
      "lon": 20.25,
      "lat": 47.25,
      "type": "hotspot_cell",
      "score": 169.561,
      "count": 542,
      "cell_deg": 0.5,
      "sources": {
        "GDELT": 542,
        "GDELT_DOC": 0,
        "DIRECT_FEED": 0,
        "USGS": 0,
        "GDACS": 0
      },
      "last7_score": 113.727,
      "prev7_score": 55.835,
      "trend": "up",
      "trend_arrow": "🔺",
      "change_pct": 103.7,
      "place": "Jász-Nagykun-Szolnok, Hungary"
    },
    {
      "lon": 25.25,
      "lat": 46.25,
      "type": "hotspot_cell",
      "score": 137.297,
      "count": 289,
      "cell_deg": 0.5,
      "sources": {
        "GDELT": 289,
        "GDELT_DOC": 0,
        "DIRECT_FEED": 0,
        "USGS": 0,
        "GDACS": 0
      },
      "last7_score": 118.257,
      "prev7_score": 19.04,
      "trend": "up",
      "trend_arrow": "🔺",
      "change_pct": 521.1,
      "place": "Harghita, Romania"
    },
    {
      "lon": 24.25,
      "lat": 56.75,
      "type": "hotspot_cell",
      "score": 115.327,
      "count": 160,
      "cell_deg": 0.5,
      "sources": {
        "GDELT": 27,
        "GDELT_DOC": 0,
        "DIRECT_FEED": 133,
        "USGS": 0,
        "GDACS": 0
      },
      "last7_score": 113.814,
      "prev7_score": 1.513,
      "trend": "up",
      "trend_arrow": "🔺",
      "change_pct": 7423.8,
      "place": "Ķekavas novads, Latvia"
    },
    {
      "lon": 15.25,
      "lat": 49.75,
      "type": "hotspot_cell",
      "score": 88.354,
      "count": 211,
      "cell_deg": 0.5,
      "sources": {
        "GDELT": 211,
        "GDELT_DOC": 0,
        "DIRECT_FEED": 0,
        "USGS": 0,
        "GDACS": 0
      },
      "last7_score": 73.715,
      "prev7_score": 14.639,
      "trend": "up",
      "trend_arrow": "🔺",
      "change_pct": 403.5,
      "place": "Vysočina Region, Czechia"
    },
    {
      "lon": 26.75,
      "lat": 47.75,
      "type": "hotspot_cell",
      "score": 74.665,
      "count": 156,
      "cell_deg": 0.5,
      "sources": {
        "GDELT": 2,
        "GDELT_DOC": 150,
        "DIRECT_FEED": 4,
        "USGS": 0,
        "GDACS": 0
      },
      "last7_score": 74.481,
      "prev7_score": 0.184,
      "trend": "up",
      "trend_arrow": "🔺",
      "change_pct": 40315.5,
      "place": "Botoșani, Romania"
    }
  ]
}