{
  "generated_utc": "2026-05-23T11:24:16Z",
  "top": [
    {
      "lon": 14.25,
      "lat": 50.25,
      "type": "hotspot_cell",
      "score": 926.833,
      "count": 1414,
      "cell_deg": 0.5,
      "sources": {
        "GDELT": 133,
        "GDELT_DOC": 1266,
        "DIRECT_FEED": 15,
        "USGS": 0,
        "GDACS": 0
      },
      "last7_score": 918.359,
      "prev7_score": 8.474,
      "trend": "up",
      "trend_arrow": "🔺",
      "change_pct": 10737.7,
      "place": "SO ORP Kralupy nad Vltavou, Czechia"
    },
    {
      "lon": 26.25,
      "lat": 44.25,
      "type": "hotspot_cell",
      "score": 898.353,
      "count": 1571,
      "cell_deg": 0.5,
      "sources": {
        "GDELT": 192,
        "GDELT_DOC": 1377,
        "DIRECT_FEED": 2,
        "USGS": 0,
        "GDACS": 0
      },
      "last7_score": 880.876,
      "prev7_score": 17.477,
      "trend": "up",
      "trend_arrow": "🔺",
      "change_pct": 4940.2,
      "place": "Giurgiu, Romania"
    },
    {
      "lon": 25.25,
      "lat": 54.75,
      "type": "hotspot_cell",
      "score": 681.861,
      "count": 1057,
      "cell_deg": 0.5,
      "sources": {
        "GDELT": 102,
        "GDELT_DOC": 954,
        "DIRECT_FEED": 1,
        "USGS": 0,
        "GDACS": 0
      },
      "last7_score": 676.96,
      "prev7_score": 4.901,
      "trend": "up",
      "trend_arrow": "🔺",
      "change_pct": 13714.0,
      "place": "Vilnius County, Lithuania"
    },
    {
      "lon": 20.25,
      "lat": 52.25,
      "type": "hotspot_cell",
      "score": 400.482,
      "count": 787,
      "cell_deg": 0.5,
      "sources": {
        "GDELT": 787,
        "GDELT_DOC": 0,
        "DIRECT_FEED": 0,
        "USGS": 0,
        "GDACS": 0
      },
      "last7_score": 352.115,
      "prev7_score": 48.367,
      "trend": "up",
      "trend_arrow": "🔺",
      "change_pct": 628.0,
      "place": "Sochaczew County, Poland"
    },
    {
      "lon": 19.25,
      "lat": 47.75,
      "type": "hotspot_cell",
      "score": 250.099,
      "count": 495,
      "cell_deg": 0.5,
      "sources": {
        "GDELT": 258,
        "GDELT_DOC": 0,
        "DIRECT_FEED": 237,
        "USGS": 0,
        "GDACS": 0
      },
      "last7_score": 231.556,
      "prev7_score": 18.543,
      "trend": "up",
      "trend_arrow": "🔺",
      "change_pct": 1148.7,
      "place": "Pest, Hungary"
    },
    {
      "lon": 21.25,
      "lat": 52.25,
      "type": "hotspot_cell",
      "score": 128.845,
      "count": 271,
      "cell_deg": 0.5,
      "sources": {
        "GDELT": 271,
        "GDELT_DOC": 0,
        "DIRECT_FEED": 0,
        "USGS": 0,
        "GDACS": 0
      },
      "last7_score": 111.008,
      "prev7_score": 17.838,
      "trend": "up",
      "trend_arrow": "🔺",
      "change_pct": 522.3,
      "place": "Warsaw, Poland"
    },
    {
      "lon": 25.25,
      "lat": 46.25,
      "type": "hotspot_cell",
      "score": 122.35,
      "count": 311,
      "cell_deg": 0.5,
      "sources": {
        "GDELT": 311,
        "GDELT_DOC": 0,
        "DIRECT_FEED": 0,
        "USGS": 0,
        "GDACS": 0
      },
      "last7_score": 102.547,
      "prev7_score": 19.803,
      "trend": "up",
      "trend_arrow": "🔺",
      "change_pct": 417.8,
      "place": "Harghita, Romania"
    },
    {
      "lon": 24.25,
      "lat": 56.75,
      "type": "hotspot_cell",
      "score": 117.488,
      "count": 177,
      "cell_deg": 0.5,
      "sources": {
        "GDELT": 51,
        "GDELT_DOC": 0,
        "DIRECT_FEED": 126,
        "USGS": 0,
        "GDACS": 0
      },
      "last7_score": 113.911,
      "prev7_score": 3.577,
      "trend": "up",
      "trend_arrow": "🔺",
      "change_pct": 3084.3,
      "place": "Ķekavas novads, Latvia"
    },
    {
      "lon": 20.25,
      "lat": 47.25,
      "type": "hotspot_cell",
      "score": 101.378,
      "count": 285,
      "cell_deg": 0.5,
      "sources": {
        "GDELT": 285,
        "GDELT_DOC": 0,
        "DIRECT_FEED": 0,
        "USGS": 0,
        "GDACS": 0
      },
      "last7_score": 81.375,
      "prev7_score": 20.002,
      "trend": "up",
      "trend_arrow": "🔺",
      "change_pct": 306.8,
      "place": "Jász-Nagykun-Szolnok, Hungary"
    },
    {
      "lon": 26.25,
      "lat": 59.25,
      "type": "hotspot_cell",
      "score": 76.256,
      "count": 156,
      "cell_deg": 0.5,
      "sources": {
        "GDELT": 156,
        "GDELT_DOC": 0,
        "DIRECT_FEED": 0,
        "USGS": 0,
        "GDACS": 0
      },
      "last7_score": 68.092,
      "prev7_score": 8.164,
      "trend": "up",
      "trend_arrow": "🔺",
      "change_pct": 734.1,
      "place": "Lääne-Viru County, Estonia"
    }
  ]
}