{
  "generated_utc": "2026-06-25T02:37:35Z",
  "top": [
    {
      "lon": 14.25,
      "lat": 50.25,
      "type": "hotspot_cell",
      "score": 664.101,
      "count": 956,
      "cell_deg": 0.5,
      "sources": {
        "GDELT": 119,
        "GDELT_DOC": 822,
        "DIRECT_FEED": 15,
        "USGS": 0,
        "GDACS": 0
      },
      "last7_score": 655.277,
      "prev7_score": 8.825,
      "trend": "up",
      "trend_arrow": "🔺",
      "change_pct": 7325.6,
      "place": "SO ORP Kralupy nad Vltavou, Czechia"
    },
    {
      "lon": 26.25,
      "lat": 44.25,
      "type": "hotspot_cell",
      "score": 601.161,
      "count": 935,
      "cell_deg": 0.5,
      "sources": {
        "GDELT": 130,
        "GDELT_DOC": 797,
        "DIRECT_FEED": 8,
        "USGS": 0,
        "GDACS": 0
      },
      "last7_score": 589.53,
      "prev7_score": 11.631,
      "trend": "up",
      "trend_arrow": "🔺",
      "change_pct": 4968.8,
      "place": "Giurgiu, Romania"
    },
    {
      "lon": 25.25,
      "lat": 54.75,
      "type": "hotspot_cell",
      "score": 392.239,
      "count": 710,
      "cell_deg": 0.5,
      "sources": {
        "GDELT": 54,
        "GDELT_DOC": 656,
        "DIRECT_FEED": 0,
        "USGS": 0,
        "GDACS": 0
      },
      "last7_score": 387.244,
      "prev7_score": 4.995,
      "trend": "up",
      "trend_arrow": "🔺",
      "change_pct": 7652.7,
      "place": "Vilnius County, Lithuania"
    },
    {
      "lon": 19.25,
      "lat": 47.75,
      "type": "hotspot_cell",
      "score": 185.556,
      "count": 346,
      "cell_deg": 0.5,
      "sources": {
        "GDELT": 181,
        "GDELT_DOC": 0,
        "DIRECT_FEED": 165,
        "USGS": 0,
        "GDACS": 0
      },
      "last7_score": 171.356,
      "prev7_score": 14.2,
      "trend": "up",
      "trend_arrow": "🔺",
      "change_pct": 1106.7,
      "place": "Pest, Hungary"
    },
    {
      "lon": 20.25,
      "lat": 52.25,
      "type": "hotspot_cell",
      "score": 181.055,
      "count": 455,
      "cell_deg": 0.5,
      "sources": {
        "GDELT": 455,
        "GDELT_DOC": 0,
        "DIRECT_FEED": 0,
        "USGS": 0,
        "GDACS": 0
      },
      "last7_score": 142.413,
      "prev7_score": 38.642,
      "trend": "up",
      "trend_arrow": "🔺",
      "change_pct": 268.5,
      "place": "Sochaczew County, Poland"
    },
    {
      "lon": 25.25,
      "lat": 46.25,
      "type": "hotspot_cell",
      "score": 137.219,
      "count": 375,
      "cell_deg": 0.5,
      "sources": {
        "GDELT": 375,
        "GDELT_DOC": 0,
        "DIRECT_FEED": 0,
        "USGS": 0,
        "GDACS": 0
      },
      "last7_score": 102.4,
      "prev7_score": 34.819,
      "trend": "up",
      "trend_arrow": "🔺",
      "change_pct": 194.1,
      "place": "Harghita, Romania"
    },
    {
      "lon": 21.25,
      "lat": 52.25,
      "type": "hotspot_cell",
      "score": 134.291,
      "count": 306,
      "cell_deg": 0.5,
      "sources": {
        "GDELT": 306,
        "GDELT_DOC": 0,
        "DIRECT_FEED": 0,
        "USGS": 0,
        "GDACS": 0
      },
      "last7_score": 113.108,
      "prev7_score": 21.182,
      "trend": "up",
      "trend_arrow": "🔺",
      "change_pct": 434.0,
      "place": "Warsaw, Poland"
    },
    {
      "lon": 24.25,
      "lat": 56.75,
      "type": "hotspot_cell",
      "score": 115.801,
      "count": 173,
      "cell_deg": 0.5,
      "sources": {
        "GDELT": 32,
        "GDELT_DOC": 0,
        "DIRECT_FEED": 141,
        "USGS": 0,
        "GDACS": 0
      },
      "last7_score": 113.369,
      "prev7_score": 2.432,
      "trend": "up",
      "trend_arrow": "🔺",
      "change_pct": 4560.7,
      "place": "Ķekavas novads, Latvia"
    },
    {
      "lon": 20.25,
      "lat": 47.25,
      "type": "hotspot_cell",
      "score": 90.476,
      "count": 238,
      "cell_deg": 0.5,
      "sources": {
        "GDELT": 237,
        "GDELT_DOC": 0,
        "DIRECT_FEED": 0,
        "USGS": 0,
        "GDACS": 1
      },
      "last7_score": 68.748,
      "prev7_score": 21.728,
      "trend": "up",
      "trend_arrow": "🔺",
      "change_pct": 216.4,
      "place": "Jász-Nagykun-Szolnok, Hungary"
    },
    {
      "lon": 15.25,
      "lat": 49.75,
      "type": "hotspot_cell",
      "score": 53.697,
      "count": 140,
      "cell_deg": 0.5,
      "sources": {
        "GDELT": 140,
        "GDELT_DOC": 0,
        "DIRECT_FEED": 0,
        "USGS": 0,
        "GDACS": 0
      },
      "last7_score": 42.753,
      "prev7_score": 10.944,
      "trend": "up",
      "trend_arrow": "🔺",
      "change_pct": 290.7,
      "place": "Vysočina Region, Czechia"
    }
  ]
}