{
  "generated_utc": "2026-07-21T01:55:10Z",
  "top": [
    {
      "lon": 26.25,
      "lat": 44.25,
      "type": "hotspot_cell",
      "score": 576.958,
      "count": 908,
      "cell_deg": 0.5,
      "sources": {
        "GDELT": 121,
        "GDELT_DOC": 783,
        "DIRECT_FEED": 4,
        "USGS": 0,
        "GDACS": 0
      },
      "last7_score": 570.039,
      "prev7_score": 6.919,
      "trend": "up",
      "trend_arrow": "🔺",
      "change_pct": 8138.7,
      "place": "Giurgiu, Romania"
    },
    {
      "lon": 14.25,
      "lat": 50.25,
      "type": "hotspot_cell",
      "score": 570.263,
      "count": 1026,
      "cell_deg": 0.5,
      "sources": {
        "GDELT": 98,
        "GDELT_DOC": 925,
        "DIRECT_FEED": 3,
        "USGS": 0,
        "GDACS": 0
      },
      "last7_score": 563.123,
      "prev7_score": 7.14,
      "trend": "up",
      "trend_arrow": "🔺",
      "change_pct": 7786.5,
      "place": "SO ORP Kralupy nad Vltavou, Czechia"
    },
    {
      "lon": 25.25,
      "lat": 54.75,
      "type": "hotspot_cell",
      "score": 439.555,
      "count": 741,
      "cell_deg": 0.5,
      "sources": {
        "GDELT": 69,
        "GDELT_DOC": 672,
        "DIRECT_FEED": 0,
        "USGS": 0,
        "GDACS": 0
      },
      "last7_score": 433.907,
      "prev7_score": 5.648,
      "trend": "up",
      "trend_arrow": "🔺",
      "change_pct": 7582.4,
      "place": "Vilnius County, Lithuania"
    },
    {
      "lon": 25.25,
      "lat": 46.25,
      "type": "hotspot_cell",
      "score": 193.998,
      "count": 429,
      "cell_deg": 0.5,
      "sources": {
        "GDELT": 429,
        "GDELT_DOC": 0,
        "DIRECT_FEED": 0,
        "USGS": 0,
        "GDACS": 0
      },
      "last7_score": 161.493,
      "prev7_score": 32.504,
      "trend": "up",
      "trend_arrow": "🔺",
      "change_pct": 396.8,
      "place": "Harghita, Romania"
    },
    {
      "lon": 19.25,
      "lat": 47.75,
      "type": "hotspot_cell",
      "score": 175.845,
      "count": 359,
      "cell_deg": 0.5,
      "sources": {
        "GDELT": 174,
        "GDELT_DOC": 0,
        "DIRECT_FEED": 185,
        "USGS": 0,
        "GDACS": 0
      },
      "last7_score": 162.526,
      "prev7_score": 13.319,
      "trend": "up",
      "trend_arrow": "🔺",
      "change_pct": 1120.2,
      "place": "Pest, Hungary"
    },
    {
      "lon": 20.25,
      "lat": 52.25,
      "type": "hotspot_cell",
      "score": 145.413,
      "count": 412,
      "cell_deg": 0.5,
      "sources": {
        "GDELT": 412,
        "GDELT_DOC": 0,
        "DIRECT_FEED": 0,
        "USGS": 0,
        "GDACS": 0
      },
      "last7_score": 107.896,
      "prev7_score": 37.517,
      "trend": "up",
      "trend_arrow": "🔺",
      "change_pct": 187.6,
      "place": "Sochaczew County, Poland"
    },
    {
      "lon": 24.25,
      "lat": 56.75,
      "type": "hotspot_cell",
      "score": 102.894,
      "count": 153,
      "cell_deg": 0.5,
      "sources": {
        "GDELT": 19,
        "GDELT_DOC": 0,
        "DIRECT_FEED": 134,
        "USGS": 0,
        "GDACS": 0
      },
      "last7_score": 101.35,
      "prev7_score": 1.544,
      "trend": "up",
      "trend_arrow": "🔺",
      "change_pct": 6463.5,
      "place": "Ķekavas novads, Latvia"
    },
    {
      "lon": 20.25,
      "lat": 47.25,
      "type": "hotspot_cell",
      "score": 65.634,
      "count": 188,
      "cell_deg": 0.5,
      "sources": {
        "GDELT": 188,
        "GDELT_DOC": 0,
        "DIRECT_FEED": 0,
        "USGS": 0,
        "GDACS": 0
      },
      "last7_score": 49.735,
      "prev7_score": 15.899,
      "trend": "up",
      "trend_arrow": "🔺",
      "change_pct": 212.8,
      "place": "Jász-Nagykun-Szolnok, Hungary"
    },
    {
      "lon": 21.25,
      "lat": 52.25,
      "type": "hotspot_cell",
      "score": 61.881,
      "count": 200,
      "cell_deg": 0.5,
      "sources": {
        "GDELT": 200,
        "GDELT_DOC": 0,
        "DIRECT_FEED": 0,
        "USGS": 0,
        "GDACS": 0
      },
      "last7_score": 43.233,
      "prev7_score": 18.648,
      "trend": "up",
      "trend_arrow": "🔺",
      "change_pct": 131.8,
      "place": "Warsaw, Poland"
    },
    {
      "lon": 15.25,
      "lat": 49.75,
      "type": "hotspot_cell",
      "score": 48.358,
      "count": 141,
      "cell_deg": 0.5,
      "sources": {
        "GDELT": 141,
        "GDELT_DOC": 0,
        "DIRECT_FEED": 0,
        "USGS": 0,
        "GDACS": 0
      },
      "last7_score": 36.409,
      "prev7_score": 11.949,
      "trend": "up",
      "trend_arrow": "🔺",
      "change_pct": 204.7,
      "place": "Vysočina Region, Czechia"
    }
  ]
}