{
  "generated_utc": "2026-06-16T20:46:22Z",
  "top": [
    {
      "lon": 26.25,
      "lat": 44.25,
      "type": "hotspot_cell",
      "score": 538.28,
      "count": 930,
      "cell_deg": 0.5,
      "sources": {
        "GDELT": 175,
        "GDELT_DOC": 745,
        "DIRECT_FEED": 10,
        "USGS": 0,
        "GDACS": 0
      },
      "last7_score": 527.433,
      "prev7_score": 10.846,
      "trend": "up",
      "trend_arrow": "🔺",
      "change_pct": 4762.8,
      "place": "Giurgiu, Romania"
    },
    {
      "lon": 14.25,
      "lat": 50.25,
      "type": "hotspot_cell",
      "score": 413.525,
      "count": 813,
      "cell_deg": 0.5,
      "sources": {
        "GDELT": 104,
        "GDELT_DOC": 702,
        "DIRECT_FEED": 7,
        "USGS": 0,
        "GDACS": 0
      },
      "last7_score": 408.812,
      "prev7_score": 4.714,
      "trend": "up",
      "trend_arrow": "🔺",
      "change_pct": 8572.7,
      "place": "SO ORP Kralupy nad Vltavou, Czechia"
    },
    {
      "lon": 25.25,
      "lat": 54.75,
      "type": "hotspot_cell",
      "score": 410.344,
      "count": 657,
      "cell_deg": 0.5,
      "sources": {
        "GDELT": 57,
        "GDELT_DOC": 599,
        "DIRECT_FEED": 1,
        "USGS": 0,
        "GDACS": 0
      },
      "last7_score": 406.231,
      "prev7_score": 4.113,
      "trend": "up",
      "trend_arrow": "🔺",
      "change_pct": 9777.4,
      "place": "Vilnius County, Lithuania"
    },
    {
      "lon": 19.25,
      "lat": 47.75,
      "type": "hotspot_cell",
      "score": 185.995,
      "count": 372,
      "cell_deg": 0.5,
      "sources": {
        "GDELT": 200,
        "GDELT_DOC": 0,
        "DIRECT_FEED": 172,
        "USGS": 0,
        "GDACS": 0
      },
      "last7_score": 175.321,
      "prev7_score": 10.674,
      "trend": "up",
      "trend_arrow": "🔺",
      "change_pct": 1542.5,
      "place": "Pest, Hungary"
    },
    {
      "lon": 25.25,
      "lat": 46.25,
      "type": "hotspot_cell",
      "score": 169.415,
      "count": 450,
      "cell_deg": 0.5,
      "sources": {
        "GDELT": 450,
        "GDELT_DOC": 0,
        "DIRECT_FEED": 0,
        "USGS": 0,
        "GDACS": 0
      },
      "last7_score": 141.368,
      "prev7_score": 28.046,
      "trend": "up",
      "trend_arrow": "🔺",
      "change_pct": 404.1,
      "place": "Harghita, Romania"
    },
    {
      "lon": 20.25,
      "lat": 52.25,
      "type": "hotspot_cell",
      "score": 163.403,
      "count": 455,
      "cell_deg": 0.5,
      "sources": {
        "GDELT": 455,
        "GDELT_DOC": 0,
        "DIRECT_FEED": 0,
        "USGS": 0,
        "GDACS": 0
      },
      "last7_score": 138.943,
      "prev7_score": 24.46,
      "trend": "up",
      "trend_arrow": "🔺",
      "change_pct": 468.0,
      "place": "Sochaczew County, Poland"
    },
    {
      "lon": 17.25,
      "lat": 48.25,
      "type": "hotspot_cell",
      "score": 119.19,
      "count": 159,
      "cell_deg": 0.5,
      "sources": {
        "GDELT": 159,
        "GDELT_DOC": 0,
        "DIRECT_FEED": 0,
        "USGS": 0,
        "GDACS": 0
      },
      "last7_score": 118.504,
      "prev7_score": 0.686,
      "trend": "up",
      "trend_arrow": "🔺",
      "change_pct": 17171.9,
      "place": "District of Pezinok, Slovakia"
    },
    {
      "lon": 24.25,
      "lat": 56.75,
      "type": "hotspot_cell",
      "score": 114.264,
      "count": 180,
      "cell_deg": 0.5,
      "sources": {
        "GDELT": 42,
        "GDELT_DOC": 0,
        "DIRECT_FEED": 138,
        "USGS": 0,
        "GDACS": 0
      },
      "last7_score": 111.539,
      "prev7_score": 2.725,
      "trend": "up",
      "trend_arrow": "🔺",
      "change_pct": 3993.5,
      "place": "Ķekavas novads, Latvia"
    },
    {
      "lon": 20.25,
      "lat": 47.25,
      "type": "hotspot_cell",
      "score": 94.779,
      "count": 255,
      "cell_deg": 0.5,
      "sources": {
        "GDELT": 255,
        "GDELT_DOC": 0,
        "DIRECT_FEED": 0,
        "USGS": 0,
        "GDACS": 0
      },
      "last7_score": 80.452,
      "prev7_score": 14.327,
      "trend": "up",
      "trend_arrow": "🔺",
      "change_pct": 461.5,
      "place": "Jász-Nagykun-Szolnok, Hungary"
    },
    {
      "lon": 21.25,
      "lat": 52.25,
      "type": "hotspot_cell",
      "score": 60.76,
      "count": 171,
      "cell_deg": 0.5,
      "sources": {
        "GDELT": 171,
        "GDELT_DOC": 0,
        "DIRECT_FEED": 0,
        "USGS": 0,
        "GDACS": 0
      },
      "last7_score": 50.807,
      "prev7_score": 9.953,
      "trend": "up",
      "trend_arrow": "🔺",
      "change_pct": 410.5,
      "place": "Warsaw, Poland"
    }
  ]
}