{
  "generated_utc": "2026-07-12T02:03:17Z",
  "top": [
    {
      "lon": 14.25,
      "lat": 50.25,
      "type": "hotspot_cell",
      "score": 816.196,
      "count": 1279,
      "cell_deg": 0.5,
      "sources": {
        "GDELT": 106,
        "GDELT_DOC": 1167,
        "DIRECT_FEED": 6,
        "USGS": 0,
        "GDACS": 0
      },
      "last7_score": 808.166,
      "prev7_score": 8.03,
      "trend": "up",
      "trend_arrow": "🔺",
      "change_pct": 9964.4,
      "place": "SO ORP Kralupy nad Vltavou, Czechia"
    },
    {
      "lon": 25.25,
      "lat": 54.75,
      "type": "hotspot_cell",
      "score": 562.719,
      "count": 851,
      "cell_deg": 0.5,
      "sources": {
        "GDELT": 73,
        "GDELT_DOC": 776,
        "DIRECT_FEED": 2,
        "USGS": 0,
        "GDACS": 0
      },
      "last7_score": 557.745,
      "prev7_score": 4.974,
      "trend": "up",
      "trend_arrow": "🔺",
      "change_pct": 11113.8,
      "place": "Vilnius County, Lithuania"
    },
    {
      "lon": 26.25,
      "lat": 44.25,
      "type": "hotspot_cell",
      "score": 484.389,
      "count": 938,
      "cell_deg": 0.5,
      "sources": {
        "GDELT": 129,
        "GDELT_DOC": 805,
        "DIRECT_FEED": 4,
        "USGS": 0,
        "GDACS": 0
      },
      "last7_score": 476.205,
      "prev7_score": 8.184,
      "trend": "up",
      "trend_arrow": "🔺",
      "change_pct": 5718.4,
      "place": "Giurgiu, Romania"
    },
    {
      "lon": 19.25,
      "lat": 47.75,
      "type": "hotspot_cell",
      "score": 165.11,
      "count": 308,
      "cell_deg": 0.5,
      "sources": {
        "GDELT": 145,
        "GDELT_DOC": 0,
        "DIRECT_FEED": 163,
        "USGS": 0,
        "GDACS": 0
      },
      "last7_score": 156.659,
      "prev7_score": 8.451,
      "trend": "up",
      "trend_arrow": "🔺",
      "change_pct": 1753.7,
      "place": "Pest, Hungary"
    },
    {
      "lon": 20.25,
      "lat": 52.25,
      "type": "hotspot_cell",
      "score": 153.66,
      "count": 492,
      "cell_deg": 0.5,
      "sources": {
        "GDELT": 492,
        "GDELT_DOC": 0,
        "DIRECT_FEED": 0,
        "USGS": 0,
        "GDACS": 0
      },
      "last7_score": 119.37,
      "prev7_score": 34.29,
      "trend": "up",
      "trend_arrow": "🔺",
      "change_pct": 248.1,
      "place": "Sochaczew County, Poland"
    },
    {
      "lon": 25.25,
      "lat": 46.25,
      "type": "hotspot_cell",
      "score": 135.787,
      "count": 361,
      "cell_deg": 0.5,
      "sources": {
        "GDELT": 361,
        "GDELT_DOC": 0,
        "DIRECT_FEED": 0,
        "USGS": 0,
        "GDACS": 0
      },
      "last7_score": 114.442,
      "prev7_score": 21.345,
      "trend": "up",
      "trend_arrow": "🔺",
      "change_pct": 436.2,
      "place": "Harghita, Romania"
    },
    {
      "lon": 24.25,
      "lat": 56.75,
      "type": "hotspot_cell",
      "score": 92.58,
      "count": 149,
      "cell_deg": 0.5,
      "sources": {
        "GDELT": 21,
        "GDELT_DOC": 0,
        "DIRECT_FEED": 128,
        "USGS": 0,
        "GDACS": 0
      },
      "last7_score": 90.897,
      "prev7_score": 1.683,
      "trend": "up",
      "trend_arrow": "🔺",
      "change_pct": 5302.5,
      "place": "Ķekavas novads, Latvia"
    },
    {
      "lon": 21.25,
      "lat": 52.25,
      "type": "hotspot_cell",
      "score": 86.513,
      "count": 253,
      "cell_deg": 0.5,
      "sources": {
        "GDELT": 253,
        "GDELT_DOC": 0,
        "DIRECT_FEED": 0,
        "USGS": 0,
        "GDACS": 0
      },
      "last7_score": 65.0,
      "prev7_score": 21.513,
      "trend": "up",
      "trend_arrow": "🔺",
      "change_pct": 202.1,
      "place": "Warsaw, Poland"
    },
    {
      "lon": 20.25,
      "lat": 47.25,
      "type": "hotspot_cell",
      "score": 67.174,
      "count": 169,
      "cell_deg": 0.5,
      "sources": {
        "GDELT": 169,
        "GDELT_DOC": 0,
        "DIRECT_FEED": 0,
        "USGS": 0,
        "GDACS": 0
      },
      "last7_score": 58.014,
      "prev7_score": 9.16,
      "trend": "up",
      "trend_arrow": "🔺",
      "change_pct": 533.3,
      "place": "Jász-Nagykun-Szolnok, Hungary"
    },
    {
      "lon": 15.25,
      "lat": 49.75,
      "type": "hotspot_cell",
      "score": 61.79,
      "count": 172,
      "cell_deg": 0.5,
      "sources": {
        "GDELT": 172,
        "GDELT_DOC": 0,
        "DIRECT_FEED": 0,
        "USGS": 0,
        "GDACS": 0
      },
      "last7_score": 50.852,
      "prev7_score": 10.938,
      "trend": "up",
      "trend_arrow": "🔺",
      "change_pct": 364.9,
      "place": "Vysočina Region, Czechia"
    }
  ]
}