{
  "generated_utc": "2026-07-04T19:06:29Z",
  "top": [
    {
      "lon": 20.25,
      "lat": 52.25,
      "type": "hotspot_cell",
      "score": 205.343,
      "count": 555,
      "cell_deg": 0.5,
      "sources": {
        "GDELT": 555,
        "GDELT_DOC": 0,
        "DIRECT_FEED": 0,
        "USGS": 0,
        "GDACS": 0
      },
      "last7_score": 171.0,
      "prev7_score": 34.343,
      "trend": "up",
      "trend_arrow": "🔺",
      "change_pct": 397.9,
      "place": "Sochaczew County, Poland"
    },
    {
      "lon": 19.25,
      "lat": 47.75,
      "type": "hotspot_cell",
      "score": 180.074,
      "count": 366,
      "cell_deg": 0.5,
      "sources": {
        "GDELT": 185,
        "GDELT_DOC": 0,
        "DIRECT_FEED": 181,
        "USGS": 0,
        "GDACS": 0
      },
      "last7_score": 166.477,
      "prev7_score": 13.596,
      "trend": "up",
      "trend_arrow": "🔺",
      "change_pct": 1124.4,
      "place": "Pest, Hungary"
    },
    {
      "lon": 26.25,
      "lat": 44.25,
      "type": "hotspot_cell",
      "score": 167.135,
      "count": 457,
      "cell_deg": 0.5,
      "sources": {
        "GDELT": 145,
        "GDELT_DOC": 306,
        "DIRECT_FEED": 6,
        "USGS": 0,
        "GDACS": 0
      },
      "last7_score": 159.013,
      "prev7_score": 8.121,
      "trend": "up",
      "trend_arrow": "🔺",
      "change_pct": 1857.9,
      "place": "Giurgiu, Romania"
    },
    {
      "lon": 25.25,
      "lat": 54.75,
      "type": "hotspot_cell",
      "score": 144.154,
      "count": 372,
      "cell_deg": 0.5,
      "sources": {
        "GDELT": 70,
        "GDELT_DOC": 302,
        "DIRECT_FEED": 0,
        "USGS": 0,
        "GDACS": 0
      },
      "last7_score": 140.789,
      "prev7_score": 3.365,
      "trend": "up",
      "trend_arrow": "🔺",
      "change_pct": 4083.8,
      "place": "Vilnius County, Lithuania"
    },
    {
      "lon": 14.25,
      "lat": 50.25,
      "type": "hotspot_cell",
      "score": 136.599,
      "count": 374,
      "cell_deg": 0.5,
      "sources": {
        "GDELT": 135,
        "GDELT_DOC": 238,
        "DIRECT_FEED": 1,
        "USGS": 0,
        "GDACS": 0
      },
      "last7_score": 128.378,
      "prev7_score": 8.221,
      "trend": "up",
      "trend_arrow": "🔺",
      "change_pct": 1461.6,
      "place": "SO ORP Kralupy nad Vltavou, Czechia"
    },
    {
      "lon": 25.25,
      "lat": 46.25,
      "type": "hotspot_cell",
      "score": 127.93,
      "count": 357,
      "cell_deg": 0.5,
      "sources": {
        "GDELT": 357,
        "GDELT_DOC": 0,
        "DIRECT_FEED": 0,
        "USGS": 0,
        "GDACS": 0
      },
      "last7_score": 106.098,
      "prev7_score": 21.832,
      "trend": "up",
      "trend_arrow": "🔺",
      "change_pct": 386.0,
      "place": "Harghita, Romania"
    },
    {
      "lon": 21.25,
      "lat": 52.25,
      "type": "hotspot_cell",
      "score": 123.595,
      "count": 332,
      "cell_deg": 0.5,
      "sources": {
        "GDELT": 332,
        "GDELT_DOC": 0,
        "DIRECT_FEED": 0,
        "USGS": 0,
        "GDACS": 0
      },
      "last7_score": 102.894,
      "prev7_score": 20.701,
      "trend": "up",
      "trend_arrow": "🔺",
      "change_pct": 397.1,
      "place": "Warsaw, Poland"
    },
    {
      "lon": 24.25,
      "lat": 56.75,
      "type": "hotspot_cell",
      "score": 105.126,
      "count": 169,
      "cell_deg": 0.5,
      "sources": {
        "GDELT": 26,
        "GDELT_DOC": 0,
        "DIRECT_FEED": 143,
        "USGS": 0,
        "GDACS": 0
      },
      "last7_score": 103.605,
      "prev7_score": 1.521,
      "trend": "up",
      "trend_arrow": "🔺",
      "change_pct": 6711.3,
      "place": "Ķekavas novads, Latvia"
    },
    {
      "lon": 15.25,
      "lat": 49.75,
      "type": "hotspot_cell",
      "score": 59.909,
      "count": 165,
      "cell_deg": 0.5,
      "sources": {
        "GDELT": 165,
        "GDELT_DOC": 0,
        "DIRECT_FEED": 0,
        "USGS": 0,
        "GDACS": 0
      },
      "last7_score": 49.661,
      "prev7_score": 10.248,
      "trend": "up",
      "trend_arrow": "🔺",
      "change_pct": 384.6,
      "place": "Vysočina Region, Czechia"
    },
    {
      "lon": 20.25,
      "lat": 47.25,
      "type": "hotspot_cell",
      "score": 57.989,
      "count": 183,
      "cell_deg": 0.5,
      "sources": {
        "GDELT": 183,
        "GDELT_DOC": 0,
        "DIRECT_FEED": 0,
        "USGS": 0,
        "GDACS": 0
      },
      "last7_score": 45.715,
      "prev7_score": 12.274,
      "trend": "up",
      "trend_arrow": "🔺",
      "change_pct": 272.5,
      "place": "Jász-Nagykun-Szolnok, Hungary"
    }
  ]
}