{
  "generated_utc": "2026-07-19T01:58:53Z",
  "top": [
    {
      "lon": 14.25,
      "lat": 50.25,
      "type": "hotspot_cell",
      "score": 605.859,
      "count": 1024,
      "cell_deg": 0.5,
      "sources": {
        "GDELT": 104,
        "GDELT_DOC": 916,
        "DIRECT_FEED": 4,
        "USGS": 0,
        "GDACS": 0
      },
      "last7_score": 600.261,
      "prev7_score": 5.598,
      "trend": "up",
      "trend_arrow": "🔺",
      "change_pct": 10622.6,
      "place": "SO ORP Kralupy nad Vltavou, Czechia"
    },
    {
      "lon": 26.25,
      "lat": 44.25,
      "type": "hotspot_cell",
      "score": 508.415,
      "count": 866,
      "cell_deg": 0.5,
      "sources": {
        "GDELT": 102,
        "GDELT_DOC": 762,
        "DIRECT_FEED": 2,
        "USGS": 0,
        "GDACS": 0
      },
      "last7_score": 501.553,
      "prev7_score": 6.862,
      "trend": "up",
      "trend_arrow": "🔺",
      "change_pct": 7209.5,
      "place": "Giurgiu, Romania"
    },
    {
      "lon": 25.25,
      "lat": 54.75,
      "type": "hotspot_cell",
      "score": 403.836,
      "count": 658,
      "cell_deg": 0.5,
      "sources": {
        "GDELT": 77,
        "GDELT_DOC": 581,
        "DIRECT_FEED": 0,
        "USGS": 0,
        "GDACS": 0
      },
      "last7_score": 399.287,
      "prev7_score": 4.549,
      "trend": "up",
      "trend_arrow": "🔺",
      "change_pct": 8678.3,
      "place": "Vilnius County, Lithuania"
    },
    {
      "lon": 19.25,
      "lat": 47.75,
      "type": "hotspot_cell",
      "score": 187.733,
      "count": 358,
      "cell_deg": 0.5,
      "sources": {
        "GDELT": 166,
        "GDELT_DOC": 0,
        "DIRECT_FEED": 192,
        "USGS": 0,
        "GDACS": 0
      },
      "last7_score": 177.245,
      "prev7_score": 10.488,
      "trend": "up",
      "trend_arrow": "🔺",
      "change_pct": 1589.9,
      "place": "Pest, Hungary"
    },
    {
      "lon": 20.25,
      "lat": 52.25,
      "type": "hotspot_cell",
      "score": 161.269,
      "count": 465,
      "cell_deg": 0.5,
      "sources": {
        "GDELT": 465,
        "GDELT_DOC": 0,
        "DIRECT_FEED": 0,
        "USGS": 0,
        "GDACS": 0
      },
      "last7_score": 134.795,
      "prev7_score": 26.474,
      "trend": "up",
      "trend_arrow": "🔺",
      "change_pct": 409.2,
      "place": "Sochaczew County, Poland"
    },
    {
      "lon": 25.25,
      "lat": 46.25,
      "type": "hotspot_cell",
      "score": 140.009,
      "count": 394,
      "cell_deg": 0.5,
      "sources": {
        "GDELT": 394,
        "GDELT_DOC": 0,
        "DIRECT_FEED": 0,
        "USGS": 0,
        "GDACS": 0
      },
      "last7_score": 114.897,
      "prev7_score": 25.112,
      "trend": "up",
      "trend_arrow": "🔺",
      "change_pct": 357.5,
      "place": "Harghita, Romania"
    },
    {
      "lon": 24.25,
      "lat": 56.75,
      "type": "hotspot_cell",
      "score": 100.571,
      "count": 157,
      "cell_deg": 0.5,
      "sources": {
        "GDELT": 19,
        "GDELT_DOC": 0,
        "DIRECT_FEED": 138,
        "USGS": 0,
        "GDACS": 0
      },
      "last7_score": 99.728,
      "prev7_score": 0.843,
      "trend": "up",
      "trend_arrow": "🔺",
      "change_pct": 11728.1,
      "place": "Ķekavas novads, Latvia"
    },
    {
      "lon": 21.25,
      "lat": 52.25,
      "type": "hotspot_cell",
      "score": 83.614,
      "count": 223,
      "cell_deg": 0.5,
      "sources": {
        "GDELT": 223,
        "GDELT_DOC": 0,
        "DIRECT_FEED": 0,
        "USGS": 0,
        "GDACS": 0
      },
      "last7_score": 70.202,
      "prev7_score": 13.413,
      "trend": "up",
      "trend_arrow": "🔺",
      "change_pct": 423.4,
      "place": "Warsaw, Poland"
    },
    {
      "lon": 20.25,
      "lat": 47.25,
      "type": "hotspot_cell",
      "score": 73.037,
      "count": 205,
      "cell_deg": 0.5,
      "sources": {
        "GDELT": 205,
        "GDELT_DOC": 0,
        "DIRECT_FEED": 0,
        "USGS": 0,
        "GDACS": 0
      },
      "last7_score": 60.226,
      "prev7_score": 12.81,
      "trend": "up",
      "trend_arrow": "🔺",
      "change_pct": 370.1,
      "place": "Jász-Nagykun-Szolnok, Hungary"
    },
    {
      "lon": 22.25,
      "lat": 55.25,
      "type": "hotspot_cell",
      "score": 55.324,
      "count": 62,
      "cell_deg": 0.5,
      "sources": {
        "GDELT": 0,
        "GDELT_DOC": 61,
        "DIRECT_FEED": 1,
        "USGS": 0,
        "GDACS": 0
      },
      "last7_score": 55.324,
      "prev7_score": 0.0,
      "trend": "new",
      "trend_arrow": "🆕",
      "change_pct": null,
      "place": "Tauragės seniūnija, Lithuania"
    }
  ]
}