{
  "generated_utc": "2026-03-21T06:48:50Z",
  "top": [
    {
      "lon": 14.25,
      "lat": 50.25,
      "type": "hotspot_cell",
      "score": 829.292,
      "count": 1391,
      "cell_deg": 0.5,
      "sources": {
        "GDELT": 112,
        "GDELT_DOC": 1278,
        "DIRECT_FEED": 1,
        "USGS": 0,
        "GDACS": 0
      },
      "last7_score": 821.992,
      "prev7_score": 7.3,
      "trend": "up",
      "trend_arrow": "🔺",
      "change_pct": 11160.1,
      "place": "SO ORP Kralupy nad Vltavou, Czechia"
    },
    {
      "lon": 26.25,
      "lat": 44.25,
      "type": "hotspot_cell",
      "score": 789.064,
      "count": 1365,
      "cell_deg": 0.5,
      "sources": {
        "GDELT": 181,
        "GDELT_DOC": 1184,
        "DIRECT_FEED": 0,
        "USGS": 0,
        "GDACS": 0
      },
      "last7_score": 772.289,
      "prev7_score": 16.775,
      "trend": "up",
      "trend_arrow": "🔺",
      "change_pct": 4503.9,
      "place": "Giurgiu, Romania"
    },
    {
      "lon": 25.25,
      "lat": 54.75,
      "type": "hotspot_cell",
      "score": 549.698,
      "count": 881,
      "cell_deg": 0.5,
      "sources": {
        "GDELT": 85,
        "GDELT_DOC": 796,
        "DIRECT_FEED": 0,
        "USGS": 0,
        "GDACS": 0
      },
      "last7_score": 544.194,
      "prev7_score": 5.504,
      "trend": "up",
      "trend_arrow": "🔺",
      "change_pct": 9786.7,
      "place": "Vilnius County, Lithuania"
    },
    {
      "lon": 19.25,
      "lat": 47.75,
      "type": "hotspot_cell",
      "score": 303.168,
      "count": 600,
      "cell_deg": 0.5,
      "sources": {
        "GDELT": 377,
        "GDELT_DOC": 0,
        "DIRECT_FEED": 223,
        "USGS": 0,
        "GDACS": 0
      },
      "last7_score": 279.389,
      "prev7_score": 23.78,
      "trend": "up",
      "trend_arrow": "🔺",
      "change_pct": 1074.9,
      "place": "Pest, Hungary"
    },
    {
      "lon": 20.25,
      "lat": 52.25,
      "type": "hotspot_cell",
      "score": 177.322,
      "count": 418,
      "cell_deg": 0.5,
      "sources": {
        "GDELT": 418,
        "GDELT_DOC": 0,
        "DIRECT_FEED": 0,
        "USGS": 0,
        "GDACS": 0
      },
      "last7_score": 148.772,
      "prev7_score": 28.55,
      "trend": "up",
      "trend_arrow": "🔺",
      "change_pct": 421.1,
      "place": "Sochaczew County, Poland"
    },
    {
      "lon": 20.25,
      "lat": 47.25,
      "type": "hotspot_cell",
      "score": 175.26,
      "count": 405,
      "cell_deg": 0.5,
      "sources": {
        "GDELT": 405,
        "GDELT_DOC": 0,
        "DIRECT_FEED": 0,
        "USGS": 0,
        "GDACS": 0
      },
      "last7_score": 147.436,
      "prev7_score": 27.824,
      "trend": "up",
      "trend_arrow": "🔺",
      "change_pct": 429.9,
      "place": "Jász-Nagykun-Szolnok, Hungary"
    },
    {
      "lon": 25.25,
      "lat": 46.25,
      "type": "hotspot_cell",
      "score": 124.289,
      "count": 318,
      "cell_deg": 0.5,
      "sources": {
        "GDELT": 318,
        "GDELT_DOC": 0,
        "DIRECT_FEED": 0,
        "USGS": 0,
        "GDACS": 0
      },
      "last7_score": 101.965,
      "prev7_score": 22.324,
      "trend": "up",
      "trend_arrow": "🔺",
      "change_pct": 356.8,
      "place": "Harghita, Romania"
    },
    {
      "lon": 24.25,
      "lat": 56.75,
      "type": "hotspot_cell",
      "score": 109.208,
      "count": 162,
      "cell_deg": 0.5,
      "sources": {
        "GDELT": 34,
        "GDELT_DOC": 0,
        "DIRECT_FEED": 128,
        "USGS": 0,
        "GDACS": 0
      },
      "last7_score": 106.269,
      "prev7_score": 2.938,
      "trend": "up",
      "trend_arrow": "🔺",
      "change_pct": 3516.5,
      "place": "Ķekavas novads, Latvia"
    },
    {
      "lon": 15.25,
      "lat": 49.75,
      "type": "hotspot_cell",
      "score": 73.59,
      "count": 163,
      "cell_deg": 0.5,
      "sources": {
        "GDELT": 163,
        "GDELT_DOC": 0,
        "DIRECT_FEED": 0,
        "USGS": 0,
        "GDACS": 0
      },
      "last7_score": 64.819,
      "prev7_score": 8.771,
      "trend": "up",
      "trend_arrow": "🔺",
      "change_pct": 639.0,
      "place": "Vysočina Region, Czechia"
    },
    {
      "lon": 21.25,
      "lat": 52.25,
      "type": "hotspot_cell",
      "score": 69.474,
      "count": 183,
      "cell_deg": 0.5,
      "sources": {
        "GDELT": 183,
        "GDELT_DOC": 0,
        "DIRECT_FEED": 0,
        "USGS": 0,
        "GDACS": 0
      },
      "last7_score": 54.564,
      "prev7_score": 14.91,
      "trend": "up",
      "trend_arrow": "🔺",
      "change_pct": 266.0,
      "place": "Warsaw, Poland"
    }
  ]
}