{
  "generated_utc": "2026-06-11T20:18:10Z",
  "top": [
    {
      "lon": 14.25,
      "lat": 50.25,
      "type": "hotspot_cell",
      "score": 595.025,
      "count": 887,
      "cell_deg": 0.5,
      "sources": {
        "GDELT": 106,
        "GDELT_DOC": 781,
        "DIRECT_FEED": 0,
        "USGS": 0,
        "GDACS": 0
      },
      "last7_score": 586.288,
      "prev7_score": 8.737,
      "trend": "up",
      "trend_arrow": "🔺",
      "change_pct": 6610.2,
      "place": "SO ORP Kralupy nad Vltavou, Czechia"
    },
    {
      "lon": 26.25,
      "lat": 44.25,
      "type": "hotspot_cell",
      "score": 522.111,
      "count": 1034,
      "cell_deg": 0.5,
      "sources": {
        "GDELT": 264,
        "GDELT_DOC": 759,
        "DIRECT_FEED": 11,
        "USGS": 0,
        "GDACS": 0
      },
      "last7_score": 503.146,
      "prev7_score": 18.964,
      "trend": "up",
      "trend_arrow": "🔺",
      "change_pct": 2553.2,
      "place": "Giurgiu, Romania"
    },
    {
      "lon": 25.25,
      "lat": 54.75,
      "type": "hotspot_cell",
      "score": 433.796,
      "count": 812,
      "cell_deg": 0.5,
      "sources": {
        "GDELT": 76,
        "GDELT_DOC": 735,
        "DIRECT_FEED": 1,
        "USGS": 0,
        "GDACS": 0
      },
      "last7_score": 427.877,
      "prev7_score": 5.919,
      "trend": "up",
      "trend_arrow": "🔺",
      "change_pct": 7128.6,
      "place": "Vilnius County, Lithuania"
    },
    {
      "lon": 20.25,
      "lat": 52.25,
      "type": "hotspot_cell",
      "score": 183.162,
      "count": 507,
      "cell_deg": 0.5,
      "sources": {
        "GDELT": 507,
        "GDELT_DOC": 0,
        "DIRECT_FEED": 0,
        "USGS": 0,
        "GDACS": 0
      },
      "last7_score": 148.479,
      "prev7_score": 34.684,
      "trend": "up",
      "trend_arrow": "🔺",
      "change_pct": 328.1,
      "place": "Sochaczew County, Poland"
    },
    {
      "lon": 19.25,
      "lat": 47.75,
      "type": "hotspot_cell",
      "score": 181.081,
      "count": 401,
      "cell_deg": 0.5,
      "sources": {
        "GDELT": 238,
        "GDELT_DOC": 0,
        "DIRECT_FEED": 163,
        "USGS": 0,
        "GDACS": 0
      },
      "last7_score": 160.079,
      "prev7_score": 21.002,
      "trend": "up",
      "trend_arrow": "🔺",
      "change_pct": 662.2,
      "place": "Pest, Hungary"
    },
    {
      "lon": 25.25,
      "lat": 46.25,
      "type": "hotspot_cell",
      "score": 175.668,
      "count": 543,
      "cell_deg": 0.5,
      "sources": {
        "GDELT": 543,
        "GDELT_DOC": 0,
        "DIRECT_FEED": 0,
        "USGS": 0,
        "GDACS": 0
      },
      "last7_score": 140.245,
      "prev7_score": 35.423,
      "trend": "up",
      "trend_arrow": "🔺",
      "change_pct": 295.9,
      "place": "Harghita, Romania"
    },
    {
      "lon": 24.25,
      "lat": 56.75,
      "type": "hotspot_cell",
      "score": 116.64,
      "count": 175,
      "cell_deg": 0.5,
      "sources": {
        "GDELT": 48,
        "GDELT_DOC": 0,
        "DIRECT_FEED": 127,
        "USGS": 0,
        "GDACS": 0
      },
      "last7_score": 113.382,
      "prev7_score": 3.258,
      "trend": "up",
      "trend_arrow": "🔺",
      "change_pct": 3379.6,
      "place": "Ķekavas novads, Latvia"
    },
    {
      "lon": 20.25,
      "lat": 47.25,
      "type": "hotspot_cell",
      "score": 92.147,
      "count": 262,
      "cell_deg": 0.5,
      "sources": {
        "GDELT": 262,
        "GDELT_DOC": 0,
        "DIRECT_FEED": 0,
        "USGS": 0,
        "GDACS": 0
      },
      "last7_score": 73.908,
      "prev7_score": 18.239,
      "trend": "up",
      "trend_arrow": "🔺",
      "change_pct": 305.2,
      "place": "Jász-Nagykun-Szolnok, Hungary"
    },
    {
      "lon": 21.25,
      "lat": 52.25,
      "type": "hotspot_cell",
      "score": 61.907,
      "count": 208,
      "cell_deg": 0.5,
      "sources": {
        "GDELT": 208,
        "GDELT_DOC": 0,
        "DIRECT_FEED": 0,
        "USGS": 0,
        "GDACS": 0
      },
      "last7_score": 46.103,
      "prev7_score": 15.804,
      "trend": "up",
      "trend_arrow": "🔺",
      "change_pct": 191.7,
      "place": "Warsaw, Poland"
    },
    {
      "lon": 15.25,
      "lat": 49.75,
      "type": "hotspot_cell",
      "score": 49.934,
      "count": 139,
      "cell_deg": 0.5,
      "sources": {
        "GDELT": 139,
        "GDELT_DOC": 0,
        "DIRECT_FEED": 0,
        "USGS": 0,
        "GDACS": 0
      },
      "last7_score": 41.053,
      "prev7_score": 8.882,
      "trend": "up",
      "trend_arrow": "🔺",
      "change_pct": 362.2,
      "place": "Vysočina Region, Czechia"
    }
  ]
}