{
  "generated_utc": "2026-04-22T02:42:11Z",
  "top": [
    {
      "lon": 14.25,
      "lat": 50.25,
      "type": "hotspot_cell",
      "score": 859.333,
      "count": 1412,
      "cell_deg": 0.5,
      "sources": {
        "GDELT": 140,
        "GDELT_DOC": 1269,
        "DIRECT_FEED": 3,
        "USGS": 0,
        "GDACS": 0
      },
      "last7_score": 852.648,
      "prev7_score": 6.685,
      "trend": "up",
      "trend_arrow": "🔺",
      "change_pct": 12655.3,
      "place": "SO ORP Kralupy nad Vltavou, Czechia"
    },
    {
      "lon": 26.25,
      "lat": 44.25,
      "type": "hotspot_cell",
      "score": 770.08,
      "count": 1254,
      "cell_deg": 0.5,
      "sources": {
        "GDELT": 110,
        "GDELT_DOC": 1140,
        "DIRECT_FEED": 4,
        "USGS": 0,
        "GDACS": 0
      },
      "last7_score": 764.392,
      "prev7_score": 5.688,
      "trend": "up",
      "trend_arrow": "🔺",
      "change_pct": 13339.0,
      "place": "Giurgiu, Romania"
    },
    {
      "lon": 25.25,
      "lat": 54.75,
      "type": "hotspot_cell",
      "score": 611.78,
      "count": 949,
      "cell_deg": 0.5,
      "sources": {
        "GDELT": 70,
        "GDELT_DOC": 879,
        "DIRECT_FEED": 0,
        "USGS": 0,
        "GDACS": 0
      },
      "last7_score": 605.157,
      "prev7_score": 6.624,
      "trend": "up",
      "trend_arrow": "🔺",
      "change_pct": 9036.1,
      "place": "Vilnius County, Lithuania"
    },
    {
      "lon": 19.25,
      "lat": 47.75,
      "type": "hotspot_cell",
      "score": 462.478,
      "count": 1307,
      "cell_deg": 0.5,
      "sources": {
        "GDELT": 1039,
        "GDELT_DOC": 0,
        "DIRECT_FEED": 268,
        "USGS": 0,
        "GDACS": 0
      },
      "last7_score": 340.509,
      "prev7_score": 121.969,
      "trend": "up",
      "trend_arrow": "🔺",
      "change_pct": 179.2,
      "place": "Pest, Hungary"
    },
    {
      "lon": 20.25,
      "lat": 47.25,
      "type": "hotspot_cell",
      "score": 280.308,
      "count": 813,
      "cell_deg": 0.5,
      "sources": {
        "GDELT": 813,
        "GDELT_DOC": 0,
        "DIRECT_FEED": 0,
        "USGS": 0,
        "GDACS": 0
      },
      "last7_score": 197.592,
      "prev7_score": 82.716,
      "trend": "up",
      "trend_arrow": "🔺",
      "change_pct": 138.9,
      "place": "Jász-Nagykun-Szolnok, Hungary"
    },
    {
      "lon": 20.25,
      "lat": 52.25,
      "type": "hotspot_cell",
      "score": 161.638,
      "count": 418,
      "cell_deg": 0.5,
      "sources": {
        "GDELT": 418,
        "GDELT_DOC": 0,
        "DIRECT_FEED": 0,
        "USGS": 0,
        "GDACS": 0
      },
      "last7_score": 130.558,
      "prev7_score": 31.08,
      "trend": "up",
      "trend_arrow": "🔺",
      "change_pct": 320.1,
      "place": "Sochaczew County, Poland"
    },
    {
      "lon": 24.25,
      "lat": 56.75,
      "type": "hotspot_cell",
      "score": 111.961,
      "count": 170,
      "cell_deg": 0.5,
      "sources": {
        "GDELT": 34,
        "GDELT_DOC": 0,
        "DIRECT_FEED": 136,
        "USGS": 0,
        "GDACS": 0
      },
      "last7_score": 108.532,
      "prev7_score": 3.429,
      "trend": "up",
      "trend_arrow": "🔺",
      "change_pct": 3065.4,
      "place": "Ķekavas novads, Latvia"
    },
    {
      "lon": 25.25,
      "lat": 46.25,
      "type": "hotspot_cell",
      "score": 87.834,
      "count": 227,
      "cell_deg": 0.5,
      "sources": {
        "GDELT": 227,
        "GDELT_DOC": 0,
        "DIRECT_FEED": 0,
        "USGS": 0,
        "GDACS": 0
      },
      "last7_score": 66.505,
      "prev7_score": 21.328,
      "trend": "up",
      "trend_arrow": "🔺",
      "change_pct": 211.8,
      "place": "Harghita, Romania"
    },
    {
      "lon": 15.25,
      "lat": 49.75,
      "type": "hotspot_cell",
      "score": 80.275,
      "count": 195,
      "cell_deg": 0.5,
      "sources": {
        "GDELT": 195,
        "GDELT_DOC": 0,
        "DIRECT_FEED": 0,
        "USGS": 0,
        "GDACS": 0
      },
      "last7_score": 64.921,
      "prev7_score": 15.354,
      "trend": "up",
      "trend_arrow": "🔺",
      "change_pct": 322.8,
      "place": "Vysočina Region, Czechia"
    },
    {
      "lon": 21.25,
      "lat": 52.25,
      "type": "hotspot_cell",
      "score": 62.205,
      "count": 174,
      "cell_deg": 0.5,
      "sources": {
        "GDELT": 174,
        "GDELT_DOC": 0,
        "DIRECT_FEED": 0,
        "USGS": 0,
        "GDACS": 0
      },
      "last7_score": 42.405,
      "prev7_score": 19.8,
      "trend": "up",
      "trend_arrow": "🔺",
      "change_pct": 114.2,
      "place": "Warsaw, Poland"
    }
  ]
}