{
  "generated_utc": "2026-06-14T13:36:48Z",
  "top": [
    {
      "lon": 14.25,
      "lat": 50.25,
      "type": "hotspot_cell",
      "score": 549.287,
      "count": 929,
      "cell_deg": 0.5,
      "sources": {
        "GDELT": 97,
        "GDELT_DOC": 827,
        "DIRECT_FEED": 5,
        "USGS": 0,
        "GDACS": 0
      },
      "last7_score": 543.486,
      "prev7_score": 5.801,
      "trend": "up",
      "trend_arrow": "🔺",
      "change_pct": 9268.8,
      "place": "SO ORP Kralupy nad Vltavou, Czechia"
    },
    {
      "lon": 26.25,
      "lat": 44.25,
      "type": "hotspot_cell",
      "score": 524.156,
      "count": 921,
      "cell_deg": 0.5,
      "sources": {
        "GDELT": 177,
        "GDELT_DOC": 732,
        "DIRECT_FEED": 12,
        "USGS": 0,
        "GDACS": 0
      },
      "last7_score": 513.357,
      "prev7_score": 10.8,
      "trend": "up",
      "trend_arrow": "🔺",
      "change_pct": 4653.4,
      "place": "Giurgiu, Romania"
    },
    {
      "lon": 25.25,
      "lat": 54.75,
      "type": "hotspot_cell",
      "score": 421.498,
      "count": 748,
      "cell_deg": 0.5,
      "sources": {
        "GDELT": 74,
        "GDELT_DOC": 674,
        "DIRECT_FEED": 0,
        "USGS": 0,
        "GDACS": 0
      },
      "last7_score": 417.2,
      "prev7_score": 4.298,
      "trend": "up",
      "trend_arrow": "🔺",
      "change_pct": 9606.0,
      "place": "Vilnius County, Lithuania"
    },
    {
      "lon": 19.25,
      "lat": 47.75,
      "type": "hotspot_cell",
      "score": 174.904,
      "count": 382,
      "cell_deg": 0.5,
      "sources": {
        "GDELT": 210,
        "GDELT_DOC": 0,
        "DIRECT_FEED": 172,
        "USGS": 0,
        "GDACS": 0
      },
      "last7_score": 160.617,
      "prev7_score": 14.288,
      "trend": "up",
      "trend_arrow": "🔺",
      "change_pct": 1024.2,
      "place": "Pest, Hungary"
    },
    {
      "lon": 20.25,
      "lat": 52.25,
      "type": "hotspot_cell",
      "score": 147.729,
      "count": 472,
      "cell_deg": 0.5,
      "sources": {
        "GDELT": 472,
        "GDELT_DOC": 0,
        "DIRECT_FEED": 0,
        "USGS": 0,
        "GDACS": 0
      },
      "last7_score": 116.98,
      "prev7_score": 30.748,
      "trend": "up",
      "trend_arrow": "🔺",
      "change_pct": 280.4,
      "place": "Sochaczew County, Poland"
    },
    {
      "lon": 25.25,
      "lat": 46.25,
      "type": "hotspot_cell",
      "score": 132.787,
      "count": 433,
      "cell_deg": 0.5,
      "sources": {
        "GDELT": 433,
        "GDELT_DOC": 0,
        "DIRECT_FEED": 0,
        "USGS": 0,
        "GDACS": 0
      },
      "last7_score": 104.084,
      "prev7_score": 28.704,
      "trend": "up",
      "trend_arrow": "🔺",
      "change_pct": 262.6,
      "place": "Harghita, Romania"
    },
    {
      "lon": 24.25,
      "lat": 56.75,
      "type": "hotspot_cell",
      "score": 105.547,
      "count": 173,
      "cell_deg": 0.5,
      "sources": {
        "GDELT": 44,
        "GDELT_DOC": 0,
        "DIRECT_FEED": 129,
        "USGS": 0,
        "GDACS": 0
      },
      "last7_score": 102.01,
      "prev7_score": 3.537,
      "trend": "up",
      "trend_arrow": "🔺",
      "change_pct": 2783.8,
      "place": "Ķekavas novads, Latvia"
    },
    {
      "lon": 20.25,
      "lat": 47.25,
      "type": "hotspot_cell",
      "score": 88.975,
      "count": 260,
      "cell_deg": 0.5,
      "sources": {
        "GDELT": 260,
        "GDELT_DOC": 0,
        "DIRECT_FEED": 0,
        "USGS": 0,
        "GDACS": 0
      },
      "last7_score": 72.735,
      "prev7_score": 16.24,
      "trend": "up",
      "trend_arrow": "🔺",
      "change_pct": 347.9,
      "place": "Jász-Nagykun-Szolnok, Hungary"
    },
    {
      "lon": 27.75,
      "lat": 47.25,
      "type": "hotspot_cell",
      "score": 59.373,
      "count": 82,
      "cell_deg": 0.5,
      "sources": {
        "GDELT": 0,
        "GDELT_DOC": 82,
        "DIRECT_FEED": 0,
        "USGS": 0,
        "GDACS": 0
      },
      "last7_score": 59.373,
      "prev7_score": 0.0,
      "trend": "new",
      "trend_arrow": "🆕",
      "change_pct": null,
      "place": "Iași, Romania"
    },
    {
      "lon": 21.25,
      "lat": 52.25,
      "type": "hotspot_cell",
      "score": 54.942,
      "count": 178,
      "cell_deg": 0.5,
      "sources": {
        "GDELT": 178,
        "GDELT_DOC": 0,
        "DIRECT_FEED": 0,
        "USGS": 0,
        "GDACS": 0
      },
      "last7_score": 43.547,
      "prev7_score": 11.395,
      "trend": "up",
      "trend_arrow": "🔺",
      "change_pct": 282.2,
      "place": "Warsaw, Poland"
    }
  ]
}