{
  "generated_utc": "2026-03-19T02:26:46Z",
  "top": [
    {
      "lon": 14.25,
      "lat": 50.25,
      "type": "hotspot_cell",
      "score": 943.577,
      "count": 1518,
      "cell_deg": 0.5,
      "sources": {
        "GDELT": 109,
        "GDELT_DOC": 1405,
        "DIRECT_FEED": 4,
        "USGS": 0,
        "GDACS": 0
      },
      "last7_score": 935.025,
      "prev7_score": 8.552,
      "trend": "up",
      "trend_arrow": "🔺",
      "change_pct": 10833.8,
      "place": "SO ORP Kralupy nad Vltavou, Czechia"
    },
    {
      "lon": 26.25,
      "lat": 44.25,
      "type": "hotspot_cell",
      "score": 832.083,
      "count": 1338,
      "cell_deg": 0.5,
      "sources": {
        "GDELT": 174,
        "GDELT_DOC": 1162,
        "DIRECT_FEED": 2,
        "USGS": 0,
        "GDACS": 0
      },
      "last7_score": 814.955,
      "prev7_score": 17.128,
      "trend": "up",
      "trend_arrow": "🔺",
      "change_pct": 4658.0,
      "place": "Giurgiu, Romania"
    },
    {
      "lon": 25.25,
      "lat": 54.75,
      "type": "hotspot_cell",
      "score": 557.376,
      "count": 945,
      "cell_deg": 0.5,
      "sources": {
        "GDELT": 71,
        "GDELT_DOC": 874,
        "DIRECT_FEED": 0,
        "USGS": 0,
        "GDACS": 0
      },
      "last7_score": 549.85,
      "prev7_score": 7.526,
      "trend": "up",
      "trend_arrow": "🔺",
      "change_pct": 7206.1,
      "place": "Vilnius County, Lithuania"
    },
    {
      "lon": 19.25,
      "lat": 47.75,
      "type": "hotspot_cell",
      "score": 297.73,
      "count": 623,
      "cell_deg": 0.5,
      "sources": {
        "GDELT": 420,
        "GDELT_DOC": 0,
        "DIRECT_FEED": 203,
        "USGS": 0,
        "GDACS": 0
      },
      "last7_score": 260.444,
      "prev7_score": 37.287,
      "trend": "up",
      "trend_arrow": "🔺",
      "change_pct": 598.5,
      "place": "Pest, Hungary"
    },
    {
      "lon": 20.25,
      "lat": 52.25,
      "type": "hotspot_cell",
      "score": 168.815,
      "count": 415,
      "cell_deg": 0.5,
      "sources": {
        "GDELT": 415,
        "GDELT_DOC": 0,
        "DIRECT_FEED": 0,
        "USGS": 0,
        "GDACS": 0
      },
      "last7_score": 138.986,
      "prev7_score": 29.829,
      "trend": "up",
      "trend_arrow": "🔺",
      "change_pct": 365.9,
      "place": "Sochaczew County, Poland"
    },
    {
      "lon": 20.25,
      "lat": 47.25,
      "type": "hotspot_cell",
      "score": 134.837,
      "count": 349,
      "cell_deg": 0.5,
      "sources": {
        "GDELT": 349,
        "GDELT_DOC": 0,
        "DIRECT_FEED": 0,
        "USGS": 0,
        "GDACS": 0
      },
      "last7_score": 104.916,
      "prev7_score": 29.921,
      "trend": "up",
      "trend_arrow": "🔺",
      "change_pct": 250.6,
      "place": "Jász-Nagykun-Szolnok, Hungary"
    },
    {
      "lon": 25.25,
      "lat": 46.25,
      "type": "hotspot_cell",
      "score": 115.772,
      "count": 287,
      "cell_deg": 0.5,
      "sources": {
        "GDELT": 287,
        "GDELT_DOC": 0,
        "DIRECT_FEED": 0,
        "USGS": 0,
        "GDACS": 0
      },
      "last7_score": 87.479,
      "prev7_score": 28.293,
      "trend": "up",
      "trend_arrow": "🔺",
      "change_pct": 209.2,
      "place": "Harghita, Romania"
    },
    {
      "lon": 24.25,
      "lat": 56.75,
      "type": "hotspot_cell",
      "score": 114.71,
      "count": 171,
      "cell_deg": 0.5,
      "sources": {
        "GDELT": 33,
        "GDELT_DOC": 0,
        "DIRECT_FEED": 138,
        "USGS": 0,
        "GDACS": 0
      },
      "last7_score": 112.287,
      "prev7_score": 2.423,
      "trend": "up",
      "trend_arrow": "🔺",
      "change_pct": 4534.0,
      "place": "Ķekavas novads, Latvia"
    },
    {
      "lon": 21.25,
      "lat": 52.25,
      "type": "hotspot_cell",
      "score": 75.75,
      "count": 192,
      "cell_deg": 0.5,
      "sources": {
        "GDELT": 192,
        "GDELT_DOC": 0,
        "DIRECT_FEED": 0,
        "USGS": 0,
        "GDACS": 0
      },
      "last7_score": 58.896,
      "prev7_score": 16.854,
      "trend": "up",
      "trend_arrow": "🔺",
      "change_pct": 249.4,
      "place": "Warsaw, Poland"
    },
    {
      "lon": 27.75,
      "lat": 47.25,
      "type": "hotspot_cell",
      "score": 60.369,
      "count": 99,
      "cell_deg": 0.5,
      "sources": {
        "GDELT": 0,
        "GDELT_DOC": 99,
        "DIRECT_FEED": 0,
        "USGS": 0,
        "GDACS": 0
      },
      "last7_score": 60.369,
      "prev7_score": 0.0,
      "trend": "new",
      "trend_arrow": "🆕",
      "change_pct": null,
      "place": "Iași, Romania"
    }
  ]
}