{
  "generated_utc": "2026-05-19T03:42:12Z",
  "top": [
    {
      "lon": 26.25,
      "lat": 44.25,
      "type": "hotspot_cell",
      "score": 852.35,
      "count": 1415,
      "cell_deg": 0.5,
      "sources": {
        "GDELT": 200,
        "GDELT_DOC": 1211,
        "DIRECT_FEED": 4,
        "USGS": 0,
        "GDACS": 0
      },
      "last7_score": 838.267,
      "prev7_score": 14.083,
      "trend": "up",
      "trend_arrow": "🔺",
      "change_pct": 5852.5,
      "place": "Giurgiu, Romania"
    },
    {
      "lon": 14.25,
      "lat": 50.25,
      "type": "hotspot_cell",
      "score": 831.697,
      "count": 1526,
      "cell_deg": 0.5,
      "sources": {
        "GDELT": 103,
        "GDELT_DOC": 1418,
        "DIRECT_FEED": 5,
        "USGS": 0,
        "GDACS": 0
      },
      "last7_score": 823.889,
      "prev7_score": 7.808,
      "trend": "up",
      "trend_arrow": "🔺",
      "change_pct": 10451.7,
      "place": "SO ORP Kralupy nad Vltavou, Czechia"
    },
    {
      "lon": 25.25,
      "lat": 54.75,
      "type": "hotspot_cell",
      "score": 617.954,
      "count": 1042,
      "cell_deg": 0.5,
      "sources": {
        "GDELT": 73,
        "GDELT_DOC": 969,
        "DIRECT_FEED": 0,
        "USGS": 0,
        "GDACS": 0
      },
      "last7_score": 613.165,
      "prev7_score": 4.788,
      "trend": "up",
      "trend_arrow": "🔺",
      "change_pct": 12705.2,
      "place": "Vilnius County, Lithuania"
    },
    {
      "lon": 19.25,
      "lat": 47.75,
      "type": "hotspot_cell",
      "score": 227.896,
      "count": 524,
      "cell_deg": 0.5,
      "sources": {
        "GDELT": 301,
        "GDELT_DOC": 0,
        "DIRECT_FEED": 223,
        "USGS": 0,
        "GDACS": 0
      },
      "last7_score": 201.388,
      "prev7_score": 26.507,
      "trend": "up",
      "trend_arrow": "🔺",
      "change_pct": 659.7,
      "place": "Pest, Hungary"
    },
    {
      "lon": 20.25,
      "lat": 52.25,
      "type": "hotspot_cell",
      "score": 201.408,
      "count": 553,
      "cell_deg": 0.5,
      "sources": {
        "GDELT": 553,
        "GDELT_DOC": 0,
        "DIRECT_FEED": 0,
        "USGS": 0,
        "GDACS": 0
      },
      "last7_score": 165.56,
      "prev7_score": 35.848,
      "trend": "up",
      "trend_arrow": "🔺",
      "change_pct": 361.8,
      "place": "Sochaczew County, Poland"
    },
    {
      "lon": 24.25,
      "lat": 56.75,
      "type": "hotspot_cell",
      "score": 109.573,
      "count": 182,
      "cell_deg": 0.5,
      "sources": {
        "GDELT": 36,
        "GDELT_DOC": 0,
        "DIRECT_FEED": 146,
        "USGS": 0,
        "GDACS": 0
      },
      "last7_score": 108.653,
      "prev7_score": 0.919,
      "trend": "up",
      "trend_arrow": "🔺",
      "change_pct": 11719.3,
      "place": "Ķekavas novads, Latvia"
    },
    {
      "lon": 20.25,
      "lat": 47.25,
      "type": "hotspot_cell",
      "score": 95.788,
      "count": 285,
      "cell_deg": 0.5,
      "sources": {
        "GDELT": 285,
        "GDELT_DOC": 0,
        "DIRECT_FEED": 0,
        "USGS": 0,
        "GDACS": 0
      },
      "last7_score": 69.902,
      "prev7_score": 25.887,
      "trend": "up",
      "trend_arrow": "🔺",
      "change_pct": 170.0,
      "place": "Jász-Nagykun-Szolnok, Hungary"
    },
    {
      "lon": 25.25,
      "lat": 46.25,
      "type": "hotspot_cell",
      "score": 85.985,
      "count": 255,
      "cell_deg": 0.5,
      "sources": {
        "GDELT": 255,
        "GDELT_DOC": 0,
        "DIRECT_FEED": 0,
        "USGS": 0,
        "GDACS": 0
      },
      "last7_score": 63.72,
      "prev7_score": 22.265,
      "trend": "up",
      "trend_arrow": "🔺",
      "change_pct": 186.2,
      "place": "Harghita, Romania"
    },
    {
      "lon": 25.25,
      "lat": 57.25,
      "type": "hotspot_cell",
      "score": 72.637,
      "count": 178,
      "cell_deg": 0.5,
      "sources": {
        "GDELT": 178,
        "GDELT_DOC": 0,
        "DIRECT_FEED": 0,
        "USGS": 0,
        "GDACS": 0
      },
      "last7_score": 59.96,
      "prev7_score": 12.677,
      "trend": "up",
      "trend_arrow": "🔺",
      "change_pct": 373.0,
      "place": "Cēsu novads, Latvia"
    },
    {
      "lon": 21.25,
      "lat": 52.25,
      "type": "hotspot_cell",
      "score": 69.166,
      "count": 205,
      "cell_deg": 0.5,
      "sources": {
        "GDELT": 205,
        "GDELT_DOC": 0,
        "DIRECT_FEED": 0,
        "USGS": 0,
        "GDACS": 0
      },
      "last7_score": 55.614,
      "prev7_score": 13.552,
      "trend": "up",
      "trend_arrow": "🔺",
      "change_pct": 310.4,
      "place": "Warsaw, Poland"
    }
  ]
}