{
  "generated_utc": "2026-07-16T08:06:16Z",
  "top": [
    {
      "lon": 14.25,
      "lat": 50.25,
      "type": "hotspot_cell",
      "score": 725.368,
      "count": 1221,
      "cell_deg": 0.5,
      "sources": {
        "GDELT": 98,
        "GDELT_DOC": 1116,
        "DIRECT_FEED": 7,
        "USGS": 0,
        "GDACS": 0
      },
      "last7_score": 718.856,
      "prev7_score": 6.512,
      "trend": "up",
      "trend_arrow": "🔺",
      "change_pct": 10938.8,
      "place": "SO ORP Kralupy nad Vltavou, Czechia"
    },
    {
      "lon": 26.25,
      "lat": 44.25,
      "type": "hotspot_cell",
      "score": 453.369,
      "count": 729,
      "cell_deg": 0.5,
      "sources": {
        "GDELT": 89,
        "GDELT_DOC": 637,
        "DIRECT_FEED": 3,
        "USGS": 0,
        "GDACS": 0
      },
      "last7_score": 444.752,
      "prev7_score": 8.617,
      "trend": "up",
      "trend_arrow": "🔺",
      "change_pct": 5061.6,
      "place": "Giurgiu, Romania"
    },
    {
      "lon": 25.25,
      "lat": 54.75,
      "type": "hotspot_cell",
      "score": 393.717,
      "count": 706,
      "cell_deg": 0.5,
      "sources": {
        "GDELT": 75,
        "GDELT_DOC": 630,
        "DIRECT_FEED": 1,
        "USGS": 0,
        "GDACS": 0
      },
      "last7_score": 388.426,
      "prev7_score": 5.29,
      "trend": "up",
      "trend_arrow": "🔺",
      "change_pct": 7242.0,
      "place": "Vilnius County, Lithuania"
    },
    {
      "lon": 19.25,
      "lat": 47.75,
      "type": "hotspot_cell",
      "score": 201.555,
      "count": 338,
      "cell_deg": 0.5,
      "sources": {
        "GDELT": 149,
        "GDELT_DOC": 0,
        "DIRECT_FEED": 189,
        "USGS": 0,
        "GDACS": 0
      },
      "last7_score": 189.636,
      "prev7_score": 11.919,
      "trend": "up",
      "trend_arrow": "🔺",
      "change_pct": 1491.1,
      "place": "Pest, Hungary"
    },
    {
      "lon": 20.25,
      "lat": 52.25,
      "type": "hotspot_cell",
      "score": 176.34,
      "count": 453,
      "cell_deg": 0.5,
      "sources": {
        "GDELT": 453,
        "GDELT_DOC": 0,
        "DIRECT_FEED": 0,
        "USGS": 0,
        "GDACS": 0
      },
      "last7_score": 138.481,
      "prev7_score": 37.859,
      "trend": "up",
      "trend_arrow": "🔺",
      "change_pct": 265.8,
      "place": "Sochaczew County, Poland"
    },
    {
      "lon": 25.25,
      "lat": 46.25,
      "type": "hotspot_cell",
      "score": 157.292,
      "count": 378,
      "cell_deg": 0.5,
      "sources": {
        "GDELT": 378,
        "GDELT_DOC": 0,
        "DIRECT_FEED": 0,
        "USGS": 0,
        "GDACS": 0
      },
      "last7_score": 129.517,
      "prev7_score": 27.775,
      "trend": "up",
      "trend_arrow": "🔺",
      "change_pct": 366.3,
      "place": "Harghita, Romania"
    },
    {
      "lon": 24.25,
      "lat": 56.75,
      "type": "hotspot_cell",
      "score": 109.966,
      "count": 153,
      "cell_deg": 0.5,
      "sources": {
        "GDELT": 18,
        "GDELT_DOC": 0,
        "DIRECT_FEED": 135,
        "USGS": 0,
        "GDACS": 0
      },
      "last7_score": 108.724,
      "prev7_score": 1.242,
      "trend": "up",
      "trend_arrow": "🔺",
      "change_pct": 8654.3,
      "place": "Ķekavas novads, Latvia"
    },
    {
      "lon": 21.25,
      "lat": 52.25,
      "type": "hotspot_cell",
      "score": 95.942,
      "count": 252,
      "cell_deg": 0.5,
      "sources": {
        "GDELT": 252,
        "GDELT_DOC": 0,
        "DIRECT_FEED": 0,
        "USGS": 0,
        "GDACS": 0
      },
      "last7_score": 77.349,
      "prev7_score": 18.593,
      "trend": "up",
      "trend_arrow": "🔺",
      "change_pct": 316.0,
      "place": "Warsaw, Poland"
    },
    {
      "lon": 20.25,
      "lat": 47.25,
      "type": "hotspot_cell",
      "score": 69.536,
      "count": 182,
      "cell_deg": 0.5,
      "sources": {
        "GDELT": 182,
        "GDELT_DOC": 0,
        "DIRECT_FEED": 0,
        "USGS": 0,
        "GDACS": 0
      },
      "last7_score": 55.097,
      "prev7_score": 14.439,
      "trend": "up",
      "trend_arrow": "🔺",
      "change_pct": 281.6,
      "place": "Jász-Nagykun-Szolnok, Hungary"
    },
    {
      "lon": 24.25,
      "lat": 56.25,
      "type": "hotspot_cell",
      "score": 57.489,
      "count": 141,
      "cell_deg": 0.5,
      "sources": {
        "GDELT": 141,
        "GDELT_DOC": 0,
        "DIRECT_FEED": 0,
        "USGS": 0,
        "GDACS": 0
      },
      "last7_score": 44.775,
      "prev7_score": 12.714,
      "trend": "up",
      "trend_arrow": "🔺",
      "change_pct": 252.2,
      "place": "Namišių seniūnija, Lithuania"
    }
  ]
}