{
  "generated_utc": "2026-03-28T07:06:56Z",
  "top": [
    {
      "lon": 14.25,
      "lat": 50.25,
      "type": "hotspot_cell",
      "score": 977.052,
      "count": 1479,
      "cell_deg": 0.5,
      "sources": {
        "GDELT": 128,
        "GDELT_DOC": 1347,
        "DIRECT_FEED": 4,
        "USGS": 0,
        "GDACS": 0
      },
      "last7_score": 967.184,
      "prev7_score": 9.869,
      "trend": "up",
      "trend_arrow": "🔺",
      "change_pct": 9700.7,
      "place": "SO ORP Kralupy nad Vltavou, Czechia"
    },
    {
      "lon": 26.25,
      "lat": 44.25,
      "type": "hotspot_cell",
      "score": 646.802,
      "count": 1139,
      "cell_deg": 0.5,
      "sources": {
        "GDELT": 140,
        "GDELT_DOC": 997,
        "DIRECT_FEED": 2,
        "USGS": 0,
        "GDACS": 0
      },
      "last7_score": 637.059,
      "prev7_score": 9.742,
      "trend": "up",
      "trend_arrow": "🔺",
      "change_pct": 6439.2,
      "place": "Giurgiu, Romania"
    },
    {
      "lon": 25.25,
      "lat": 54.75,
      "type": "hotspot_cell",
      "score": 629.547,
      "count": 1008,
      "cell_deg": 0.5,
      "sources": {
        "GDELT": 91,
        "GDELT_DOC": 917,
        "DIRECT_FEED": 0,
        "USGS": 0,
        "GDACS": 0
      },
      "last7_score": 622.415,
      "prev7_score": 7.132,
      "trend": "up",
      "trend_arrow": "🔺",
      "change_pct": 8626.8,
      "place": "Vilnius County, Lithuania"
    },
    {
      "lon": 19.25,
      "lat": 47.75,
      "type": "hotspot_cell",
      "score": 277.498,
      "count": 573,
      "cell_deg": 0.5,
      "sources": {
        "GDELT": 359,
        "GDELT_DOC": 0,
        "DIRECT_FEED": 214,
        "USGS": 0,
        "GDACS": 0
      },
      "last7_score": 251.598,
      "prev7_score": 25.9,
      "trend": "up",
      "trend_arrow": "🔺",
      "change_pct": 871.4,
      "place": "Pest, Hungary"
    },
    {
      "lon": 20.25,
      "lat": 52.25,
      "type": "hotspot_cell",
      "score": 166.2,
      "count": 425,
      "cell_deg": 0.5,
      "sources": {
        "GDELT": 425,
        "GDELT_DOC": 0,
        "DIRECT_FEED": 0,
        "USGS": 0,
        "GDACS": 0
      },
      "last7_score": 133.902,
      "prev7_score": 32.298,
      "trend": "up",
      "trend_arrow": "🔺",
      "change_pct": 314.6,
      "place": "Sochaczew County, Poland"
    },
    {
      "lon": 20.25,
      "lat": 47.25,
      "type": "hotspot_cell",
      "score": 133.953,
      "count": 385,
      "cell_deg": 0.5,
      "sources": {
        "GDELT": 385,
        "GDELT_DOC": 0,
        "DIRECT_FEED": 0,
        "USGS": 0,
        "GDACS": 0
      },
      "last7_score": 102.76,
      "prev7_score": 31.194,
      "trend": "up",
      "trend_arrow": "🔺",
      "change_pct": 229.4,
      "place": "Jász-Nagykun-Szolnok, Hungary"
    },
    {
      "lon": 24.25,
      "lat": 56.75,
      "type": "hotspot_cell",
      "score": 129.382,
      "count": 192,
      "cell_deg": 0.5,
      "sources": {
        "GDELT": 42,
        "GDELT_DOC": 0,
        "DIRECT_FEED": 150,
        "USGS": 0,
        "GDACS": 0
      },
      "last7_score": 126.67,
      "prev7_score": 2.712,
      "trend": "up",
      "trend_arrow": "🔺",
      "change_pct": 4570.6,
      "place": "Ķekavas novads, Latvia"
    },
    {
      "lon": 25.25,
      "lat": 46.25,
      "type": "hotspot_cell",
      "score": 128.901,
      "count": 328,
      "cell_deg": 0.5,
      "sources": {
        "GDELT": 328,
        "GDELT_DOC": 0,
        "DIRECT_FEED": 0,
        "USGS": 0,
        "GDACS": 0
      },
      "last7_score": 106.727,
      "prev7_score": 22.173,
      "trend": "up",
      "trend_arrow": "🔺",
      "change_pct": 381.3,
      "place": "Harghita, Romania"
    },
    {
      "lon": 15.25,
      "lat": 49.75,
      "type": "hotspot_cell",
      "score": 62.085,
      "count": 177,
      "cell_deg": 0.5,
      "sources": {
        "GDELT": 177,
        "GDELT_DOC": 0,
        "DIRECT_FEED": 0,
        "USGS": 0,
        "GDACS": 0
      },
      "last7_score": 46.296,
      "prev7_score": 15.79,
      "trend": "up",
      "trend_arrow": "🔺",
      "change_pct": 193.2,
      "place": "Vysočina Region, Czechia"
    },
    {
      "lon": 27.75,
      "lat": 47.25,
      "type": "hotspot_cell",
      "score": 57.623,
      "count": 94,
      "cell_deg": 0.5,
      "sources": {
        "GDELT": 0,
        "GDELT_DOC": 94,
        "DIRECT_FEED": 0,
        "USGS": 0,
        "GDACS": 0
      },
      "last7_score": 57.623,
      "prev7_score": 0.0,
      "trend": "new",
      "trend_arrow": "🆕",
      "change_pct": null,
      "place": "Iași, Romania"
    }
  ]
}