{
  "generated_utc": "2026-03-27T13:15:23Z",
  "top": [
    {
      "lon": 14.25,
      "lat": 50.25,
      "type": "hotspot_cell",
      "score": 957.149,
      "count": 1434,
      "cell_deg": 0.5,
      "sources": {
        "GDELT": 121,
        "GDELT_DOC": 1310,
        "DIRECT_FEED": 3,
        "USGS": 0,
        "GDACS": 0
      },
      "last7_score": 947.732,
      "prev7_score": 9.417,
      "trend": "up",
      "trend_arrow": "🔺",
      "change_pct": 9964.0,
      "place": "SO ORP Kralupy nad Vltavou, Czechia"
    },
    {
      "lon": 26.25,
      "lat": 44.25,
      "type": "hotspot_cell",
      "score": 707.797,
      "count": 1184,
      "cell_deg": 0.5,
      "sources": {
        "GDELT": 148,
        "GDELT_DOC": 1034,
        "DIRECT_FEED": 2,
        "USGS": 0,
        "GDACS": 0
      },
      "last7_score": 697.032,
      "prev7_score": 10.765,
      "trend": "up",
      "trend_arrow": "🔺",
      "change_pct": 6374.7,
      "place": "Giurgiu, Romania"
    },
    {
      "lon": 25.25,
      "lat": 54.75,
      "type": "hotspot_cell",
      "score": 622.597,
      "count": 1002,
      "cell_deg": 0.5,
      "sources": {
        "GDELT": 85,
        "GDELT_DOC": 917,
        "DIRECT_FEED": 0,
        "USGS": 0,
        "GDACS": 0
      },
      "last7_score": 614.671,
      "prev7_score": 7.926,
      "trend": "up",
      "trend_arrow": "🔺",
      "change_pct": 7654.8,
      "place": "Vilnius County, Lithuania"
    },
    {
      "lon": 19.25,
      "lat": 47.75,
      "type": "hotspot_cell",
      "score": 281.082,
      "count": 562,
      "cell_deg": 0.5,
      "sources": {
        "GDELT": 350,
        "GDELT_DOC": 0,
        "DIRECT_FEED": 212,
        "USGS": 0,
        "GDACS": 0
      },
      "last7_score": 252.387,
      "prev7_score": 28.696,
      "trend": "up",
      "trend_arrow": "🔺",
      "change_pct": 779.5,
      "place": "Pest, Hungary"
    },
    {
      "lon": 20.25,
      "lat": 52.25,
      "type": "hotspot_cell",
      "score": 160.508,
      "count": 414,
      "cell_deg": 0.5,
      "sources": {
        "GDELT": 414,
        "GDELT_DOC": 0,
        "DIRECT_FEED": 0,
        "USGS": 0,
        "GDACS": 0
      },
      "last7_score": 126.291,
      "prev7_score": 34.217,
      "trend": "up",
      "trend_arrow": "🔺",
      "change_pct": 269.1,
      "place": "Sochaczew County, Poland"
    },
    {
      "lon": 25.25,
      "lat": 46.25,
      "type": "hotspot_cell",
      "score": 142.855,
      "count": 326,
      "cell_deg": 0.5,
      "sources": {
        "GDELT": 326,
        "GDELT_DOC": 0,
        "DIRECT_FEED": 0,
        "USGS": 0,
        "GDACS": 0
      },
      "last7_score": 119.369,
      "prev7_score": 23.486,
      "trend": "up",
      "trend_arrow": "🔺",
      "change_pct": 408.3,
      "place": "Harghita, Romania"
    },
    {
      "lon": 24.25,
      "lat": 56.75,
      "type": "hotspot_cell",
      "score": 140.225,
      "count": 193,
      "cell_deg": 0.5,
      "sources": {
        "GDELT": 43,
        "GDELT_DOC": 0,
        "DIRECT_FEED": 150,
        "USGS": 0,
        "GDACS": 0
      },
      "last7_score": 137.429,
      "prev7_score": 2.796,
      "trend": "up",
      "trend_arrow": "🔺",
      "change_pct": 4815.1,
      "place": "Ķekavas novads, Latvia"
    },
    {
      "lon": 20.25,
      "lat": 47.25,
      "type": "hotspot_cell",
      "score": 138.528,
      "count": 388,
      "cell_deg": 0.5,
      "sources": {
        "GDELT": 388,
        "GDELT_DOC": 0,
        "DIRECT_FEED": 0,
        "USGS": 0,
        "GDACS": 0
      },
      "last7_score": 104.152,
      "prev7_score": 34.376,
      "trend": "up",
      "trend_arrow": "🔺",
      "change_pct": 203.0,
      "place": "Jász-Nagykun-Szolnok, Hungary"
    },
    {
      "lon": 15.25,
      "lat": 49.75,
      "type": "hotspot_cell",
      "score": 66.445,
      "count": 173,
      "cell_deg": 0.5,
      "sources": {
        "GDELT": 173,
        "GDELT_DOC": 0,
        "DIRECT_FEED": 0,
        "USGS": 0,
        "GDACS": 0
      },
      "last7_score": 51.087,
      "prev7_score": 15.358,
      "trend": "up",
      "trend_arrow": "🔺",
      "change_pct": 232.6,
      "place": "Vysočina Region, Czechia"
    },
    {
      "lon": 22.25,
      "lat": 55.25,
      "type": "hotspot_cell",
      "score": 63.109,
      "count": 74,
      "cell_deg": 0.5,
      "sources": {
        "GDELT": 0,
        "GDELT_DOC": 73,
        "DIRECT_FEED": 1,
        "USGS": 0,
        "GDACS": 0
      },
      "last7_score": 63.109,
      "prev7_score": 0.0,
      "trend": "new",
      "trend_arrow": "🆕",
      "change_pct": null,
      "place": "Tauragės seniūnija, Lithuania"
    }
  ]
}