{
  "generated_utc": "2026-06-18T10:13:20Z",
  "top": [
    {
      "lon": 26.25,
      "lat": 44.25,
      "type": "hotspot_cell",
      "score": 618.182,
      "count": 1011,
      "cell_deg": 0.5,
      "sources": {
        "GDELT": 156,
        "GDELT_DOC": 847,
        "DIRECT_FEED": 8,
        "USGS": 0,
        "GDACS": 0
      },
      "last7_score": 605.514,
      "prev7_score": 12.667,
      "trend": "up",
      "trend_arrow": "🔺",
      "change_pct": 4680.1,
      "place": "Giurgiu, Romania"
    },
    {
      "lon": 25.25,
      "lat": 54.75,
      "type": "hotspot_cell",
      "score": 569.772,
      "count": 807,
      "cell_deg": 0.5,
      "sources": {
        "GDELT": 57,
        "GDELT_DOC": 749,
        "DIRECT_FEED": 1,
        "USGS": 0,
        "GDACS": 0
      },
      "last7_score": 565.191,
      "prev7_score": 4.581,
      "trend": "up",
      "trend_arrow": "🔺",
      "change_pct": 12237.8,
      "place": "Vilnius County, Lithuania"
    },
    {
      "lon": 14.25,
      "lat": 50.25,
      "type": "hotspot_cell",
      "score": 372.526,
      "count": 673,
      "cell_deg": 0.5,
      "sources": {
        "GDELT": 91,
        "GDELT_DOC": 574,
        "DIRECT_FEED": 8,
        "USGS": 0,
        "GDACS": 0
      },
      "last7_score": 365.864,
      "prev7_score": 6.662,
      "trend": "up",
      "trend_arrow": "🔺",
      "change_pct": 5391.5,
      "place": "SO ORP Kralupy nad Vltavou, Czechia"
    },
    {
      "lon": 19.25,
      "lat": 47.75,
      "type": "hotspot_cell",
      "score": 181.06,
      "count": 327,
      "cell_deg": 0.5,
      "sources": {
        "GDELT": 159,
        "GDELT_DOC": 0,
        "DIRECT_FEED": 168,
        "USGS": 0,
        "GDACS": 0
      },
      "last7_score": 170.91,
      "prev7_score": 10.149,
      "trend": "up",
      "trend_arrow": "🔺",
      "change_pct": 1583.9,
      "place": "Pest, Hungary"
    },
    {
      "lon": 20.25,
      "lat": 52.25,
      "type": "hotspot_cell",
      "score": 173.969,
      "count": 441,
      "cell_deg": 0.5,
      "sources": {
        "GDELT": 441,
        "GDELT_DOC": 0,
        "DIRECT_FEED": 0,
        "USGS": 0,
        "GDACS": 0
      },
      "last7_score": 139.973,
      "prev7_score": 33.996,
      "trend": "up",
      "trend_arrow": "🔺",
      "change_pct": 311.7,
      "place": "Sochaczew County, Poland"
    },
    {
      "lon": 25.25,
      "lat": 46.25,
      "type": "hotspot_cell",
      "score": 157.264,
      "count": 418,
      "cell_deg": 0.5,
      "sources": {
        "GDELT": 418,
        "GDELT_DOC": 0,
        "DIRECT_FEED": 0,
        "USGS": 0,
        "GDACS": 0
      },
      "last7_score": 126.109,
      "prev7_score": 31.155,
      "trend": "up",
      "trend_arrow": "🔺",
      "change_pct": 304.8,
      "place": "Harghita, Romania"
    },
    {
      "lon": 24.25,
      "lat": 56.75,
      "type": "hotspot_cell",
      "score": 117.452,
      "count": 179,
      "cell_deg": 0.5,
      "sources": {
        "GDELT": 38,
        "GDELT_DOC": 0,
        "DIRECT_FEED": 141,
        "USGS": 0,
        "GDACS": 0
      },
      "last7_score": 114.192,
      "prev7_score": 3.26,
      "trend": "up",
      "trend_arrow": "🔺",
      "change_pct": 3402.9,
      "place": "Ķekavas novads, Latvia"
    },
    {
      "lon": 17.25,
      "lat": 48.25,
      "type": "hotspot_cell",
      "score": 92.984,
      "count": 162,
      "cell_deg": 0.5,
      "sources": {
        "GDELT": 161,
        "GDELT_DOC": 0,
        "DIRECT_FEED": 1,
        "USGS": 0,
        "GDACS": 0
      },
      "last7_score": 90.263,
      "prev7_score": 2.721,
      "trend": "up",
      "trend_arrow": "🔺",
      "change_pct": 3217.0,
      "place": "District of Pezinok, Slovakia"
    },
    {
      "lon": 20.25,
      "lat": 47.25,
      "type": "hotspot_cell",
      "score": 91.585,
      "count": 239,
      "cell_deg": 0.5,
      "sources": {
        "GDELT": 239,
        "GDELT_DOC": 0,
        "DIRECT_FEED": 0,
        "USGS": 0,
        "GDACS": 0
      },
      "last7_score": 74.074,
      "prev7_score": 17.511,
      "trend": "up",
      "trend_arrow": "🔺",
      "change_pct": 323.0,
      "place": "Jász-Nagykun-Szolnok, Hungary"
    },
    {
      "lon": 21.25,
      "lat": 52.25,
      "type": "hotspot_cell",
      "score": 88.259,
      "count": 180,
      "cell_deg": 0.5,
      "sources": {
        "GDELT": 180,
        "GDELT_DOC": 0,
        "DIRECT_FEED": 0,
        "USGS": 0,
        "GDACS": 0
      },
      "last7_score": 78.178,
      "prev7_score": 10.08,
      "trend": "up",
      "trend_arrow": "🔺",
      "change_pct": 675.6,
      "place": "Warsaw, Poland"
    }
  ]
}