{
  "generated_utc": "2026-06-05T19:50:56Z",
  "top": [
    {
      "lon": 25.25,
      "lat": 54.75,
      "type": "hotspot_cell",
      "score": 688.678,
      "count": 1043,
      "cell_deg": 0.5,
      "sources": {
        "GDELT": 86,
        "GDELT_DOC": 954,
        "DIRECT_FEED": 3,
        "USGS": 0,
        "GDACS": 0
      },
      "last7_score": 683.326,
      "prev7_score": 5.351,
      "trend": "up",
      "trend_arrow": "🔺",
      "change_pct": 12669.0,
      "place": "Vilnius County, Lithuania"
    },
    {
      "lon": 26.25,
      "lat": 44.25,
      "type": "hotspot_cell",
      "score": 673.304,
      "count": 1049,
      "cell_deg": 0.5,
      "sources": {
        "GDELT": 250,
        "GDELT_DOC": 790,
        "DIRECT_FEED": 9,
        "USGS": 0,
        "GDACS": 0
      },
      "last7_score": 646.257,
      "prev7_score": 27.047,
      "trend": "up",
      "trend_arrow": "🔺",
      "change_pct": 2289.4,
      "place": "Giurgiu, Romania"
    },
    {
      "lon": 14.25,
      "lat": 50.25,
      "type": "hotspot_cell",
      "score": 652.731,
      "count": 1051,
      "cell_deg": 0.5,
      "sources": {
        "GDELT": 139,
        "GDELT_DOC": 908,
        "DIRECT_FEED": 4,
        "USGS": 0,
        "GDACS": 0
      },
      "last7_score": 643.942,
      "prev7_score": 8.789,
      "trend": "up",
      "trend_arrow": "🔺",
      "change_pct": 7226.8,
      "place": "SO ORP Kralupy nad Vltavou, Czechia"
    },
    {
      "lon": 19.25,
      "lat": 47.75,
      "type": "hotspot_cell",
      "score": 252.264,
      "count": 447,
      "cell_deg": 0.5,
      "sources": {
        "GDELT": 259,
        "GDELT_DOC": 0,
        "DIRECT_FEED": 188,
        "USGS": 0,
        "GDACS": 0
      },
      "last7_score": 234.952,
      "prev7_score": 17.312,
      "trend": "up",
      "trend_arrow": "🔺",
      "change_pct": 1257.1,
      "place": "Pest, Hungary"
    },
    {
      "lon": 25.25,
      "lat": 46.25,
      "type": "hotspot_cell",
      "score": 218.675,
      "count": 505,
      "cell_deg": 0.5,
      "sources": {
        "GDELT": 505,
        "GDELT_DOC": 0,
        "DIRECT_FEED": 0,
        "USGS": 0,
        "GDACS": 0
      },
      "last7_score": 173.668,
      "prev7_score": 45.007,
      "trend": "up",
      "trend_arrow": "🔺",
      "change_pct": 285.9,
      "place": "Harghita, Romania"
    },
    {
      "lon": 20.25,
      "lat": 52.25,
      "type": "hotspot_cell",
      "score": 214.949,
      "count": 591,
      "cell_deg": 0.5,
      "sources": {
        "GDELT": 591,
        "GDELT_DOC": 0,
        "DIRECT_FEED": 0,
        "USGS": 0,
        "GDACS": 0
      },
      "last7_score": 173.653,
      "prev7_score": 41.296,
      "trend": "up",
      "trend_arrow": "🔺",
      "change_pct": 320.5,
      "place": "Sochaczew County, Poland"
    },
    {
      "lon": 24.25,
      "lat": 56.75,
      "type": "hotspot_cell",
      "score": 130.732,
      "count": 193,
      "cell_deg": 0.5,
      "sources": {
        "GDELT": 46,
        "GDELT_DOC": 0,
        "DIRECT_FEED": 147,
        "USGS": 0,
        "GDACS": 0
      },
      "last7_score": 126.931,
      "prev7_score": 3.801,
      "trend": "up",
      "trend_arrow": "🔺",
      "change_pct": 3239.2,
      "place": "Ķekavas novads, Latvia"
    },
    {
      "lon": 20.25,
      "lat": 47.25,
      "type": "hotspot_cell",
      "score": 99.23,
      "count": 260,
      "cell_deg": 0.5,
      "sources": {
        "GDELT": 260,
        "GDELT_DOC": 0,
        "DIRECT_FEED": 0,
        "USGS": 0,
        "GDACS": 0
      },
      "last7_score": 80.815,
      "prev7_score": 18.415,
      "trend": "up",
      "trend_arrow": "🔺",
      "change_pct": 338.9,
      "place": "Jász-Nagykun-Szolnok, Hungary"
    },
    {
      "lon": 21.25,
      "lat": 52.25,
      "type": "hotspot_cell",
      "score": 84.47,
      "count": 226,
      "cell_deg": 0.5,
      "sources": {
        "GDELT": 226,
        "GDELT_DOC": 0,
        "DIRECT_FEED": 0,
        "USGS": 0,
        "GDACS": 0
      },
      "last7_score": 67.898,
      "prev7_score": 16.571,
      "trend": "up",
      "trend_arrow": "🔺",
      "change_pct": 309.7,
      "place": "Warsaw, Poland"
    },
    {
      "lon": 24.25,
      "lat": 56.25,
      "type": "hotspot_cell",
      "score": 59.581,
      "count": 141,
      "cell_deg": 0.5,
      "sources": {
        "GDELT": 141,
        "GDELT_DOC": 0,
        "DIRECT_FEED": 0,
        "USGS": 0,
        "GDACS": 0
      },
      "last7_score": 49.344,
      "prev7_score": 10.236,
      "trend": "up",
      "trend_arrow": "🔺",
      "change_pct": 382.1,
      "place": "Namišių seniūnija, Lithuania"
    }
  ]
}