{
  "generated_utc": "2026-05-27T09:38:47Z",
  "top": [
    {
      "lon": 14.25,
      "lat": 50.25,
      "type": "hotspot_cell",
      "score": 878.874,
      "count": 1507,
      "cell_deg": 0.5,
      "sources": {
        "GDELT": 140,
        "GDELT_DOC": 1345,
        "DIRECT_FEED": 22,
        "USGS": 0,
        "GDACS": 0
      },
      "last7_score": 870.583,
      "prev7_score": 8.291,
      "trend": "up",
      "trend_arrow": "🔺",
      "change_pct": 10400.2,
      "place": "SO ORP Kralupy nad Vltavou, Czechia"
    },
    {
      "lon": 26.25,
      "lat": 44.25,
      "type": "hotspot_cell",
      "score": 791.883,
      "count": 1350,
      "cell_deg": 0.5,
      "sources": {
        "GDELT": 141,
        "GDELT_DOC": 1208,
        "DIRECT_FEED": 1,
        "USGS": 0,
        "GDACS": 0
      },
      "last7_score": 781.688,
      "prev7_score": 10.196,
      "trend": "up",
      "trend_arrow": "🔺",
      "change_pct": 7566.7,
      "place": "Giurgiu, Romania"
    },
    {
      "lon": 25.25,
      "lat": 54.75,
      "type": "hotspot_cell",
      "score": 648.113,
      "count": 1097,
      "cell_deg": 0.5,
      "sources": {
        "GDELT": 103,
        "GDELT_DOC": 991,
        "DIRECT_FEED": 3,
        "USGS": 0,
        "GDACS": 0
      },
      "last7_score": 637.285,
      "prev7_score": 10.827,
      "trend": "up",
      "trend_arrow": "🔺",
      "change_pct": 5785.9,
      "place": "Vilnius County, Lithuania"
    },
    {
      "lon": 20.25,
      "lat": 52.25,
      "type": "hotspot_cell",
      "score": 280.975,
      "count": 786,
      "cell_deg": 0.5,
      "sources": {
        "GDELT": 786,
        "GDELT_DOC": 0,
        "DIRECT_FEED": 0,
        "USGS": 0,
        "GDACS": 0
      },
      "last7_score": 230.542,
      "prev7_score": 50.432,
      "trend": "up",
      "trend_arrow": "🔺",
      "change_pct": 357.1,
      "place": "Sochaczew County, Poland"
    },
    {
      "lon": 19.25,
      "lat": 47.75,
      "type": "hotspot_cell",
      "score": 204.193,
      "count": 420,
      "cell_deg": 0.5,
      "sources": {
        "GDELT": 197,
        "GDELT_DOC": 0,
        "DIRECT_FEED": 223,
        "USGS": 0,
        "GDACS": 0
      },
      "last7_score": 188.049,
      "prev7_score": 16.145,
      "trend": "up",
      "trend_arrow": "🔺",
      "change_pct": 1064.8,
      "place": "Pest, Hungary"
    },
    {
      "lon": 25.25,
      "lat": 46.25,
      "type": "hotspot_cell",
      "score": 125.056,
      "count": 317,
      "cell_deg": 0.5,
      "sources": {
        "GDELT": 317,
        "GDELT_DOC": 0,
        "DIRECT_FEED": 0,
        "USGS": 0,
        "GDACS": 0
      },
      "last7_score": 100.141,
      "prev7_score": 24.915,
      "trend": "up",
      "trend_arrow": "🔺",
      "change_pct": 301.9,
      "place": "Harghita, Romania"
    },
    {
      "lon": 24.25,
      "lat": 56.75,
      "type": "hotspot_cell",
      "score": 103.809,
      "count": 172,
      "cell_deg": 0.5,
      "sources": {
        "GDELT": 53,
        "GDELT_DOC": 0,
        "DIRECT_FEED": 119,
        "USGS": 0,
        "GDACS": 0
      },
      "last7_score": 99.259,
      "prev7_score": 4.55,
      "trend": "up",
      "trend_arrow": "🔺",
      "change_pct": 2081.4,
      "place": "Ķekavas novads, Latvia"
    },
    {
      "lon": 21.25,
      "lat": 52.25,
      "type": "hotspot_cell",
      "score": 83.964,
      "count": 260,
      "cell_deg": 0.5,
      "sources": {
        "GDELT": 260,
        "GDELT_DOC": 0,
        "DIRECT_FEED": 0,
        "USGS": 0,
        "GDACS": 0
      },
      "last7_score": 64.751,
      "prev7_score": 19.213,
      "trend": "up",
      "trend_arrow": "🔺",
      "change_pct": 237.0,
      "place": "Warsaw, Poland"
    },
    {
      "lon": 20.25,
      "lat": 47.25,
      "type": "hotspot_cell",
      "score": 74.233,
      "count": 234,
      "cell_deg": 0.5,
      "sources": {
        "GDELT": 234,
        "GDELT_DOC": 0,
        "DIRECT_FEED": 0,
        "USGS": 0,
        "GDACS": 0
      },
      "last7_score": 54.509,
      "prev7_score": 19.724,
      "trend": "up",
      "trend_arrow": "🔺",
      "change_pct": 176.4,
      "place": "Jász-Nagykun-Szolnok, Hungary"
    },
    {
      "lon": 27.75,
      "lat": 47.25,
      "type": "hotspot_cell",
      "score": 59.382,
      "count": 82,
      "cell_deg": 0.5,
      "sources": {
        "GDELT": 0,
        "GDELT_DOC": 82,
        "DIRECT_FEED": 0,
        "USGS": 0,
        "GDACS": 0
      },
      "last7_score": 59.382,
      "prev7_score": 0.0,
      "trend": "new",
      "trend_arrow": "🆕",
      "change_pct": null,
      "place": "Iași, Romania"
    }
  ]
}