{
  "generated_utc": "2026-03-16T19:08:20Z",
  "top": [
    {
      "lon": 14.25,
      "lat": 50.25,
      "type": "hotspot_cell",
      "score": 808.024,
      "count": 1286,
      "cell_deg": 0.5,
      "sources": {
        "GDELT": 139,
        "GDELT_DOC": 1141,
        "DIRECT_FEED": 6,
        "USGS": 0,
        "GDACS": 0
      },
      "last7_score": 799.696,
      "prev7_score": 8.328,
      "trend": "up",
      "trend_arrow": "🔺",
      "change_pct": 9502.6,
      "place": "SO ORP Kralupy nad Vltavou, Czechia"
    },
    {
      "lon": 26.25,
      "lat": 44.25,
      "type": "hotspot_cell",
      "score": 739.912,
      "count": 1295,
      "cell_deg": 0.5,
      "sources": {
        "GDELT": 202,
        "GDELT_DOC": 1090,
        "DIRECT_FEED": 3,
        "USGS": 0,
        "GDACS": 0
      },
      "last7_score": 731.443,
      "prev7_score": 8.468,
      "trend": "up",
      "trend_arrow": "🔺",
      "change_pct": 8537.6,
      "place": "Giurgiu, Romania"
    },
    {
      "lon": 25.25,
      "lat": 54.75,
      "type": "hotspot_cell",
      "score": 484.394,
      "count": 898,
      "cell_deg": 0.5,
      "sources": {
        "GDELT": 71,
        "GDELT_DOC": 827,
        "DIRECT_FEED": 0,
        "USGS": 0,
        "GDACS": 0
      },
      "last7_score": 480.53,
      "prev7_score": 3.864,
      "trend": "up",
      "trend_arrow": "🔺",
      "change_pct": 12334.8,
      "place": "Vilnius County, Lithuania"
    },
    {
      "lon": 19.25,
      "lat": 47.75,
      "type": "hotspot_cell",
      "score": 284.741,
      "count": 632,
      "cell_deg": 0.5,
      "sources": {
        "GDELT": 442,
        "GDELT_DOC": 0,
        "DIRECT_FEED": 190,
        "USGS": 0,
        "GDACS": 0
      },
      "last7_score": 254.943,
      "prev7_score": 29.799,
      "trend": "up",
      "trend_arrow": "🔺",
      "change_pct": 755.6,
      "place": "Pest, Hungary"
    },
    {
      "lon": 20.25,
      "lat": 47.25,
      "type": "hotspot_cell",
      "score": 149.312,
      "count": 391,
      "cell_deg": 0.5,
      "sources": {
        "GDELT": 391,
        "GDELT_DOC": 0,
        "DIRECT_FEED": 0,
        "USGS": 0,
        "GDACS": 0
      },
      "last7_score": 125.89,
      "prev7_score": 23.422,
      "trend": "up",
      "trend_arrow": "🔺",
      "change_pct": 437.5,
      "place": "Jász-Nagykun-Szolnok, Hungary"
    },
    {
      "lon": 20.25,
      "lat": 52.25,
      "type": "hotspot_cell",
      "score": 144.061,
      "count": 439,
      "cell_deg": 0.5,
      "sources": {
        "GDELT": 439,
        "GDELT_DOC": 0,
        "DIRECT_FEED": 0,
        "USGS": 0,
        "GDACS": 0
      },
      "last7_score": 116.765,
      "prev7_score": 27.296,
      "trend": "up",
      "trend_arrow": "🔺",
      "change_pct": 327.8,
      "place": "Sochaczew County, Poland"
    },
    {
      "lon": 25.25,
      "lat": 46.25,
      "type": "hotspot_cell",
      "score": 115.553,
      "count": 321,
      "cell_deg": 0.5,
      "sources": {
        "GDELT": 321,
        "GDELT_DOC": 0,
        "DIRECT_FEED": 0,
        "USGS": 0,
        "GDACS": 0
      },
      "last7_score": 99.373,
      "prev7_score": 16.179,
      "trend": "up",
      "trend_arrow": "🔺",
      "change_pct": 514.2,
      "place": "Harghita, Romania"
    },
    {
      "lon": 24.25,
      "lat": 56.75,
      "type": "hotspot_cell",
      "score": 109.655,
      "count": 185,
      "cell_deg": 0.5,
      "sources": {
        "GDELT": 32,
        "GDELT_DOC": 0,
        "DIRECT_FEED": 153,
        "USGS": 0,
        "GDACS": 0
      },
      "last7_score": 108.246,
      "prev7_score": 1.409,
      "trend": "up",
      "trend_arrow": "🔺",
      "change_pct": 7583.3,
      "place": "Ķekavas novads, Latvia"
    },
    {
      "lon": 21.25,
      "lat": 52.25,
      "type": "hotspot_cell",
      "score": 70.44,
      "count": 222,
      "cell_deg": 0.5,
      "sources": {
        "GDELT": 222,
        "GDELT_DOC": 0,
        "DIRECT_FEED": 0,
        "USGS": 0,
        "GDACS": 0
      },
      "last7_score": 57.698,
      "prev7_score": 12.742,
      "trend": "up",
      "trend_arrow": "🔺",
      "change_pct": 352.8,
      "place": "Warsaw, Poland"
    },
    {
      "lon": 27.75,
      "lat": 47.25,
      "type": "hotspot_cell",
      "score": 65.523,
      "count": 99,
      "cell_deg": 0.5,
      "sources": {
        "GDELT": 0,
        "GDELT_DOC": 99,
        "DIRECT_FEED": 0,
        "USGS": 0,
        "GDACS": 0
      },
      "last7_score": 65.523,
      "prev7_score": 0.0,
      "trend": "new",
      "trend_arrow": "🆕",
      "change_pct": null,
      "place": "Iași, Romania"
    }
  ]
}