{
  "generated_utc": "2026-07-14T01:49:12Z",
  "top": [
    {
      "lon": 14.25,
      "lat": 50.25,
      "type": "hotspot_cell",
      "score": 726.712,
      "count": 1356,
      "cell_deg": 0.5,
      "sources": {
        "GDELT": 87,
        "GDELT_DOC": 1262,
        "DIRECT_FEED": 7,
        "USGS": 0,
        "GDACS": 0
      },
      "last7_score": 719.199,
      "prev7_score": 7.512,
      "trend": "up",
      "trend_arrow": "🔺",
      "change_pct": 9473.7,
      "place": "SO ORP Kralupy nad Vltavou, Czechia"
    },
    {
      "lon": 26.25,
      "lat": 44.25,
      "type": "hotspot_cell",
      "score": 500.25,
      "count": 821,
      "cell_deg": 0.5,
      "sources": {
        "GDELT": 105,
        "GDELT_DOC": 712,
        "DIRECT_FEED": 4,
        "USGS": 0,
        "GDACS": 0
      },
      "last7_score": 492.628,
      "prev7_score": 7.622,
      "trend": "up",
      "trend_arrow": "🔺",
      "change_pct": 6363.2,
      "place": "Giurgiu, Romania"
    },
    {
      "lon": 25.25,
      "lat": 54.75,
      "type": "hotspot_cell",
      "score": 418.098,
      "count": 819,
      "cell_deg": 0.5,
      "sources": {
        "GDELT": 70,
        "GDELT_DOC": 748,
        "DIRECT_FEED": 1,
        "USGS": 0,
        "GDACS": 0
      },
      "last7_score": 411.72,
      "prev7_score": 6.379,
      "trend": "up",
      "trend_arrow": "🔺",
      "change_pct": 6354.8,
      "place": "Vilnius County, Lithuania"
    },
    {
      "lon": 19.25,
      "lat": 47.75,
      "type": "hotspot_cell",
      "score": 175.192,
      "count": 321,
      "cell_deg": 0.5,
      "sources": {
        "GDELT": 148,
        "GDELT_DOC": 0,
        "DIRECT_FEED": 173,
        "USGS": 0,
        "GDACS": 0
      },
      "last7_score": 165.852,
      "prev7_score": 9.341,
      "trend": "up",
      "trend_arrow": "🔺",
      "change_pct": 1675.6,
      "place": "Pest, Hungary"
    },
    {
      "lon": 20.25,
      "lat": 52.25,
      "type": "hotspot_cell",
      "score": 166.867,
      "count": 475,
      "cell_deg": 0.5,
      "sources": {
        "GDELT": 475,
        "GDELT_DOC": 0,
        "DIRECT_FEED": 0,
        "USGS": 0,
        "GDACS": 0
      },
      "last7_score": 124.412,
      "prev7_score": 42.456,
      "trend": "up",
      "trend_arrow": "🔺",
      "change_pct": 193.0,
      "place": "Sochaczew County, Poland"
    },
    {
      "lon": 25.25,
      "lat": 46.25,
      "type": "hotspot_cell",
      "score": 124.779,
      "count": 340,
      "cell_deg": 0.5,
      "sources": {
        "GDELT": 340,
        "GDELT_DOC": 0,
        "DIRECT_FEED": 0,
        "USGS": 0,
        "GDACS": 0
      },
      "last7_score": 96.798,
      "prev7_score": 27.981,
      "trend": "up",
      "trend_arrow": "🔺",
      "change_pct": 245.9,
      "place": "Harghita, Romania"
    },
    {
      "lon": 24.25,
      "lat": 56.75,
      "type": "hotspot_cell",
      "score": 105.028,
      "count": 159,
      "cell_deg": 0.5,
      "sources": {
        "GDELT": 18,
        "GDELT_DOC": 0,
        "DIRECT_FEED": 141,
        "USGS": 0,
        "GDACS": 0
      },
      "last7_score": 102.98,
      "prev7_score": 2.048,
      "trend": "up",
      "trend_arrow": "🔺",
      "change_pct": 4929.4,
      "place": "Ķekavas novads, Latvia"
    },
    {
      "lon": 21.25,
      "lat": 52.25,
      "type": "hotspot_cell",
      "score": 78.217,
      "count": 234,
      "cell_deg": 0.5,
      "sources": {
        "GDELT": 234,
        "GDELT_DOC": 0,
        "DIRECT_FEED": 0,
        "USGS": 0,
        "GDACS": 0
      },
      "last7_score": 58.135,
      "prev7_score": 20.082,
      "trend": "up",
      "trend_arrow": "🔺",
      "change_pct": 189.5,
      "place": "Warsaw, Poland"
    },
    {
      "lon": 20.25,
      "lat": 47.25,
      "type": "hotspot_cell",
      "score": 67.998,
      "count": 173,
      "cell_deg": 0.5,
      "sources": {
        "GDELT": 173,
        "GDELT_DOC": 0,
        "DIRECT_FEED": 0,
        "USGS": 0,
        "GDACS": 0
      },
      "last7_score": 53.758,
      "prev7_score": 14.24,
      "trend": "up",
      "trend_arrow": "🔺",
      "change_pct": 277.5,
      "place": "Jász-Nagykun-Szolnok, Hungary"
    },
    {
      "lon": 26.25,
      "lat": 59.25,
      "type": "hotspot_cell",
      "score": 63.618,
      "count": 163,
      "cell_deg": 0.5,
      "sources": {
        "GDELT": 163,
        "GDELT_DOC": 0,
        "DIRECT_FEED": 0,
        "USGS": 0,
        "GDACS": 0
      },
      "last7_score": 51.415,
      "prev7_score": 12.203,
      "trend": "up",
      "trend_arrow": "🔺",
      "change_pct": 321.3,
      "place": "Lääne-Viru County, Estonia"
    }
  ]
}