{
  "generated_utc": "2026-07-13T02:00:40Z",
  "top": [
    {
      "lon": 14.25,
      "lat": 50.25,
      "type": "hotspot_cell",
      "score": 724.714,
      "count": 1340,
      "cell_deg": 0.5,
      "sources": {
        "GDELT": 97,
        "GDELT_DOC": 1237,
        "DIRECT_FEED": 6,
        "USGS": 0,
        "GDACS": 0
      },
      "last7_score": 716.614,
      "prev7_score": 8.1,
      "trend": "up",
      "trend_arrow": "🔺",
      "change_pct": 8746.8,
      "place": "SO ORP Kralupy nad Vltavou, Czechia"
    },
    {
      "lon": 25.25,
      "lat": 54.75,
      "type": "hotspot_cell",
      "score": 530.826,
      "count": 887,
      "cell_deg": 0.5,
      "sources": {
        "GDELT": 71,
        "GDELT_DOC": 814,
        "DIRECT_FEED": 2,
        "USGS": 0,
        "GDACS": 0
      },
      "last7_score": 526.111,
      "prev7_score": 4.716,
      "trend": "up",
      "trend_arrow": "🔺",
      "change_pct": 11056.9,
      "place": "Vilnius County, Lithuania"
    },
    {
      "lon": 26.25,
      "lat": 44.25,
      "type": "hotspot_cell",
      "score": 464.103,
      "count": 868,
      "cell_deg": 0.5,
      "sources": {
        "GDELT": 112,
        "GDELT_DOC": 752,
        "DIRECT_FEED": 4,
        "USGS": 0,
        "GDACS": 0
      },
      "last7_score": 456.776,
      "prev7_score": 7.326,
      "trend": "up",
      "trend_arrow": "🔺",
      "change_pct": 6134.7,
      "place": "Giurgiu, Romania"
    },
    {
      "lon": 19.25,
      "lat": 47.75,
      "type": "hotspot_cell",
      "score": 143.628,
      "count": 297,
      "cell_deg": 0.5,
      "sources": {
        "GDELT": 139,
        "GDELT_DOC": 0,
        "DIRECT_FEED": 158,
        "USGS": 0,
        "GDACS": 0
      },
      "last7_score": 135.609,
      "prev7_score": 8.019,
      "trend": "up",
      "trend_arrow": "🔺",
      "change_pct": 1591.2,
      "place": "Pest, Hungary"
    },
    {
      "lon": 20.25,
      "lat": 52.25,
      "type": "hotspot_cell",
      "score": 135.921,
      "count": 470,
      "cell_deg": 0.5,
      "sources": {
        "GDELT": 470,
        "GDELT_DOC": 0,
        "DIRECT_FEED": 0,
        "USGS": 0,
        "GDACS": 0
      },
      "last7_score": 99.192,
      "prev7_score": 36.729,
      "trend": "up",
      "trend_arrow": "🔺",
      "change_pct": 170.1,
      "place": "Sochaczew County, Poland"
    },
    {
      "lon": 25.25,
      "lat": 46.25,
      "type": "hotspot_cell",
      "score": 113.296,
      "count": 330,
      "cell_deg": 0.5,
      "sources": {
        "GDELT": 330,
        "GDELT_DOC": 0,
        "DIRECT_FEED": 0,
        "USGS": 0,
        "GDACS": 0
      },
      "last7_score": 88.277,
      "prev7_score": 25.019,
      "trend": "up",
      "trend_arrow": "🔺",
      "change_pct": 252.8,
      "place": "Harghita, Romania"
    },
    {
      "lon": 24.25,
      "lat": 56.75,
      "type": "hotspot_cell",
      "score": 82.71,
      "count": 141,
      "cell_deg": 0.5,
      "sources": {
        "GDELT": 19,
        "GDELT_DOC": 0,
        "DIRECT_FEED": 122,
        "USGS": 0,
        "GDACS": 0
      },
      "last7_score": 80.657,
      "prev7_score": 2.053,
      "trend": "up",
      "trend_arrow": "🔺",
      "change_pct": 3828.2,
      "place": "Ķekavas novads, Latvia"
    },
    {
      "lon": 21.25,
      "lat": 52.25,
      "type": "hotspot_cell",
      "score": 69.366,
      "count": 229,
      "cell_deg": 0.5,
      "sources": {
        "GDELT": 229,
        "GDELT_DOC": 0,
        "DIRECT_FEED": 0,
        "USGS": 0,
        "GDACS": 0
      },
      "last7_score": 50.154,
      "prev7_score": 19.213,
      "trend": "up",
      "trend_arrow": "🔺",
      "change_pct": 161.0,
      "place": "Warsaw, Poland"
    },
    {
      "lon": 26.25,
      "lat": 59.25,
      "type": "hotspot_cell",
      "score": 59.947,
      "count": 160,
      "cell_deg": 0.5,
      "sources": {
        "GDELT": 160,
        "GDELT_DOC": 0,
        "DIRECT_FEED": 0,
        "USGS": 0,
        "GDACS": 0
      },
      "last7_score": 48.235,
      "prev7_score": 11.712,
      "trend": "up",
      "trend_arrow": "🔺",
      "change_pct": 311.9,
      "place": "Lääne-Viru County, Estonia"
    },
    {
      "lon": 20.25,
      "lat": 47.25,
      "type": "hotspot_cell",
      "score": 58.078,
      "count": 166,
      "cell_deg": 0.5,
      "sources": {
        "GDELT": 166,
        "GDELT_DOC": 0,
        "DIRECT_FEED": 0,
        "USGS": 0,
        "GDACS": 0
      },
      "last7_score": 46.285,
      "prev7_score": 11.793,
      "trend": "up",
      "trend_arrow": "🔺",
      "change_pct": 292.5,
      "place": "Jász-Nagykun-Szolnok, Hungary"
    }
  ]
}