{
  "generated_utc": "2026-05-23T08:51:35Z",
  "top": [
    {
      "lon": 26.25,
      "lat": 44.25,
      "type": "hotspot_cell",
      "score": 921.902,
      "count": 1572,
      "cell_deg": 0.5,
      "sources": {
        "GDELT": 191,
        "GDELT_DOC": 1379,
        "DIRECT_FEED": 2,
        "USGS": 0,
        "GDACS": 0
      },
      "last7_score": 903.991,
      "prev7_score": 17.911,
      "trend": "up",
      "trend_arrow": "🔺",
      "change_pct": 4947.3,
      "place": "Giurgiu, Romania"
    },
    {
      "lon": 14.25,
      "lat": 50.25,
      "type": "hotspot_cell",
      "score": 910.471,
      "count": 1416,
      "cell_deg": 0.5,
      "sources": {
        "GDELT": 132,
        "GDELT_DOC": 1270,
        "DIRECT_FEED": 14,
        "USGS": 0,
        "GDACS": 0
      },
      "last7_score": 901.787,
      "prev7_score": 8.684,
      "trend": "up",
      "trend_arrow": "🔺",
      "change_pct": 10284.6,
      "place": "SO ORP Kralupy nad Vltavou, Czechia"
    },
    {
      "lon": 25.25,
      "lat": 54.75,
      "type": "hotspot_cell",
      "score": 693.646,
      "count": 1063,
      "cell_deg": 0.5,
      "sources": {
        "GDELT": 101,
        "GDELT_DOC": 961,
        "DIRECT_FEED": 1,
        "USGS": 0,
        "GDACS": 0
      },
      "last7_score": 688.623,
      "prev7_score": 5.022,
      "trend": "up",
      "trend_arrow": "🔺",
      "change_pct": 13611.9,
      "place": "Vilnius County, Lithuania"
    },
    {
      "lon": 20.25,
      "lat": 52.25,
      "type": "hotspot_cell",
      "score": 403.944,
      "count": 782,
      "cell_deg": 0.5,
      "sources": {
        "GDELT": 782,
        "GDELT_DOC": 0,
        "DIRECT_FEED": 0,
        "USGS": 0,
        "GDACS": 0
      },
      "last7_score": 354.378,
      "prev7_score": 49.566,
      "trend": "up",
      "trend_arrow": "🔺",
      "change_pct": 615.0,
      "place": "Sochaczew County, Poland"
    },
    {
      "lon": 19.25,
      "lat": 47.75,
      "type": "hotspot_cell",
      "score": 253.738,
      "count": 497,
      "cell_deg": 0.5,
      "sources": {
        "GDELT": 257,
        "GDELT_DOC": 0,
        "DIRECT_FEED": 240,
        "USGS": 0,
        "GDACS": 0
      },
      "last7_score": 234.735,
      "prev7_score": 19.003,
      "trend": "up",
      "trend_arrow": "🔺",
      "change_pct": 1135.3,
      "place": "Pest, Hungary"
    },
    {
      "lon": 21.25,
      "lat": 52.25,
      "type": "hotspot_cell",
      "score": 127.147,
      "count": 267,
      "cell_deg": 0.5,
      "sources": {
        "GDELT": 267,
        "GDELT_DOC": 0,
        "DIRECT_FEED": 0,
        "USGS": 0,
        "GDACS": 0
      },
      "last7_score": 108.866,
      "prev7_score": 18.28,
      "trend": "up",
      "trend_arrow": "🔺",
      "change_pct": 495.5,
      "place": "Warsaw, Poland"
    },
    {
      "lon": 25.25,
      "lat": 46.25,
      "type": "hotspot_cell",
      "score": 124.191,
      "count": 310,
      "cell_deg": 0.5,
      "sources": {
        "GDELT": 310,
        "GDELT_DOC": 0,
        "DIRECT_FEED": 0,
        "USGS": 0,
        "GDACS": 0
      },
      "last7_score": 103.897,
      "prev7_score": 20.294,
      "trend": "up",
      "trend_arrow": "🔺",
      "change_pct": 412.0,
      "place": "Harghita, Romania"
    },
    {
      "lon": 24.25,
      "lat": 56.75,
      "type": "hotspot_cell",
      "score": 118.11,
      "count": 177,
      "cell_deg": 0.5,
      "sources": {
        "GDELT": 51,
        "GDELT_DOC": 0,
        "DIRECT_FEED": 126,
        "USGS": 0,
        "GDACS": 0
      },
      "last7_score": 114.444,
      "prev7_score": 3.666,
      "trend": "up",
      "trend_arrow": "🔺",
      "change_pct": 3021.8,
      "place": "Ķekavas novads, Latvia"
    },
    {
      "lon": 20.25,
      "lat": 47.25,
      "type": "hotspot_cell",
      "score": 102.698,
      "count": 284,
      "cell_deg": 0.5,
      "sources": {
        "GDELT": 284,
        "GDELT_DOC": 0,
        "DIRECT_FEED": 0,
        "USGS": 0,
        "GDACS": 0
      },
      "last7_score": 82.2,
      "prev7_score": 20.499,
      "trend": "up",
      "trend_arrow": "🔺",
      "change_pct": 301.0,
      "place": "Jász-Nagykun-Szolnok, Hungary"
    },
    {
      "lon": 24.25,
      "lat": 56.25,
      "type": "hotspot_cell",
      "score": 77.565,
      "count": 176,
      "cell_deg": 0.5,
      "sources": {
        "GDELT": 176,
        "GDELT_DOC": 0,
        "DIRECT_FEED": 0,
        "USGS": 0,
        "GDACS": 0
      },
      "last7_score": 67.87,
      "prev7_score": 9.696,
      "trend": "up",
      "trend_arrow": "🔺",
      "change_pct": 600.0,
      "place": "Namišių seniūnija, Lithuania"
    }
  ]
}