{
  "generated_utc": "2026-05-17T19:18:21Z",
  "top": [
    {
      "lon": 14.25,
      "lat": 50.25,
      "type": "hotspot_cell",
      "score": 917.99,
      "count": 1588,
      "cell_deg": 0.5,
      "sources": {
        "GDELT": 122,
        "GDELT_DOC": 1462,
        "DIRECT_FEED": 4,
        "USGS": 0,
        "GDACS": 0
      },
      "last7_score": 911.753,
      "prev7_score": 6.237,
      "trend": "up",
      "trend_arrow": "🔺",
      "change_pct": 14517.6,
      "place": "SO ORP Kralupy nad Vltavou, Czechia"
    },
    {
      "lon": 26.25,
      "lat": 44.25,
      "type": "hotspot_cell",
      "score": 857.948,
      "count": 1446,
      "cell_deg": 0.5,
      "sources": {
        "GDELT": 230,
        "GDELT_DOC": 1211,
        "DIRECT_FEED": 5,
        "USGS": 0,
        "GDACS": 0
      },
      "last7_score": 849.194,
      "prev7_score": 8.754,
      "trend": "up",
      "trend_arrow": "🔺",
      "change_pct": 9601.1,
      "place": "Giurgiu, Romania"
    },
    {
      "lon": 25.25,
      "lat": 54.75,
      "type": "hotspot_cell",
      "score": 581.443,
      "count": 991,
      "cell_deg": 0.5,
      "sources": {
        "GDELT": 73,
        "GDELT_DOC": 918,
        "DIRECT_FEED": 0,
        "USGS": 0,
        "GDACS": 0
      },
      "last7_score": 577.054,
      "prev7_score": 4.389,
      "trend": "up",
      "trend_arrow": "🔺",
      "change_pct": 13048.4,
      "place": "Vilnius County, Lithuania"
    },
    {
      "lon": 19.25,
      "lat": 47.75,
      "type": "hotspot_cell",
      "score": 231.18,
      "count": 524,
      "cell_deg": 0.5,
      "sources": {
        "GDELT": 301,
        "GDELT_DOC": 0,
        "DIRECT_FEED": 223,
        "USGS": 0,
        "GDACS": 0
      },
      "last7_score": 210.029,
      "prev7_score": 21.151,
      "trend": "up",
      "trend_arrow": "🔺",
      "change_pct": 893.0,
      "place": "Pest, Hungary"
    },
    {
      "lon": 20.25,
      "lat": 52.25,
      "type": "hotspot_cell",
      "score": 228.169,
      "count": 611,
      "cell_deg": 0.5,
      "sources": {
        "GDELT": 611,
        "GDELT_DOC": 0,
        "DIRECT_FEED": 0,
        "USGS": 0,
        "GDACS": 0
      },
      "last7_score": 195.781,
      "prev7_score": 32.388,
      "trend": "up",
      "trend_arrow": "🔺",
      "change_pct": 504.5,
      "place": "Sochaczew County, Poland"
    },
    {
      "lon": 24.25,
      "lat": 56.75,
      "type": "hotspot_cell",
      "score": 114.974,
      "count": 198,
      "cell_deg": 0.5,
      "sources": {
        "GDELT": 45,
        "GDELT_DOC": 0,
        "DIRECT_FEED": 153,
        "USGS": 0,
        "GDACS": 0
      },
      "last7_score": 112.876,
      "prev7_score": 2.098,
      "trend": "up",
      "trend_arrow": "🔺",
      "change_pct": 5279.7,
      "place": "Ķekavas novads, Latvia"
    },
    {
      "lon": 20.25,
      "lat": 47.25,
      "type": "hotspot_cell",
      "score": 92.62,
      "count": 293,
      "cell_deg": 0.5,
      "sources": {
        "GDELT": 293,
        "GDELT_DOC": 0,
        "DIRECT_FEED": 0,
        "USGS": 0,
        "GDACS": 0
      },
      "last7_score": 76.091,
      "prev7_score": 16.53,
      "trend": "up",
      "trend_arrow": "🔺",
      "change_pct": 360.3,
      "place": "Jász-Nagykun-Szolnok, Hungary"
    },
    {
      "lon": 25.25,
      "lat": 46.25,
      "type": "hotspot_cell",
      "score": 92.245,
      "count": 301,
      "cell_deg": 0.5,
      "sources": {
        "GDELT": 301,
        "GDELT_DOC": 0,
        "DIRECT_FEED": 0,
        "USGS": 0,
        "GDACS": 0
      },
      "last7_score": 77.974,
      "prev7_score": 14.271,
      "trend": "up",
      "trend_arrow": "🔺",
      "change_pct": 446.4,
      "place": "Harghita, Romania"
    },
    {
      "lon": 21.25,
      "lat": 52.25,
      "type": "hotspot_cell",
      "score": 83.611,
      "count": 220,
      "cell_deg": 0.5,
      "sources": {
        "GDELT": 220,
        "GDELT_DOC": 0,
        "DIRECT_FEED": 0,
        "USGS": 0,
        "GDACS": 0
      },
      "last7_score": 71.555,
      "prev7_score": 12.055,
      "trend": "up",
      "trend_arrow": "🔺",
      "change_pct": 493.6,
      "place": "Warsaw, Poland"
    },
    {
      "lon": 25.25,
      "lat": 57.25,
      "type": "hotspot_cell",
      "score": 81.124,
      "count": 171,
      "cell_deg": 0.5,
      "sources": {
        "GDELT": 171,
        "GDELT_DOC": 0,
        "DIRECT_FEED": 0,
        "USGS": 0,
        "GDACS": 0
      },
      "last7_score": 75.302,
      "prev7_score": 5.822,
      "trend": "up",
      "trend_arrow": "🔺",
      "change_pct": 1193.4,
      "place": "Cēsu novads, Latvia"
    }
  ]
}