{
  "generated_utc": "2026-07-03T13:52:11Z",
  "top": [
    {
      "lon": 26.25,
      "lat": 44.25,
      "type": "hotspot_cell",
      "score": 265.322,
      "count": 632,
      "cell_deg": 0.5,
      "sources": {
        "GDELT": 146,
        "GDELT_DOC": 482,
        "DIRECT_FEED": 4,
        "USGS": 0,
        "GDACS": 0
      },
      "last7_score": 254.614,
      "prev7_score": 10.709,
      "trend": "up",
      "trend_arrow": "🔺",
      "change_pct": 2277.6,
      "place": "Giurgiu, Romania"
    },
    {
      "lon": 14.25,
      "lat": 50.25,
      "type": "hotspot_cell",
      "score": 232.176,
      "count": 558,
      "cell_deg": 0.5,
      "sources": {
        "GDELT": 129,
        "GDELT_DOC": 428,
        "DIRECT_FEED": 1,
        "USGS": 0,
        "GDACS": 0
      },
      "last7_score": 223.339,
      "prev7_score": 8.837,
      "trend": "up",
      "trend_arrow": "🔺",
      "change_pct": 2427.4,
      "place": "SO ORP Kralupy nad Vltavou, Czechia"
    },
    {
      "lon": 20.25,
      "lat": 52.25,
      "type": "hotspot_cell",
      "score": 224.481,
      "count": 552,
      "cell_deg": 0.5,
      "sources": {
        "GDELT": 552,
        "GDELT_DOC": 0,
        "DIRECT_FEED": 0,
        "USGS": 0,
        "GDACS": 0
      },
      "last7_score": 184.38,
      "prev7_score": 40.101,
      "trend": "up",
      "trend_arrow": "🔺",
      "change_pct": 359.8,
      "place": "Sochaczew County, Poland"
    },
    {
      "lon": 25.25,
      "lat": 54.75,
      "type": "hotspot_cell",
      "score": 218.32,
      "count": 485,
      "cell_deg": 0.5,
      "sources": {
        "GDELT": 68,
        "GDELT_DOC": 417,
        "DIRECT_FEED": 0,
        "USGS": 0,
        "GDACS": 0
      },
      "last7_score": 214.43,
      "prev7_score": 3.89,
      "trend": "up",
      "trend_arrow": "🔺",
      "change_pct": 5412.6,
      "place": "Vilnius County, Lithuania"
    },
    {
      "lon": 19.25,
      "lat": 47.75,
      "type": "hotspot_cell",
      "score": 205.041,
      "count": 367,
      "cell_deg": 0.5,
      "sources": {
        "GDELT": 185,
        "GDELT_DOC": 0,
        "DIRECT_FEED": 182,
        "USGS": 0,
        "GDACS": 0
      },
      "last7_score": 190.663,
      "prev7_score": 14.378,
      "trend": "up",
      "trend_arrow": "🔺",
      "change_pct": 1226.1,
      "place": "Pest, Hungary"
    },
    {
      "lon": 25.25,
      "lat": 46.25,
      "type": "hotspot_cell",
      "score": 141.304,
      "count": 346,
      "cell_deg": 0.5,
      "sources": {
        "GDELT": 346,
        "GDELT_DOC": 0,
        "DIRECT_FEED": 0,
        "USGS": 0,
        "GDACS": 0
      },
      "last7_score": 114.5,
      "prev7_score": 26.804,
      "trend": "up",
      "trend_arrow": "🔺",
      "change_pct": 327.2,
      "place": "Harghita, Romania"
    },
    {
      "lon": 24.25,
      "lat": 56.75,
      "type": "hotspot_cell",
      "score": 114.182,
      "count": 170,
      "cell_deg": 0.5,
      "sources": {
        "GDELT": 26,
        "GDELT_DOC": 0,
        "DIRECT_FEED": 144,
        "USGS": 0,
        "GDACS": 0
      },
      "last7_score": 112.11,
      "prev7_score": 2.072,
      "trend": "up",
      "trend_arrow": "🔺",
      "change_pct": 5310.8,
      "place": "Ķekavas novads, Latvia"
    },
    {
      "lon": 21.25,
      "lat": 52.25,
      "type": "hotspot_cell",
      "score": 102.056,
      "count": 330,
      "cell_deg": 0.5,
      "sources": {
        "GDELT": 330,
        "GDELT_DOC": 0,
        "DIRECT_FEED": 0,
        "USGS": 0,
        "GDACS": 0
      },
      "last7_score": 75.609,
      "prev7_score": 26.447,
      "trend": "up",
      "trend_arrow": "🔺",
      "change_pct": 185.9,
      "place": "Warsaw, Poland"
    },
    {
      "lon": 15.25,
      "lat": 49.75,
      "type": "hotspot_cell",
      "score": 65.491,
      "count": 164,
      "cell_deg": 0.5,
      "sources": {
        "GDELT": 164,
        "GDELT_DOC": 0,
        "DIRECT_FEED": 0,
        "USGS": 0,
        "GDACS": 0
      },
      "last7_score": 53.633,
      "prev7_score": 11.858,
      "trend": "up",
      "trend_arrow": "🔺",
      "change_pct": 352.3,
      "place": "Vysočina Region, Czechia"
    },
    {
      "lon": 20.25,
      "lat": 47.25,
      "type": "hotspot_cell",
      "score": 64.169,
      "count": 182,
      "cell_deg": 0.5,
      "sources": {
        "GDELT": 182,
        "GDELT_DOC": 0,
        "DIRECT_FEED": 0,
        "USGS": 0,
        "GDACS": 0
      },
      "last7_score": 48.301,
      "prev7_score": 15.867,
      "trend": "up",
      "trend_arrow": "🔺",
      "change_pct": 204.4,
      "place": "Jász-Nagykun-Szolnok, Hungary"
    }
  ]
}