{
  "generated_utc": "2026-05-28T15:38:39Z",
  "top": [
    {
      "lon": 14.25,
      "lat": 50.25,
      "type": "hotspot_cell",
      "score": 1009.254,
      "count": 1645,
      "cell_deg": 0.5,
      "sources": {
        "GDELT": 149,
        "GDELT_DOC": 1477,
        "DIRECT_FEED": 19,
        "USGS": 0,
        "GDACS": 0
      },
      "last7_score": 999.475,
      "prev7_score": 9.779,
      "trend": "up",
      "trend_arrow": "🔺",
      "change_pct": 10120.7,
      "place": "SO ORP Kralupy nad Vltavou, Czechia"
    },
    {
      "lon": 25.25,
      "lat": 54.75,
      "type": "hotspot_cell",
      "score": 783.31,
      "count": 1191,
      "cell_deg": 0.5,
      "sources": {
        "GDELT": 105,
        "GDELT_DOC": 1084,
        "DIRECT_FEED": 2,
        "USGS": 0,
        "GDACS": 0
      },
      "last7_score": 771.491,
      "prev7_score": 11.819,
      "trend": "up",
      "trend_arrow": "🔺",
      "change_pct": 6427.4,
      "place": "Vilnius County, Lithuania"
    },
    {
      "lon": 26.25,
      "lat": 44.25,
      "type": "hotspot_cell",
      "score": 734.344,
      "count": 1220,
      "cell_deg": 0.5,
      "sources": {
        "GDELT": 121,
        "GDELT_DOC": 1098,
        "DIRECT_FEED": 1,
        "USGS": 0,
        "GDACS": 0
      },
      "last7_score": 725.867,
      "prev7_score": 8.477,
      "trend": "up",
      "trend_arrow": "🔺",
      "change_pct": 8462.6,
      "place": "Giurgiu, Romania"
    },
    {
      "lon": 20.25,
      "lat": 52.25,
      "type": "hotspot_cell",
      "score": 293.449,
      "count": 822,
      "cell_deg": 0.5,
      "sources": {
        "GDELT": 822,
        "GDELT_DOC": 0,
        "DIRECT_FEED": 0,
        "USGS": 0,
        "GDACS": 0
      },
      "last7_score": 236.264,
      "prev7_score": 57.185,
      "trend": "up",
      "trend_arrow": "🔺",
      "change_pct": 313.2,
      "place": "Sochaczew County, Poland"
    },
    {
      "lon": 19.25,
      "lat": 47.75,
      "type": "hotspot_cell",
      "score": 224.021,
      "count": 405,
      "cell_deg": 0.5,
      "sources": {
        "GDELT": 194,
        "GDELT_DOC": 0,
        "DIRECT_FEED": 211,
        "USGS": 0,
        "GDACS": 0
      },
      "last7_score": 208.655,
      "prev7_score": 15.366,
      "trend": "up",
      "trend_arrow": "🔺",
      "change_pct": 1257.9,
      "place": "Pest, Hungary"
    },
    {
      "lon": 25.25,
      "lat": 46.25,
      "type": "hotspot_cell",
      "score": 123.396,
      "count": 324,
      "cell_deg": 0.5,
      "sources": {
        "GDELT": 324,
        "GDELT_DOC": 0,
        "DIRECT_FEED": 0,
        "USGS": 0,
        "GDACS": 0
      },
      "last7_score": 99.455,
      "prev7_score": 23.941,
      "trend": "up",
      "trend_arrow": "🔺",
      "change_pct": 315.4,
      "place": "Harghita, Romania"
    },
    {
      "lon": 24.25,
      "lat": 56.75,
      "type": "hotspot_cell",
      "score": 117.252,
      "count": 176,
      "cell_deg": 0.5,
      "sources": {
        "GDELT": 54,
        "GDELT_DOC": 0,
        "DIRECT_FEED": 122,
        "USGS": 0,
        "GDACS": 0
      },
      "last7_score": 112.565,
      "prev7_score": 4.687,
      "trend": "up",
      "trend_arrow": "🔺",
      "change_pct": 2301.8,
      "place": "Ķekavas novads, Latvia"
    },
    {
      "lon": 20.25,
      "lat": 47.25,
      "type": "hotspot_cell",
      "score": 99.973,
      "count": 247,
      "cell_deg": 0.5,
      "sources": {
        "GDELT": 247,
        "GDELT_DOC": 0,
        "DIRECT_FEED": 0,
        "USGS": 0,
        "GDACS": 0
      },
      "last7_score": 82.713,
      "prev7_score": 17.261,
      "trend": "up",
      "trend_arrow": "🔺",
      "change_pct": 379.2,
      "place": "Jász-Nagykun-Szolnok, Hungary"
    },
    {
      "lon": 21.25,
      "lat": 52.25,
      "type": "hotspot_cell",
      "score": 85.277,
      "count": 262,
      "cell_deg": 0.5,
      "sources": {
        "GDELT": 262,
        "GDELT_DOC": 0,
        "DIRECT_FEED": 0,
        "USGS": 0,
        "GDACS": 0
      },
      "last7_score": 64.805,
      "prev7_score": 20.472,
      "trend": "up",
      "trend_arrow": "🔺",
      "change_pct": 216.6,
      "place": "Warsaw, Poland"
    },
    {
      "lon": 15.25,
      "lat": 49.75,
      "type": "hotspot_cell",
      "score": 67.223,
      "count": 162,
      "cell_deg": 0.5,
      "sources": {
        "GDELT": 162,
        "GDELT_DOC": 0,
        "DIRECT_FEED": 0,
        "USGS": 0,
        "GDACS": 0
      },
      "last7_score": 55.0,
      "prev7_score": 12.223,
      "trend": "up",
      "trend_arrow": "🔺",
      "change_pct": 350.0,
      "place": "Vysočina Region, Czechia"
    }
  ]
}