{
  "generated_utc": "2026-05-23T11:49:21Z",
  "top": [
    {
      "lon": 26.25,
      "lat": 44.25,
      "type": "hotspot_cell",
      "score": 978.551,
      "count": 1637,
      "cell_deg": 0.5,
      "sources": {
        "GDELT": 192,
        "GDELT_DOC": 1443,
        "DIRECT_FEED": 2,
        "USGS": 0,
        "GDACS": 0
      },
      "last7_score": 961.144,
      "prev7_score": 17.407,
      "trend": "up",
      "trend_arrow": "🔺",
      "change_pct": 5421.6,
      "place": "Giurgiu, Romania"
    },
    {
      "lon": 14.25,
      "lat": 50.25,
      "type": "hotspot_cell",
      "score": 940.218,
      "count": 1427,
      "cell_deg": 0.5,
      "sources": {
        "GDELT": 134,
        "GDELT_DOC": 1278,
        "DIRECT_FEED": 15,
        "USGS": 0,
        "GDACS": 0
      },
      "last7_score": 931.778,
      "prev7_score": 8.44,
      "trend": "up",
      "trend_arrow": "🔺",
      "change_pct": 10940.4,
      "place": "SO ORP Kralupy nad Vltavou, Czechia"
    },
    {
      "lon": 25.25,
      "lat": 54.75,
      "type": "hotspot_cell",
      "score": 711.392,
      "count": 1083,
      "cell_deg": 0.5,
      "sources": {
        "GDELT": 102,
        "GDELT_DOC": 980,
        "DIRECT_FEED": 1,
        "USGS": 0,
        "GDACS": 0
      },
      "last7_score": 706.511,
      "prev7_score": 4.881,
      "trend": "up",
      "trend_arrow": "🔺",
      "change_pct": 14375.1,
      "place": "Vilnius County, Lithuania"
    },
    {
      "lon": 20.25,
      "lat": 52.25,
      "type": "hotspot_cell",
      "score": 398.874,
      "count": 787,
      "cell_deg": 0.5,
      "sources": {
        "GDELT": 787,
        "GDELT_DOC": 0,
        "DIRECT_FEED": 0,
        "USGS": 0,
        "GDACS": 0
      },
      "last7_score": 350.702,
      "prev7_score": 48.172,
      "trend": "up",
      "trend_arrow": "🔺",
      "change_pct": 628.0,
      "place": "Sochaczew County, Poland"
    },
    {
      "lon": 19.25,
      "lat": 47.75,
      "type": "hotspot_cell",
      "score": 252.104,
      "count": 497,
      "cell_deg": 0.5,
      "sources": {
        "GDELT": 258,
        "GDELT_DOC": 0,
        "DIRECT_FEED": 239,
        "USGS": 0,
        "GDACS": 0
      },
      "last7_score": 233.635,
      "prev7_score": 18.469,
      "trend": "up",
      "trend_arrow": "🔺",
      "change_pct": 1165.0,
      "place": "Pest, Hungary"
    },
    {
      "lon": 21.25,
      "lat": 52.25,
      "type": "hotspot_cell",
      "score": 128.328,
      "count": 271,
      "cell_deg": 0.5,
      "sources": {
        "GDELT": 271,
        "GDELT_DOC": 0,
        "DIRECT_FEED": 0,
        "USGS": 0,
        "GDACS": 0
      },
      "last7_score": 110.562,
      "prev7_score": 17.766,
      "trend": "up",
      "trend_arrow": "🔺",
      "change_pct": 522.3,
      "place": "Warsaw, Poland"
    },
    {
      "lon": 25.25,
      "lat": 46.25,
      "type": "hotspot_cell",
      "score": 121.859,
      "count": 311,
      "cell_deg": 0.5,
      "sources": {
        "GDELT": 311,
        "GDELT_DOC": 0,
        "DIRECT_FEED": 0,
        "USGS": 0,
        "GDACS": 0
      },
      "last7_score": 102.135,
      "prev7_score": 19.723,
      "trend": "up",
      "trend_arrow": "🔺",
      "change_pct": 417.8,
      "place": "Harghita, Romania"
    },
    {
      "lon": 24.25,
      "lat": 56.75,
      "type": "hotspot_cell",
      "score": 117.016,
      "count": 177,
      "cell_deg": 0.5,
      "sources": {
        "GDELT": 51,
        "GDELT_DOC": 0,
        "DIRECT_FEED": 126,
        "USGS": 0,
        "GDACS": 0
      },
      "last7_score": 113.453,
      "prev7_score": 3.563,
      "trend": "up",
      "trend_arrow": "🔺",
      "change_pct": 3084.3,
      "place": "Ķekavas novads, Latvia"
    },
    {
      "lon": 20.25,
      "lat": 47.25,
      "type": "hotspot_cell",
      "score": 100.971,
      "count": 285,
      "cell_deg": 0.5,
      "sources": {
        "GDELT": 285,
        "GDELT_DOC": 0,
        "DIRECT_FEED": 0,
        "USGS": 0,
        "GDACS": 0
      },
      "last7_score": 81.048,
      "prev7_score": 19.922,
      "trend": "up",
      "trend_arrow": "🔺",
      "change_pct": 306.8,
      "place": "Jász-Nagykun-Szolnok, Hungary"
    },
    {
      "lon": 26.25,
      "lat": 59.25,
      "type": "hotspot_cell",
      "score": 78.386,
      "count": 158,
      "cell_deg": 0.5,
      "sources": {
        "GDELT": 158,
        "GDELT_DOC": 0,
        "DIRECT_FEED": 0,
        "USGS": 0,
        "GDACS": 0
      },
      "last7_score": 70.255,
      "prev7_score": 8.131,
      "trend": "up",
      "trend_arrow": "🔺",
      "change_pct": 764.0,
      "place": "Lääne-Viru County, Estonia"
    }
  ]
}