{
  "generated_utc": "2026-06-27T13:18:22Z",
  "top": [
    {
      "lon": 14.25,
      "lat": 50.25,
      "type": "hotspot_cell",
      "score": 693.128,
      "count": 1154,
      "cell_deg": 0.5,
      "sources": {
        "GDELT": 126,
        "GDELT_DOC": 1017,
        "DIRECT_FEED": 11,
        "USGS": 0,
        "GDACS": 0
      },
      "last7_score": 686.279,
      "prev7_score": 6.849,
      "trend": "up",
      "trend_arrow": "🔺",
      "change_pct": 9920.2,
      "place": "SO ORP Kralupy nad Vltavou, Czechia"
    },
    {
      "lon": 26.25,
      "lat": 44.25,
      "type": "hotspot_cell",
      "score": 638.341,
      "count": 1075,
      "cell_deg": 0.5,
      "sources": {
        "GDELT": 143,
        "GDELT_DOC": 922,
        "DIRECT_FEED": 10,
        "USGS": 0,
        "GDACS": 0
      },
      "last7_score": 629.486,
      "prev7_score": 8.855,
      "trend": "up",
      "trend_arrow": "🔺",
      "change_pct": 7008.7,
      "place": "Giurgiu, Romania"
    },
    {
      "lon": 25.25,
      "lat": 54.75,
      "type": "hotspot_cell",
      "score": 355.168,
      "count": 585,
      "cell_deg": 0.5,
      "sources": {
        "GDELT": 57,
        "GDELT_DOC": 528,
        "DIRECT_FEED": 0,
        "USGS": 0,
        "GDACS": 0
      },
      "last7_score": 351.919,
      "prev7_score": 3.249,
      "trend": "up",
      "trend_arrow": "🔺",
      "change_pct": 10730.8,
      "place": "Vilnius County, Lithuania"
    },
    {
      "lon": 20.25,
      "lat": 52.25,
      "type": "hotspot_cell",
      "score": 203.136,
      "count": 512,
      "cell_deg": 0.5,
      "sources": {
        "GDELT": 512,
        "GDELT_DOC": 0,
        "DIRECT_FEED": 0,
        "USGS": 0,
        "GDACS": 0
      },
      "last7_score": 168.093,
      "prev7_score": 35.043,
      "trend": "up",
      "trend_arrow": "🔺",
      "change_pct": 379.7,
      "place": "Sochaczew County, Poland"
    },
    {
      "lon": 19.25,
      "lat": 47.75,
      "type": "hotspot_cell",
      "score": 185.952,
      "count": 352,
      "cell_deg": 0.5,
      "sources": {
        "GDELT": 190,
        "GDELT_DOC": 0,
        "DIRECT_FEED": 162,
        "USGS": 0,
        "GDACS": 0
      },
      "last7_score": 174.552,
      "prev7_score": 11.401,
      "trend": "up",
      "trend_arrow": "🔺",
      "change_pct": 1431.0,
      "place": "Pest, Hungary"
    },
    {
      "lon": 25.25,
      "lat": 46.25,
      "type": "hotspot_cell",
      "score": 139.024,
      "count": 404,
      "cell_deg": 0.5,
      "sources": {
        "GDELT": 404,
        "GDELT_DOC": 0,
        "DIRECT_FEED": 0,
        "USGS": 0,
        "GDACS": 0
      },
      "last7_score": 111.322,
      "prev7_score": 27.702,
      "trend": "up",
      "trend_arrow": "🔺",
      "change_pct": 301.9,
      "place": "Harghita, Romania"
    },
    {
      "lon": 21.25,
      "lat": 52.25,
      "type": "hotspot_cell",
      "score": 130.056,
      "count": 346,
      "cell_deg": 0.5,
      "sources": {
        "GDELT": 346,
        "GDELT_DOC": 0,
        "DIRECT_FEED": 0,
        "USGS": 0,
        "GDACS": 0
      },
      "last7_score": 103.119,
      "prev7_score": 26.937,
      "trend": "up",
      "trend_arrow": "🔺",
      "change_pct": 282.8,
      "place": "Warsaw, Poland"
    },
    {
      "lon": 24.25,
      "lat": 56.75,
      "type": "hotspot_cell",
      "score": 118.112,
      "count": 175,
      "cell_deg": 0.5,
      "sources": {
        "GDELT": 31,
        "GDELT_DOC": 0,
        "DIRECT_FEED": 144,
        "USGS": 0,
        "GDACS": 0
      },
      "last7_score": 115.946,
      "prev7_score": 2.166,
      "trend": "up",
      "trend_arrow": "🔺",
      "change_pct": 5251.9,
      "place": "Ķekavas novads, Latvia"
    },
    {
      "lon": 20.25,
      "lat": 47.25,
      "type": "hotspot_cell",
      "score": 79.887,
      "count": 231,
      "cell_deg": 0.5,
      "sources": {
        "GDELT": 230,
        "GDELT_DOC": 0,
        "DIRECT_FEED": 0,
        "USGS": 0,
        "GDACS": 1
      },
      "last7_score": 64.499,
      "prev7_score": 15.389,
      "trend": "up",
      "trend_arrow": "🔺",
      "change_pct": 319.1,
      "place": "Jász-Nagykun-Szolnok, Hungary"
    },
    {
      "lon": 15.25,
      "lat": 49.75,
      "type": "hotspot_cell",
      "score": 59.876,
      "count": 155,
      "cell_deg": 0.5,
      "sources": {
        "GDELT": 155,
        "GDELT_DOC": 0,
        "DIRECT_FEED": 0,
        "USGS": 0,
        "GDACS": 0
      },
      "last7_score": 49.134,
      "prev7_score": 10.742,
      "trend": "up",
      "trend_arrow": "🔺",
      "change_pct": 357.4,
      "place": "Vysočina Region, Czechia"
    }
  ]
}