{
  "generated_utc": "2026-03-30T07:51:12Z",
  "top": [
    {
      "lon": 14.25,
      "lat": 50.25,
      "type": "hotspot_cell",
      "score": 835.514,
      "count": 1453,
      "cell_deg": 0.5,
      "sources": {
        "GDELT": 119,
        "GDELT_DOC": 1332,
        "DIRECT_FEED": 2,
        "USGS": 0,
        "GDACS": 0
      },
      "last7_score": 828.208,
      "prev7_score": 7.306,
      "trend": "up",
      "trend_arrow": "🔺",
      "change_pct": 11236.2,
      "place": "SO ORP Kralupy nad Vltavou, Czechia"
    },
    {
      "lon": 26.25,
      "lat": 44.25,
      "type": "hotspot_cell",
      "score": 687.091,
      "count": 1192,
      "cell_deg": 0.5,
      "sources": {
        "GDELT": 129,
        "GDELT_DOC": 1061,
        "DIRECT_FEED": 2,
        "USGS": 0,
        "GDACS": 0
      },
      "last7_score": 677.094,
      "prev7_score": 9.997,
      "trend": "up",
      "trend_arrow": "🔺",
      "change_pct": 6672.8,
      "place": "Giurgiu, Romania"
    },
    {
      "lon": 25.25,
      "lat": 54.75,
      "type": "hotspot_cell",
      "score": 655.775,
      "count": 1053,
      "cell_deg": 0.5,
      "sources": {
        "GDELT": 88,
        "GDELT_DOC": 965,
        "DIRECT_FEED": 0,
        "USGS": 0,
        "GDACS": 0
      },
      "last7_score": 649.004,
      "prev7_score": 6.771,
      "trend": "up",
      "trend_arrow": "🔺",
      "change_pct": 9485.7,
      "place": "Vilnius County, Lithuania"
    },
    {
      "lon": 19.25,
      "lat": 47.75,
      "type": "hotspot_cell",
      "score": 223.101,
      "count": 523,
      "cell_deg": 0.5,
      "sources": {
        "GDELT": 311,
        "GDELT_DOC": 0,
        "DIRECT_FEED": 212,
        "USGS": 0,
        "GDACS": 0
      },
      "last7_score": 200.313,
      "prev7_score": 22.787,
      "trend": "up",
      "trend_arrow": "🔺",
      "change_pct": 779.1,
      "place": "Pest, Hungary"
    },
    {
      "lon": 20.25,
      "lat": 52.25,
      "type": "hotspot_cell",
      "score": 169.001,
      "count": 445,
      "cell_deg": 0.5,
      "sources": {
        "GDELT": 445,
        "GDELT_DOC": 0,
        "DIRECT_FEED": 0,
        "USGS": 0,
        "GDACS": 0
      },
      "last7_score": 142.24,
      "prev7_score": 26.762,
      "trend": "up",
      "trend_arrow": "🔺",
      "change_pct": 431.5,
      "place": "Sochaczew County, Poland"
    },
    {
      "lon": 24.25,
      "lat": 56.75,
      "type": "hotspot_cell",
      "score": 108.24,
      "count": 190,
      "cell_deg": 0.5,
      "sources": {
        "GDELT": 41,
        "GDELT_DOC": 0,
        "DIRECT_FEED": 149,
        "USGS": 0,
        "GDACS": 0
      },
      "last7_score": 105.973,
      "prev7_score": 2.267,
      "trend": "up",
      "trend_arrow": "🔺",
      "change_pct": 4574.2,
      "place": "Ķekavas novads, Latvia"
    },
    {
      "lon": 20.25,
      "lat": 47.25,
      "type": "hotspot_cell",
      "score": 93.782,
      "count": 337,
      "cell_deg": 0.5,
      "sources": {
        "GDELT": 337,
        "GDELT_DOC": 0,
        "DIRECT_FEED": 0,
        "USGS": 0,
        "GDACS": 0
      },
      "last7_score": 65.876,
      "prev7_score": 27.906,
      "trend": "up",
      "trend_arrow": "🔺",
      "change_pct": 136.1,
      "place": "Jász-Nagykun-Szolnok, Hungary"
    },
    {
      "lon": 25.25,
      "lat": 46.25,
      "type": "hotspot_cell",
      "score": 87.697,
      "count": 298,
      "cell_deg": 0.5,
      "sources": {
        "GDELT": 298,
        "GDELT_DOC": 0,
        "DIRECT_FEED": 0,
        "USGS": 0,
        "GDACS": 0
      },
      "last7_score": 66.984,
      "prev7_score": 20.713,
      "trend": "up",
      "trend_arrow": "🔺",
      "change_pct": 223.4,
      "place": "Harghita, Romania"
    },
    {
      "lon": 27.75,
      "lat": 47.25,
      "type": "hotspot_cell",
      "score": 54.023,
      "count": 99,
      "cell_deg": 0.5,
      "sources": {
        "GDELT": 0,
        "GDELT_DOC": 99,
        "DIRECT_FEED": 0,
        "USGS": 0,
        "GDACS": 0
      },
      "last7_score": 54.023,
      "prev7_score": 0.0,
      "trend": "new",
      "trend_arrow": "🆕",
      "change_pct": null,
      "place": "Iași, Romania"
    },
    {
      "lon": 15.25,
      "lat": 49.75,
      "type": "hotspot_cell",
      "score": 47.084,
      "count": 168,
      "cell_deg": 0.5,
      "sources": {
        "GDELT": 168,
        "GDELT_DOC": 0,
        "DIRECT_FEED": 0,
        "USGS": 0,
        "GDACS": 0
      },
      "last7_score": 33.833,
      "prev7_score": 13.251,
      "trend": "up",
      "trend_arrow": "🔺",
      "change_pct": 155.3,
      "place": "Vysočina Region, Czechia"
    }
  ]
}