{
  "generated_utc": "2026-06-26T14:14:16Z",
  "top": [
    {
      "lon": 14.25,
      "lat": 50.25,
      "type": "hotspot_cell",
      "score": 677.089,
      "count": 1081,
      "cell_deg": 0.5,
      "sources": {
        "GDELT": 128,
        "GDELT_DOC": 941,
        "DIRECT_FEED": 12,
        "USGS": 0,
        "GDACS": 0
      },
      "last7_score": 668.415,
      "prev7_score": 8.674,
      "trend": "up",
      "trend_arrow": "🔺",
      "change_pct": 7606.3,
      "place": "SO ORP Kralupy nad Vltavou, Czechia"
    },
    {
      "lon": 26.25,
      "lat": 44.25,
      "type": "hotspot_cell",
      "score": 646.418,
      "count": 1079,
      "cell_deg": 0.5,
      "sources": {
        "GDELT": 140,
        "GDELT_DOC": 929,
        "DIRECT_FEED": 10,
        "USGS": 0,
        "GDACS": 0
      },
      "last7_score": 636.286,
      "prev7_score": 10.132,
      "trend": "up",
      "trend_arrow": "🔺",
      "change_pct": 6180.2,
      "place": "Giurgiu, Romania"
    },
    {
      "lon": 25.25,
      "lat": 54.75,
      "type": "hotspot_cell",
      "score": 345.927,
      "count": 540,
      "cell_deg": 0.5,
      "sources": {
        "GDELT": 56,
        "GDELT_DOC": 484,
        "DIRECT_FEED": 0,
        "USGS": 0,
        "GDACS": 0
      },
      "last7_score": 342.097,
      "prev7_score": 3.83,
      "trend": "up",
      "trend_arrow": "🔺",
      "change_pct": 8831.8,
      "place": "Vilnius County, Lithuania"
    },
    {
      "lon": 20.25,
      "lat": 52.25,
      "type": "hotspot_cell",
      "score": 218.452,
      "count": 506,
      "cell_deg": 0.5,
      "sources": {
        "GDELT": 506,
        "GDELT_DOC": 0,
        "DIRECT_FEED": 0,
        "USGS": 0,
        "GDACS": 0
      },
      "last7_score": 183.747,
      "prev7_score": 34.705,
      "trend": "up",
      "trend_arrow": "🔺",
      "change_pct": 429.5,
      "place": "Sochaczew County, Poland"
    },
    {
      "lon": 19.25,
      "lat": 47.75,
      "type": "hotspot_cell",
      "score": 196.491,
      "count": 351,
      "cell_deg": 0.5,
      "sources": {
        "GDELT": 190,
        "GDELT_DOC": 0,
        "DIRECT_FEED": 161,
        "USGS": 0,
        "GDACS": 0
      },
      "last7_score": 183.909,
      "prev7_score": 12.582,
      "trend": "up",
      "trend_arrow": "🔺",
      "change_pct": 1361.7,
      "place": "Pest, Hungary"
    },
    {
      "lon": 25.25,
      "lat": 46.25,
      "type": "hotspot_cell",
      "score": 150.93,
      "count": 396,
      "cell_deg": 0.5,
      "sources": {
        "GDELT": 396,
        "GDELT_DOC": 0,
        "DIRECT_FEED": 0,
        "USGS": 0,
        "GDACS": 0
      },
      "last7_score": 118.743,
      "prev7_score": 32.187,
      "trend": "up",
      "trend_arrow": "🔺",
      "change_pct": 268.9,
      "place": "Harghita, Romania"
    },
    {
      "lon": 21.25,
      "lat": 52.25,
      "type": "hotspot_cell",
      "score": 146.939,
      "count": 340,
      "cell_deg": 0.5,
      "sources": {
        "GDELT": 340,
        "GDELT_DOC": 0,
        "DIRECT_FEED": 0,
        "USGS": 0,
        "GDACS": 0
      },
      "last7_score": 126.433,
      "prev7_score": 20.506,
      "trend": "up",
      "trend_arrow": "🔺",
      "change_pct": 516.6,
      "place": "Warsaw, Poland"
    },
    {
      "lon": 24.25,
      "lat": 56.75,
      "type": "hotspot_cell",
      "score": 121.906,
      "count": 175,
      "cell_deg": 0.5,
      "sources": {
        "GDELT": 30,
        "GDELT_DOC": 0,
        "DIRECT_FEED": 145,
        "USGS": 0,
        "GDACS": 0
      },
      "last7_score": 119.423,
      "prev7_score": 2.484,
      "trend": "up",
      "trend_arrow": "🔺",
      "change_pct": 4708.4,
      "place": "Ķekavas novads, Latvia"
    },
    {
      "lon": 20.25,
      "lat": 47.25,
      "type": "hotspot_cell",
      "score": 87.767,
      "count": 235,
      "cell_deg": 0.5,
      "sources": {
        "GDELT": 234,
        "GDELT_DOC": 0,
        "DIRECT_FEED": 0,
        "USGS": 0,
        "GDACS": 1
      },
      "last7_score": 70.304,
      "prev7_score": 17.463,
      "trend": "up",
      "trend_arrow": "🔺",
      "change_pct": 302.6,
      "place": "Jász-Nagykun-Szolnok, Hungary"
    },
    {
      "lon": 15.25,
      "lat": 49.75,
      "type": "hotspot_cell",
      "score": 59.15,
      "count": 147,
      "cell_deg": 0.5,
      "sources": {
        "GDELT": 147,
        "GDELT_DOC": 0,
        "DIRECT_FEED": 0,
        "USGS": 0,
        "GDACS": 0
      },
      "last7_score": 48.357,
      "prev7_score": 10.792,
      "trend": "up",
      "trend_arrow": "🔺",
      "change_pct": 348.1,
      "place": "Vysočina Region, Czechia"
    }
  ]
}