{
  "generated_utc": "2026-06-15T11:54:15Z",
  "top": [
    {
      "lon": 26.25,
      "lat": 44.25,
      "type": "hotspot_cell",
      "score": 570.517,
      "count": 984,
      "cell_deg": 0.5,
      "sources": {
        "GDELT": 178,
        "GDELT_DOC": 794,
        "DIRECT_FEED": 12,
        "USGS": 0,
        "GDACS": 0
      },
      "last7_score": 558.275,
      "prev7_score": 12.242,
      "trend": "up",
      "trend_arrow": "🔺",
      "change_pct": 4460.3,
      "place": "Giurgiu, Romania"
    },
    {
      "lon": 14.25,
      "lat": 50.25,
      "type": "hotspot_cell",
      "score": 476.654,
      "count": 891,
      "cell_deg": 0.5,
      "sources": {
        "GDELT": 91,
        "GDELT_DOC": 794,
        "DIRECT_FEED": 6,
        "USGS": 0,
        "GDACS": 0
      },
      "last7_score": 471.357,
      "prev7_score": 5.297,
      "trend": "up",
      "trend_arrow": "🔺",
      "change_pct": 8798.7,
      "place": "SO ORP Kralupy nad Vltavou, Czechia"
    },
    {
      "lon": 25.25,
      "lat": 54.75,
      "type": "hotspot_cell",
      "score": 333.426,
      "count": 625,
      "cell_deg": 0.5,
      "sources": {
        "GDELT": 61,
        "GDELT_DOC": 564,
        "DIRECT_FEED": 0,
        "USGS": 0,
        "GDACS": 0
      },
      "last7_score": 329.235,
      "prev7_score": 4.191,
      "trend": "up",
      "trend_arrow": "🔺",
      "change_pct": 7754.8,
      "place": "Vilnius County, Lithuania"
    },
    {
      "lon": 19.25,
      "lat": 47.75,
      "type": "hotspot_cell",
      "score": 166.039,
      "count": 362,
      "cell_deg": 0.5,
      "sources": {
        "GDELT": 193,
        "GDELT_DOC": 0,
        "DIRECT_FEED": 169,
        "USGS": 0,
        "GDACS": 0
      },
      "last7_score": 152.228,
      "prev7_score": 13.811,
      "trend": "up",
      "trend_arrow": "🔺",
      "change_pct": 1002.2,
      "place": "Pest, Hungary"
    },
    {
      "lon": 20.25,
      "lat": 52.25,
      "type": "hotspot_cell",
      "score": 145.144,
      "count": 449,
      "cell_deg": 0.5,
      "sources": {
        "GDELT": 449,
        "GDELT_DOC": 0,
        "DIRECT_FEED": 0,
        "USGS": 0,
        "GDACS": 0
      },
      "last7_score": 115.946,
      "prev7_score": 29.198,
      "trend": "up",
      "trend_arrow": "🔺",
      "change_pct": 297.1,
      "place": "Sochaczew County, Poland"
    },
    {
      "lon": 25.25,
      "lat": 46.25,
      "type": "hotspot_cell",
      "score": 128.352,
      "count": 420,
      "cell_deg": 0.5,
      "sources": {
        "GDELT": 420,
        "GDELT_DOC": 0,
        "DIRECT_FEED": 0,
        "USGS": 0,
        "GDACS": 0
      },
      "last7_score": 95.66,
      "prev7_score": 32.693,
      "trend": "up",
      "trend_arrow": "🔺",
      "change_pct": 192.6,
      "place": "Harghita, Romania"
    },
    {
      "lon": 24.25,
      "lat": 56.75,
      "type": "hotspot_cell",
      "score": 108.861,
      "count": 174,
      "cell_deg": 0.5,
      "sources": {
        "GDELT": 42,
        "GDELT_DOC": 0,
        "DIRECT_FEED": 132,
        "USGS": 0,
        "GDACS": 0
      },
      "last7_score": 105.886,
      "prev7_score": 2.975,
      "trend": "up",
      "trend_arrow": "🔺",
      "change_pct": 3459.4,
      "place": "Ķekavas novads, Latvia"
    },
    {
      "lon": 20.25,
      "lat": 47.25,
      "type": "hotspot_cell",
      "score": 77.513,
      "count": 240,
      "cell_deg": 0.5,
      "sources": {
        "GDELT": 240,
        "GDELT_DOC": 0,
        "DIRECT_FEED": 0,
        "USGS": 0,
        "GDACS": 0
      },
      "last7_score": 61.641,
      "prev7_score": 15.873,
      "trend": "up",
      "trend_arrow": "🔺",
      "change_pct": 288.3,
      "place": "Jász-Nagykun-Szolnok, Hungary"
    },
    {
      "lon": 17.25,
      "lat": 48.25,
      "type": "hotspot_cell",
      "score": 74.522,
      "count": 94,
      "cell_deg": 0.5,
      "sources": {
        "GDELT": 94,
        "GDELT_DOC": 0,
        "DIRECT_FEED": 0,
        "USGS": 0,
        "GDACS": 0
      },
      "last7_score": 73.581,
      "prev7_score": 0.941,
      "trend": "up",
      "trend_arrow": "🔺",
      "change_pct": 7715.3,
      "place": "District of Pezinok, Slovakia"
    },
    {
      "lon": 27.75,
      "lat": 47.25,
      "type": "hotspot_cell",
      "score": 60.393,
      "count": 91,
      "cell_deg": 0.5,
      "sources": {
        "GDELT": 0,
        "GDELT_DOC": 91,
        "DIRECT_FEED": 0,
        "USGS": 0,
        "GDACS": 0
      },
      "last7_score": 60.393,
      "prev7_score": 0.0,
      "trend": "new",
      "trend_arrow": "🆕",
      "change_pct": null,
      "place": "Iași, Romania"
    }
  ]
}