{
  "generated_utc": "2026-05-19T20:00:58Z",
  "top": [
    {
      "lon": 14.25,
      "lat": 50.25,
      "type": "hotspot_cell",
      "score": 864.39,
      "count": 1489,
      "cell_deg": 0.5,
      "sources": {
        "GDELT": 110,
        "GDELT_DOC": 1373,
        "DIRECT_FEED": 6,
        "USGS": 0,
        "GDACS": 0
      },
      "last7_score": 857.717,
      "prev7_score": 6.673,
      "trend": "up",
      "trend_arrow": "🔺",
      "change_pct": 12752.9,
      "place": "SO ORP Kralupy nad Vltavou, Czechia"
    },
    {
      "lon": 26.25,
      "lat": 44.25,
      "type": "hotspot_cell",
      "score": 856.516,
      "count": 1427,
      "cell_deg": 0.5,
      "sources": {
        "GDELT": 206,
        "GDELT_DOC": 1216,
        "DIRECT_FEED": 5,
        "USGS": 0,
        "GDACS": 0
      },
      "last7_score": 844.48,
      "prev7_score": 12.036,
      "trend": "up",
      "trend_arrow": "🔺",
      "change_pct": 6916.3,
      "place": "Giurgiu, Romania"
    },
    {
      "lon": 25.25,
      "lat": 54.75,
      "type": "hotspot_cell",
      "score": 554.311,
      "count": 985,
      "cell_deg": 0.5,
      "sources": {
        "GDELT": 77,
        "GDELT_DOC": 908,
        "DIRECT_FEED": 0,
        "USGS": 0,
        "GDACS": 0
      },
      "last7_score": 550.219,
      "prev7_score": 4.093,
      "trend": "up",
      "trend_arrow": "🔺",
      "change_pct": 13344.5,
      "place": "Vilnius County, Lithuania"
    },
    {
      "lon": 19.25,
      "lat": 47.75,
      "type": "hotspot_cell",
      "score": 247.962,
      "count": 541,
      "cell_deg": 0.5,
      "sources": {
        "GDELT": 315,
        "GDELT_DOC": 0,
        "DIRECT_FEED": 226,
        "USGS": 0,
        "GDACS": 0
      },
      "last7_score": 225.095,
      "prev7_score": 22.868,
      "trend": "up",
      "trend_arrow": "🔺",
      "change_pct": 884.3,
      "place": "Pest, Hungary"
    },
    {
      "lon": 20.25,
      "lat": 52.25,
      "type": "hotspot_cell",
      "score": 203.658,
      "count": 581,
      "cell_deg": 0.5,
      "sources": {
        "GDELT": 581,
        "GDELT_DOC": 0,
        "DIRECT_FEED": 0,
        "USGS": 0,
        "GDACS": 0
      },
      "last7_score": 173.02,
      "prev7_score": 30.638,
      "trend": "up",
      "trend_arrow": "🔺",
      "change_pct": 464.7,
      "place": "Sochaczew County, Poland"
    },
    {
      "lon": 24.25,
      "lat": 56.75,
      "type": "hotspot_cell",
      "score": 115.751,
      "count": 182,
      "cell_deg": 0.5,
      "sources": {
        "GDELT": 40,
        "GDELT_DOC": 0,
        "DIRECT_FEED": 142,
        "USGS": 0,
        "GDACS": 0
      },
      "last7_score": 114.966,
      "prev7_score": 0.786,
      "trend": "up",
      "trend_arrow": "🔺",
      "change_pct": 14532.6,
      "place": "Ķekavas novads, Latvia"
    },
    {
      "lon": 25.25,
      "lat": 46.25,
      "type": "hotspot_cell",
      "score": 114.771,
      "count": 292,
      "cell_deg": 0.5,
      "sources": {
        "GDELT": 292,
        "GDELT_DOC": 0,
        "DIRECT_FEED": 0,
        "USGS": 0,
        "GDACS": 0
      },
      "last7_score": 95.742,
      "prev7_score": 19.029,
      "trend": "up",
      "trend_arrow": "🔺",
      "change_pct": 403.1,
      "place": "Harghita, Romania"
    },
    {
      "lon": 20.25,
      "lat": 47.25,
      "type": "hotspot_cell",
      "score": 102.238,
      "count": 303,
      "cell_deg": 0.5,
      "sources": {
        "GDELT": 303,
        "GDELT_DOC": 0,
        "DIRECT_FEED": 0,
        "USGS": 0,
        "GDACS": 0
      },
      "last7_score": 80.114,
      "prev7_score": 22.124,
      "trend": "up",
      "trend_arrow": "🔺",
      "change_pct": 262.1,
      "place": "Jász-Nagykun-Szolnok, Hungary"
    },
    {
      "lon": 21.25,
      "lat": 52.25,
      "type": "hotspot_cell",
      "score": 85.596,
      "count": 229,
      "cell_deg": 0.5,
      "sources": {
        "GDELT": 229,
        "GDELT_DOC": 0,
        "DIRECT_FEED": 0,
        "USGS": 0,
        "GDACS": 0
      },
      "last7_score": 74.013,
      "prev7_score": 11.583,
      "trend": "up",
      "trend_arrow": "🔺",
      "change_pct": 539.0,
      "place": "Warsaw, Poland"
    },
    {
      "lon": 25.25,
      "lat": 57.25,
      "type": "hotspot_cell",
      "score": 82.036,
      "count": 195,
      "cell_deg": 0.5,
      "sources": {
        "GDELT": 195,
        "GDELT_DOC": 0,
        "DIRECT_FEED": 0,
        "USGS": 0,
        "GDACS": 0
      },
      "last7_score": 71.201,
      "prev7_score": 10.834,
      "trend": "up",
      "trend_arrow": "🔺",
      "change_pct": 557.2,
      "place": "Cēsu novads, Latvia"
    }
  ]
}