{
  "generated_utc": "2026-05-03T02:59:35Z",
  "top": [
    {
      "lon": 26.25,
      "lat": 44.25,
      "type": "hotspot_cell",
      "score": 889.362,
      "count": 1471,
      "cell_deg": 0.5,
      "sources": {
        "GDELT": 149,
        "GDELT_DOC": 1319,
        "DIRECT_FEED": 3,
        "USGS": 0,
        "GDACS": 0
      },
      "last7_score": 879.921,
      "prev7_score": 9.441,
      "trend": "up",
      "trend_arrow": "🔺",
      "change_pct": 9220.6,
      "place": "Giurgiu, Romania"
    },
    {
      "lon": 14.25,
      "lat": 50.25,
      "type": "hotspot_cell",
      "score": 830.242,
      "count": 1425,
      "cell_deg": 0.5,
      "sources": {
        "GDELT": 179,
        "GDELT_DOC": 1243,
        "DIRECT_FEED": 3,
        "USGS": 0,
        "GDACS": 0
      },
      "last7_score": 818.674,
      "prev7_score": 11.568,
      "trend": "up",
      "trend_arrow": "🔺",
      "change_pct": 6977.2,
      "place": "SO ORP Kralupy nad Vltavou, Czechia"
    },
    {
      "lon": 25.25,
      "lat": 54.75,
      "type": "hotspot_cell",
      "score": 628.795,
      "count": 1031,
      "cell_deg": 0.5,
      "sources": {
        "GDELT": 65,
        "GDELT_DOC": 966,
        "DIRECT_FEED": 0,
        "USGS": 0,
        "GDACS": 0
      },
      "last7_score": 624.919,
      "prev7_score": 3.876,
      "trend": "up",
      "trend_arrow": "🔺",
      "change_pct": 16023.7,
      "place": "Vilnius County, Lithuania"
    },
    {
      "lon": 19.25,
      "lat": 47.75,
      "type": "hotspot_cell",
      "score": 193.617,
      "count": 522,
      "cell_deg": 0.5,
      "sources": {
        "GDELT": 339,
        "GDELT_DOC": 0,
        "DIRECT_FEED": 183,
        "USGS": 0,
        "GDACS": 0
      },
      "last7_score": 167.898,
      "prev7_score": 25.719,
      "trend": "up",
      "trend_arrow": "🔺",
      "change_pct": 552.8,
      "place": "Pest, Hungary"
    },
    {
      "lon": 20.25,
      "lat": 52.25,
      "type": "hotspot_cell",
      "score": 171.332,
      "count": 467,
      "cell_deg": 0.5,
      "sources": {
        "GDELT": 467,
        "GDELT_DOC": 0,
        "DIRECT_FEED": 0,
        "USGS": 0,
        "GDACS": 0
      },
      "last7_score": 138.417,
      "prev7_score": 32.916,
      "trend": "up",
      "trend_arrow": "🔺",
      "change_pct": 320.5,
      "place": "Sochaczew County, Poland"
    },
    {
      "lon": 25.25,
      "lat": 46.25,
      "type": "hotspot_cell",
      "score": 128.221,
      "count": 322,
      "cell_deg": 0.5,
      "sources": {
        "GDELT": 322,
        "GDELT_DOC": 0,
        "DIRECT_FEED": 0,
        "USGS": 0,
        "GDACS": 0
      },
      "last7_score": 111.022,
      "prev7_score": 17.199,
      "trend": "up",
      "trend_arrow": "🔺",
      "change_pct": 545.5,
      "place": "Harghita, Romania"
    },
    {
      "lon": 20.25,
      "lat": 47.25,
      "type": "hotspot_cell",
      "score": 121.444,
      "count": 485,
      "cell_deg": 0.5,
      "sources": {
        "GDELT": 485,
        "GDELT_DOC": 0,
        "DIRECT_FEED": 0,
        "USGS": 0,
        "GDACS": 0
      },
      "last7_score": 78.861,
      "prev7_score": 42.582,
      "trend": "up",
      "trend_arrow": "🔺",
      "change_pct": 85.2,
      "place": "Jász-Nagykun-Szolnok, Hungary"
    },
    {
      "lon": 24.25,
      "lat": 56.75,
      "type": "hotspot_cell",
      "score": 99.963,
      "count": 162,
      "cell_deg": 0.5,
      "sources": {
        "GDELT": 24,
        "GDELT_DOC": 0,
        "DIRECT_FEED": 138,
        "USGS": 0,
        "GDACS": 0
      },
      "last7_score": 98.208,
      "prev7_score": 1.754,
      "trend": "up",
      "trend_arrow": "🔺",
      "change_pct": 5498.0,
      "place": "Ķekavas novads, Latvia"
    },
    {
      "lon": 15.25,
      "lat": 49.75,
      "type": "hotspot_cell",
      "score": 81.109,
      "count": 206,
      "cell_deg": 0.5,
      "sources": {
        "GDELT": 206,
        "GDELT_DOC": 0,
        "DIRECT_FEED": 0,
        "USGS": 0,
        "GDACS": 0
      },
      "last7_score": 70.366,
      "prev7_score": 10.743,
      "trend": "up",
      "trend_arrow": "🔺",
      "change_pct": 555.0,
      "place": "Vysočina Region, Czechia"
    },
    {
      "lon": 21.25,
      "lat": 52.25,
      "type": "hotspot_cell",
      "score": 52.482,
      "count": 157,
      "cell_deg": 0.5,
      "sources": {
        "GDELT": 157,
        "GDELT_DOC": 0,
        "DIRECT_FEED": 0,
        "USGS": 0,
        "GDACS": 0
      },
      "last7_score": 42.26,
      "prev7_score": 10.222,
      "trend": "up",
      "trend_arrow": "🔺",
      "change_pct": 313.4,
      "place": "Warsaw, Poland"
    }
  ]
}