{
  "generated_utc": "2026-04-12T02:41:56Z",
  "top": [
    {
      "lon": 26.25,
      "lat": 44.25,
      "type": "hotspot_cell",
      "score": 853.628,
      "count": 1465,
      "cell_deg": 0.5,
      "sources": {
        "GDELT": 156,
        "GDELT_DOC": 1303,
        "DIRECT_FEED": 6,
        "USGS": 0,
        "GDACS": 0
      },
      "last7_score": 841.26,
      "prev7_score": 12.369,
      "trend": "up",
      "trend_arrow": "🔺",
      "change_pct": 6701.5,
      "place": "Giurgiu, Romania"
    },
    {
      "lon": 14.25,
      "lat": 50.25,
      "type": "hotspot_cell",
      "score": 681.834,
      "count": 1120,
      "cell_deg": 0.5,
      "sources": {
        "GDELT": 85,
        "GDELT_DOC": 1035,
        "DIRECT_FEED": 0,
        "USGS": 0,
        "GDACS": 0
      },
      "last7_score": 675.341,
      "prev7_score": 6.493,
      "trend": "up",
      "trend_arrow": "🔺",
      "change_pct": 10301.3,
      "place": "SO ORP Kralupy nad Vltavou, Czechia"
    },
    {
      "lon": 25.25,
      "lat": 54.75,
      "type": "hotspot_cell",
      "score": 538.806,
      "count": 874,
      "cell_deg": 0.5,
      "sources": {
        "GDELT": 74,
        "GDELT_DOC": 798,
        "DIRECT_FEED": 2,
        "USGS": 0,
        "GDACS": 0
      },
      "last7_score": 533.254,
      "prev7_score": 5.552,
      "trend": "up",
      "trend_arrow": "🔺",
      "change_pct": 9505.5,
      "place": "Vilnius County, Lithuania"
    },
    {
      "lon": 19.25,
      "lat": 47.75,
      "type": "hotspot_cell",
      "score": 464.522,
      "count": 832,
      "cell_deg": 0.5,
      "sources": {
        "GDELT": 580,
        "GDELT_DOC": 0,
        "DIRECT_FEED": 252,
        "USGS": 0,
        "GDACS": 0
      },
      "last7_score": 447.411,
      "prev7_score": 17.111,
      "trend": "up",
      "trend_arrow": "🔺",
      "change_pct": 2514.8,
      "place": "Pest, Hungary"
    },
    {
      "lon": 20.25,
      "lat": 47.25,
      "type": "hotspot_cell",
      "score": 192.293,
      "count": 439,
      "cell_deg": 0.5,
      "sources": {
        "GDELT": 439,
        "GDELT_DOC": 0,
        "DIRECT_FEED": 0,
        "USGS": 0,
        "GDACS": 0
      },
      "last7_score": 168.175,
      "prev7_score": 24.118,
      "trend": "up",
      "trend_arrow": "🔺",
      "change_pct": 597.3,
      "place": "Jász-Nagykun-Szolnok, Hungary"
    },
    {
      "lon": 20.25,
      "lat": 52.25,
      "type": "hotspot_cell",
      "score": 138.364,
      "count": 410,
      "cell_deg": 0.5,
      "sources": {
        "GDELT": 410,
        "GDELT_DOC": 0,
        "DIRECT_FEED": 0,
        "USGS": 0,
        "GDACS": 0
      },
      "last7_score": 108.952,
      "prev7_score": 29.413,
      "trend": "up",
      "trend_arrow": "🔺",
      "change_pct": 270.4,
      "place": "Sochaczew County, Poland"
    },
    {
      "lon": 24.25,
      "lat": 56.75,
      "type": "hotspot_cell",
      "score": 101.396,
      "count": 160,
      "cell_deg": 0.5,
      "sources": {
        "GDELT": 26,
        "GDELT_DOC": 0,
        "DIRECT_FEED": 134,
        "USGS": 0,
        "GDACS": 0
      },
      "last7_score": 99.884,
      "prev7_score": 1.511,
      "trend": "up",
      "trend_arrow": "🔺",
      "change_pct": 6508.8,
      "place": "Ķekavas novads, Latvia"
    },
    {
      "lon": 25.25,
      "lat": 46.25,
      "type": "hotspot_cell",
      "score": 75.636,
      "count": 253,
      "cell_deg": 0.5,
      "sources": {
        "GDELT": 253,
        "GDELT_DOC": 0,
        "DIRECT_FEED": 0,
        "USGS": 0,
        "GDACS": 0
      },
      "last7_score": 58.572,
      "prev7_score": 17.064,
      "trend": "up",
      "trend_arrow": "🔺",
      "change_pct": 243.2,
      "place": "Harghita, Romania"
    },
    {
      "lon": 24.25,
      "lat": 56.25,
      "type": "hotspot_cell",
      "score": 48.969,
      "count": 115,
      "cell_deg": 0.5,
      "sources": {
        "GDELT": 115,
        "GDELT_DOC": 0,
        "DIRECT_FEED": 0,
        "USGS": 0,
        "GDACS": 0
      },
      "last7_score": 43.614,
      "prev7_score": 5.355,
      "trend": "up",
      "trend_arrow": "🔺",
      "change_pct": 714.5,
      "place": "Namišių seniūnija, Lithuania"
    },
    {
      "lon": 15.25,
      "lat": 49.75,
      "type": "hotspot_cell",
      "score": 48.095,
      "count": 125,
      "cell_deg": 0.5,
      "sources": {
        "GDELT": 125,
        "GDELT_DOC": 0,
        "DIRECT_FEED": 0,
        "USGS": 0,
        "GDACS": 0
      },
      "last7_score": 41.056,
      "prev7_score": 7.039,
      "trend": "up",
      "trend_arrow": "🔺",
      "change_pct": 483.3,
      "place": "Vysočina Region, Czechia"
    }
  ]
}