{
  "generated_utc": "2026-06-20T02:40:19Z",
  "top": [
    {
      "lon": 25.25,
      "lat": 54.75,
      "type": "hotspot_cell",
      "score": 580.775,
      "count": 869,
      "cell_deg": 0.5,
      "sources": {
        "GDELT": 54,
        "GDELT_DOC": 814,
        "DIRECT_FEED": 1,
        "USGS": 0,
        "GDACS": 0
      },
      "last7_score": 576.966,
      "prev7_score": 3.809,
      "trend": "up",
      "trend_arrow": "🔺",
      "change_pct": 15046.0,
      "place": "Vilnius County, Lithuania"
    },
    {
      "lon": 26.25,
      "lat": 44.25,
      "type": "hotspot_cell",
      "score": 555.078,
      "count": 970,
      "cell_deg": 0.5,
      "sources": {
        "GDELT": 154,
        "GDELT_DOC": 811,
        "DIRECT_FEED": 5,
        "USGS": 0,
        "GDACS": 0
      },
      "last7_score": 543.345,
      "prev7_score": 11.733,
      "trend": "up",
      "trend_arrow": "🔺",
      "change_pct": 4530.9,
      "place": "Giurgiu, Romania"
    },
    {
      "lon": 14.25,
      "lat": 50.25,
      "type": "hotspot_cell",
      "score": 374.585,
      "count": 612,
      "cell_deg": 0.5,
      "sources": {
        "GDELT": 98,
        "GDELT_DOC": 504,
        "DIRECT_FEED": 10,
        "USGS": 0,
        "GDACS": 0
      },
      "last7_score": 368.078,
      "prev7_score": 6.507,
      "trend": "up",
      "trend_arrow": "🔺",
      "change_pct": 5556.3,
      "place": "SO ORP Kralupy nad Vltavou, Czechia"
    },
    {
      "lon": 20.25,
      "lat": 52.25,
      "type": "hotspot_cell",
      "score": 187.098,
      "count": 445,
      "cell_deg": 0.5,
      "sources": {
        "GDELT": 445,
        "GDELT_DOC": 0,
        "DIRECT_FEED": 0,
        "USGS": 0,
        "GDACS": 0
      },
      "last7_score": 153.689,
      "prev7_score": 33.409,
      "trend": "up",
      "trend_arrow": "🔺",
      "change_pct": 360.0,
      "place": "Sochaczew County, Poland"
    },
    {
      "lon": 19.25,
      "lat": 47.75,
      "type": "hotspot_cell",
      "score": 183.887,
      "count": 329,
      "cell_deg": 0.5,
      "sources": {
        "GDELT": 155,
        "GDELT_DOC": 0,
        "DIRECT_FEED": 174,
        "USGS": 0,
        "GDACS": 0
      },
      "last7_score": 171.92,
      "prev7_score": 11.967,
      "trend": "up",
      "trend_arrow": "🔺",
      "change_pct": 1336.6,
      "place": "Pest, Hungary"
    },
    {
      "lon": 25.25,
      "lat": 46.25,
      "type": "hotspot_cell",
      "score": 168.34,
      "count": 411,
      "cell_deg": 0.5,
      "sources": {
        "GDELT": 411,
        "GDELT_DOC": 0,
        "DIRECT_FEED": 0,
        "USGS": 0,
        "GDACS": 0
      },
      "last7_score": 141.316,
      "prev7_score": 27.024,
      "trend": "up",
      "trend_arrow": "🔺",
      "change_pct": 422.9,
      "place": "Harghita, Romania"
    },
    {
      "lon": 24.25,
      "lat": 56.75,
      "type": "hotspot_cell",
      "score": 112.947,
      "count": 171,
      "cell_deg": 0.5,
      "sources": {
        "GDELT": 34,
        "GDELT_DOC": 0,
        "DIRECT_FEED": 137,
        "USGS": 0,
        "GDACS": 0
      },
      "last7_score": 110.086,
      "prev7_score": 2.86,
      "trend": "up",
      "trend_arrow": "🔺",
      "change_pct": 3748.6,
      "place": "Ķekavas novads, Latvia"
    },
    {
      "lon": 21.25,
      "lat": 52.25,
      "type": "hotspot_cell",
      "score": 105.56,
      "count": 206,
      "cell_deg": 0.5,
      "sources": {
        "GDELT": 206,
        "GDELT_DOC": 0,
        "DIRECT_FEED": 0,
        "USGS": 0,
        "GDACS": 0
      },
      "last7_score": 94.703,
      "prev7_score": 10.858,
      "trend": "up",
      "trend_arrow": "🔺",
      "change_pct": 772.2,
      "place": "Warsaw, Poland"
    },
    {
      "lon": 20.25,
      "lat": 47.25,
      "type": "hotspot_cell",
      "score": 96.697,
      "count": 246,
      "cell_deg": 0.5,
      "sources": {
        "GDELT": 246,
        "GDELT_DOC": 0,
        "DIRECT_FEED": 0,
        "USGS": 0,
        "GDACS": 0
      },
      "last7_score": 76.919,
      "prev7_score": 19.778,
      "trend": "up",
      "trend_arrow": "🔺",
      "change_pct": 288.9,
      "place": "Jász-Nagykun-Szolnok, Hungary"
    },
    {
      "lon": 17.25,
      "lat": 48.25,
      "type": "hotspot_cell",
      "score": 71.116,
      "count": 167,
      "cell_deg": 0.5,
      "sources": {
        "GDELT": 165,
        "GDELT_DOC": 0,
        "DIRECT_FEED": 2,
        "USGS": 0,
        "GDACS": 0
      },
      "last7_score": 62.76,
      "prev7_score": 8.357,
      "trend": "up",
      "trend_arrow": "🔺",
      "change_pct": 651.0,
      "place": "District of Pezinok, Slovakia"
    }
  ]
}