{
  "generated_utc": "2026-05-24T13:10:19Z",
  "top": [
    {
      "lon": 14.25,
      "lat": 50.25,
      "type": "hotspot_cell",
      "score": 1016.541,
      "count": 1565,
      "cell_deg": 0.5,
      "sources": {
        "GDELT": 140,
        "GDELT_DOC": 1408,
        "DIRECT_FEED": 17,
        "USGS": 0,
        "GDACS": 0
      },
      "last7_score": 1009.114,
      "prev7_score": 7.427,
      "trend": "up",
      "trend_arrow": "🔺",
      "change_pct": 13487.6,
      "place": "SO ORP Kralupy nad Vltavou, Czechia"
    },
    {
      "lon": 26.25,
      "lat": 44.25,
      "type": "hotspot_cell",
      "score": 777.86,
      "count": 1469,
      "cell_deg": 0.5,
      "sources": {
        "GDELT": 191,
        "GDELT_DOC": 1276,
        "DIRECT_FEED": 2,
        "USGS": 0,
        "GDACS": 0
      },
      "last7_score": 763.631,
      "prev7_score": 14.229,
      "trend": "up",
      "trend_arrow": "🔺",
      "change_pct": 5266.7,
      "place": "Giurgiu, Romania"
    },
    {
      "lon": 25.25,
      "lat": 54.75,
      "type": "hotspot_cell",
      "score": 758.121,
      "count": 1155,
      "cell_deg": 0.5,
      "sources": {
        "GDELT": 102,
        "GDELT_DOC": 1052,
        "DIRECT_FEED": 1,
        "USGS": 0,
        "GDACS": 0
      },
      "last7_score": 754.347,
      "prev7_score": 3.774,
      "trend": "up",
      "trend_arrow": "🔺",
      "change_pct": 19886.2,
      "place": "Vilnius County, Lithuania"
    },
    {
      "lon": 20.25,
      "lat": 52.25,
      "type": "hotspot_cell",
      "score": 348.713,
      "count": 796,
      "cell_deg": 0.5,
      "sources": {
        "GDELT": 796,
        "GDELT_DOC": 0,
        "DIRECT_FEED": 0,
        "USGS": 0,
        "GDACS": 0
      },
      "last7_score": 306.327,
      "prev7_score": 42.386,
      "trend": "up",
      "trend_arrow": "🔺",
      "change_pct": 622.7,
      "place": "Sochaczew County, Poland"
    },
    {
      "lon": 19.25,
      "lat": 47.75,
      "type": "hotspot_cell",
      "score": 221.559,
      "count": 483,
      "cell_deg": 0.5,
      "sources": {
        "GDELT": 244,
        "GDELT_DOC": 0,
        "DIRECT_FEED": 239,
        "USGS": 0,
        "GDACS": 0
      },
      "last7_score": 206.284,
      "prev7_score": 15.276,
      "trend": "up",
      "trend_arrow": "🔺",
      "change_pct": 1250.4,
      "place": "Pest, Hungary"
    },
    {
      "lon": 25.25,
      "lat": 46.25,
      "type": "hotspot_cell",
      "score": 115.558,
      "count": 324,
      "cell_deg": 0.5,
      "sources": {
        "GDELT": 324,
        "GDELT_DOC": 0,
        "DIRECT_FEED": 0,
        "USGS": 0,
        "GDACS": 0
      },
      "last7_score": 98.638,
      "prev7_score": 16.92,
      "trend": "up",
      "trend_arrow": "🔺",
      "change_pct": 483.0,
      "place": "Harghita, Romania"
    },
    {
      "lon": 21.25,
      "lat": 52.25,
      "type": "hotspot_cell",
      "score": 109.411,
      "count": 274,
      "cell_deg": 0.5,
      "sources": {
        "GDELT": 274,
        "GDELT_DOC": 0,
        "DIRECT_FEED": 0,
        "USGS": 0,
        "GDACS": 0
      },
      "last7_score": 94.122,
      "prev7_score": 15.289,
      "trend": "up",
      "trend_arrow": "🔺",
      "change_pct": 515.6,
      "place": "Warsaw, Poland"
    },
    {
      "lon": 24.25,
      "lat": 56.75,
      "type": "hotspot_cell",
      "score": 96.442,
      "count": 169,
      "cell_deg": 0.5,
      "sources": {
        "GDELT": 51,
        "GDELT_DOC": 0,
        "DIRECT_FEED": 118,
        "USGS": 0,
        "GDACS": 0
      },
      "last7_score": 93.218,
      "prev7_score": 3.223,
      "trend": "up",
      "trend_arrow": "🔺",
      "change_pct": 2791.9,
      "place": "Ķekavas novads, Latvia"
    },
    {
      "lon": 20.25,
      "lat": 47.25,
      "type": "hotspot_cell",
      "score": 92.755,
      "count": 288,
      "cell_deg": 0.5,
      "sources": {
        "GDELT": 288,
        "GDELT_DOC": 0,
        "DIRECT_FEED": 0,
        "USGS": 0,
        "GDACS": 0
      },
      "last7_score": 76.056,
      "prev7_score": 16.698,
      "trend": "up",
      "trend_arrow": "🔺",
      "change_pct": 355.5,
      "place": "Jász-Nagykun-Szolnok, Hungary"
    },
    {
      "lon": 26.25,
      "lat": 59.25,
      "type": "hotspot_cell",
      "score": 64.226,
      "count": 159,
      "cell_deg": 0.5,
      "sources": {
        "GDELT": 159,
        "GDELT_DOC": 0,
        "DIRECT_FEED": 0,
        "USGS": 0,
        "GDACS": 0
      },
      "last7_score": 57.223,
      "prev7_score": 7.003,
      "trend": "up",
      "trend_arrow": "🔺",
      "change_pct": 717.1,
      "place": "Lääne-Viru County, Estonia"
    }
  ]
}