{
  "generated_utc": "2026-03-12T07:01:59Z",
  "top": [
    {
      "lon": 26.25,
      "lat": 44.25,
      "type": "hotspot_cell",
      "score": 769.29,
      "count": 1179,
      "cell_deg": 0.5,
      "sources": {
        "GDELT": 164,
        "GDELT_DOC": 1013,
        "DIRECT_FEED": 2,
        "USGS": 0,
        "GDACS": 0
      },
      "last7_score": 754.355,
      "prev7_score": 14.935,
      "trend": "up",
      "trend_arrow": "🔺",
      "change_pct": 4950.9,
      "place": "Giurgiu, Romania"
    },
    {
      "lon": 14.25,
      "lat": 50.25,
      "type": "hotspot_cell",
      "score": 629.992,
      "count": 1051,
      "cell_deg": 0.5,
      "sources": {
        "GDELT": 139,
        "GDELT_DOC": 910,
        "DIRECT_FEED": 2,
        "USGS": 0,
        "GDACS": 0
      },
      "last7_score": 616.653,
      "prev7_score": 13.338,
      "trend": "up",
      "trend_arrow": "🔺",
      "change_pct": 4523.1,
      "place": "SO ORP Kralupy nad Vltavou, Czechia"
    },
    {
      "lon": 25.25,
      "lat": 54.75,
      "type": "hotspot_cell",
      "score": 487.556,
      "count": 742,
      "cell_deg": 0.5,
      "sources": {
        "GDELT": 67,
        "GDELT_DOC": 675,
        "DIRECT_FEED": 0,
        "USGS": 0,
        "GDACS": 0
      },
      "last7_score": 483.012,
      "prev7_score": 4.545,
      "trend": "up",
      "trend_arrow": "🔺",
      "change_pct": 10527.6,
      "place": "Vilnius County, Lithuania"
    },
    {
      "lon": 19.25,
      "lat": 47.75,
      "type": "hotspot_cell",
      "score": 277.616,
      "count": 536,
      "cell_deg": 0.5,
      "sources": {
        "GDELT": 382,
        "GDELT_DOC": 0,
        "DIRECT_FEED": 154,
        "USGS": 0,
        "GDACS": 0
      },
      "last7_score": 254.236,
      "prev7_score": 23.38,
      "trend": "up",
      "trend_arrow": "🔺",
      "change_pct": 987.4,
      "place": "Pest, Hungary"
    },
    {
      "lon": 20.25,
      "lat": 52.25,
      "type": "hotspot_cell",
      "score": 148.159,
      "count": 460,
      "cell_deg": 0.5,
      "sources": {
        "GDELT": 460,
        "GDELT_DOC": 0,
        "DIRECT_FEED": 0,
        "USGS": 0,
        "GDACS": 0
      },
      "last7_score": 110.069,
      "prev7_score": 38.091,
      "trend": "up",
      "trend_arrow": "🔺",
      "change_pct": 189.0,
      "place": "Sochaczew County, Poland"
    },
    {
      "lon": 20.25,
      "lat": 47.25,
      "type": "hotspot_cell",
      "score": 128.597,
      "count": 318,
      "cell_deg": 0.5,
      "sources": {
        "GDELT": 318,
        "GDELT_DOC": 0,
        "DIRECT_FEED": 0,
        "USGS": 0,
        "GDACS": 0
      },
      "last7_score": 102.401,
      "prev7_score": 26.196,
      "trend": "up",
      "trend_arrow": "🔺",
      "change_pct": 290.9,
      "place": "Jász-Nagykun-Szolnok, Hungary"
    },
    {
      "lon": 24.25,
      "lat": 56.75,
      "type": "hotspot_cell",
      "score": 126.657,
      "count": 160,
      "cell_deg": 0.5,
      "sources": {
        "GDELT": 24,
        "GDELT_DOC": 0,
        "DIRECT_FEED": 136,
        "USGS": 0,
        "GDACS": 0
      },
      "last7_score": 125.111,
      "prev7_score": 1.547,
      "trend": "up",
      "trend_arrow": "🔺",
      "change_pct": 7988.2,
      "place": "Ķekavas novads, Latvia"
    },
    {
      "lon": 25.25,
      "lat": 46.25,
      "type": "hotspot_cell",
      "score": 117.751,
      "count": 293,
      "cell_deg": 0.5,
      "sources": {
        "GDELT": 293,
        "GDELT_DOC": 0,
        "DIRECT_FEED": 0,
        "USGS": 0,
        "GDACS": 0
      },
      "last7_score": 92.291,
      "prev7_score": 25.46,
      "trend": "up",
      "trend_arrow": "🔺",
      "change_pct": 262.5,
      "place": "Harghita, Romania"
    },
    {
      "lon": 21.25,
      "lat": 52.25,
      "type": "hotspot_cell",
      "score": 69.379,
      "count": 216,
      "cell_deg": 0.5,
      "sources": {
        "GDELT": 216,
        "GDELT_DOC": 0,
        "DIRECT_FEED": 0,
        "USGS": 0,
        "GDACS": 0
      },
      "last7_score": 49.727,
      "prev7_score": 19.652,
      "trend": "up",
      "trend_arrow": "🔺",
      "change_pct": 153.0,
      "place": "Warsaw, Poland"
    },
    {
      "lon": 15.25,
      "lat": 49.75,
      "type": "hotspot_cell",
      "score": 60.384,
      "count": 156,
      "cell_deg": 0.5,
      "sources": {
        "GDELT": 156,
        "GDELT_DOC": 0,
        "DIRECT_FEED": 0,
        "USGS": 0,
        "GDACS": 0
      },
      "last7_score": 48.862,
      "prev7_score": 11.522,
      "trend": "up",
      "trend_arrow": "🔺",
      "change_pct": 324.1,
      "place": "Vysočina Region, Czechia"
    }
  ]
}