{
  "generated_utc": "2026-03-05T06:56:50Z",
  "top": [
    {
      "lon": 21.25,
      "lat": 52.25,
      "type": "hotspot_cell",
      "score": 18.764,
      "count": 47,
      "cell_deg": 0.5,
      "sources": {
        "GDELT": 47,
        "USGS": 0,
        "GDACS": 0
      },
      "last7_score": 15.363,
      "prev7_score": 3.401,
      "trend": "up",
      "trend_arrow": "🔺",
      "change_pct": 351.7,
      "place": "Warsaw, Poland"
    },
    {
      "lon": 20.25,
      "lat": 52.25,
      "type": "hotspot_cell",
      "score": 17.764,
      "count": 47,
      "cell_deg": 0.5,
      "sources": {
        "GDELT": 47,
        "USGS": 0,
        "GDACS": 0
      },
      "last7_score": 14.377,
      "prev7_score": 3.386,
      "trend": "up",
      "trend_arrow": "🔺",
      "change_pct": 324.6,
      "place": "Sochaczew County, Poland"
    },
    {
      "lon": 19.25,
      "lat": 47.75,
      "type": "hotspot_cell",
      "score": 16.905,
      "count": 41,
      "cell_deg": 0.5,
      "sources": {
        "GDELT": 41,
        "USGS": 0,
        "GDACS": 0
      },
      "last7_score": 14.048,
      "prev7_score": 2.857,
      "trend": "up",
      "trend_arrow": "🔺",
      "change_pct": 391.7,
      "place": "Pest, Hungary"
    },
    {
      "lon": 25.25,
      "lat": 46.25,
      "type": "hotspot_cell",
      "score": 16.44,
      "count": 37,
      "cell_deg": 0.5,
      "sources": {
        "GDELT": 37,
        "USGS": 0,
        "GDACS": 0
      },
      "last7_score": 14.106,
      "prev7_score": 2.334,
      "trend": "up",
      "trend_arrow": "🔺",
      "change_pct": 504.4,
      "place": "Harghita, Romania"
    },
    {
      "lon": 20.25,
      "lat": 47.25,
      "type": "hotspot_cell",
      "score": 16.163,
      "count": 41,
      "cell_deg": 0.5,
      "sources": {
        "GDELT": 41,
        "USGS": 0,
        "GDACS": 0
      },
      "last7_score": 13.34,
      "prev7_score": 2.823,
      "trend": "up",
      "trend_arrow": "🔺",
      "change_pct": 372.6,
      "place": "Jász-Nagykun-Szolnok, Hungary"
    },
    {
      "lon": 26.25,
      "lat": 59.25,
      "type": "hotspot_cell",
      "score": 14.229,
      "count": 33,
      "cell_deg": 0.5,
      "sources": {
        "GDELT": 33,
        "USGS": 0,
        "GDACS": 0
      },
      "last7_score": 12.203,
      "prev7_score": 2.026,
      "trend": "up",
      "trend_arrow": "🔺",
      "change_pct": 502.5,
      "place": "Lääne-Viru County, Estonia"
    },
    {
      "lon": 14.25,
      "lat": 50.25,
      "type": "hotspot_cell",
      "score": 13.953,
      "count": 37,
      "cell_deg": 0.5,
      "sources": {
        "GDELT": 37,
        "USGS": 0,
        "GDACS": 0
      },
      "last7_score": 11.075,
      "prev7_score": 2.878,
      "trend": "up",
      "trend_arrow": "🔺",
      "change_pct": 284.8,
      "place": "SO ORP Kralupy nad Vltavou, Czechia"
    },
    {
      "lon": 25.25,
      "lat": 57.25,
      "type": "hotspot_cell",
      "score": 12.674,
      "count": 33,
      "cell_deg": 0.5,
      "sources": {
        "GDELT": 33,
        "USGS": 0,
        "GDACS": 0
      },
      "last7_score": 10.367,
      "prev7_score": 2.306,
      "trend": "up",
      "trend_arrow": "🔺",
      "change_pct": 349.5,
      "place": "Cēsu novads, Latvia"
    },
    {
      "lon": 26.25,
      "lat": 44.25,
      "type": "hotspot_cell",
      "score": 10.487,
      "count": 28,
      "cell_deg": 0.5,
      "sources": {
        "GDELT": 28,
        "USGS": 0,
        "GDACS": 0
      },
      "last7_score": 8.174,
      "prev7_score": 2.313,
      "trend": "up",
      "trend_arrow": "🔺",
      "change_pct": 253.4,
      "place": "Giurgiu, Romania"
    },
    {
      "lon": 15.25,
      "lat": 49.75,
      "type": "hotspot_cell",
      "score": 10.258,
      "count": 32,
      "cell_deg": 0.5,
      "sources": {
        "GDELT": 32,
        "USGS": 0,
        "GDACS": 0
      },
      "last7_score": 7.4,
      "prev7_score": 2.858,
      "trend": "up",
      "trend_arrow": "🔺",
      "change_pct": 158.9,
      "place": "Vysočina Region, Czechia"
    }
  ]
}