{
  "generated_utc": "2026-06-25T19:52:33Z",
  "top": [
    {
      "lon": 14.25,
      "lat": 50.25,
      "type": "hotspot_cell",
      "score": 808.743,
      "count": 1111,
      "cell_deg": 0.5,
      "sources": {
        "GDELT": 124,
        "GDELT_DOC": 973,
        "DIRECT_FEED": 14,
        "USGS": 0,
        "GDACS": 0
      },
      "last7_score": 801.269,
      "prev7_score": 7.474,
      "trend": "up",
      "trend_arrow": "🔺",
      "change_pct": 10620.3,
      "place": "SO ORP Kralupy nad Vltavou, Czechia"
    },
    {
      "lon": 26.25,
      "lat": 44.25,
      "type": "hotspot_cell",
      "score": 682.018,
      "count": 1079,
      "cell_deg": 0.5,
      "sources": {
        "GDELT": 149,
        "GDELT_DOC": 920,
        "DIRECT_FEED": 10,
        "USGS": 0,
        "GDACS": 0
      },
      "last7_score": 672.167,
      "prev7_score": 9.851,
      "trend": "up",
      "trend_arrow": "🔺",
      "change_pct": 6723.3,
      "place": "Giurgiu, Romania"
    },
    {
      "lon": 25.25,
      "lat": 54.75,
      "type": "hotspot_cell",
      "score": 357.448,
      "count": 613,
      "cell_deg": 0.5,
      "sources": {
        "GDELT": 57,
        "GDELT_DOC": 556,
        "DIRECT_FEED": 0,
        "USGS": 0,
        "GDACS": 0
      },
      "last7_score": 353.218,
      "prev7_score": 4.231,
      "trend": "up",
      "trend_arrow": "🔺",
      "change_pct": 8248.9,
      "place": "Vilnius County, Lithuania"
    },
    {
      "lon": 20.25,
      "lat": 52.25,
      "type": "hotspot_cell",
      "score": 212.242,
      "count": 508,
      "cell_deg": 0.5,
      "sources": {
        "GDELT": 508,
        "GDELT_DOC": 0,
        "DIRECT_FEED": 0,
        "USGS": 0,
        "GDACS": 0
      },
      "last7_score": 179.512,
      "prev7_score": 32.73,
      "trend": "up",
      "trend_arrow": "🔺",
      "change_pct": 448.5,
      "place": "Sochaczew County, Poland"
    },
    {
      "lon": 19.25,
      "lat": 47.75,
      "type": "hotspot_cell",
      "score": 209.114,
      "count": 365,
      "cell_deg": 0.5,
      "sources": {
        "GDELT": 198,
        "GDELT_DOC": 0,
        "DIRECT_FEED": 167,
        "USGS": 0,
        "GDACS": 0
      },
      "last7_score": 197.087,
      "prev7_score": 12.028,
      "trend": "up",
      "trend_arrow": "🔺",
      "change_pct": 1538.6,
      "place": "Pest, Hungary"
    },
    {
      "lon": 21.25,
      "lat": 52.25,
      "type": "hotspot_cell",
      "score": 150.671,
      "count": 339,
      "cell_deg": 0.5,
      "sources": {
        "GDELT": 339,
        "GDELT_DOC": 0,
        "DIRECT_FEED": 0,
        "USGS": 0,
        "GDACS": 0
      },
      "last7_score": 132.729,
      "prev7_score": 17.941,
      "trend": "up",
      "trend_arrow": "🔺",
      "change_pct": 639.8,
      "place": "Warsaw, Poland"
    },
    {
      "lon": 25.25,
      "lat": 46.25,
      "type": "hotspot_cell",
      "score": 150.364,
      "count": 406,
      "cell_deg": 0.5,
      "sources": {
        "GDELT": 406,
        "GDELT_DOC": 0,
        "DIRECT_FEED": 0,
        "USGS": 0,
        "GDACS": 0
      },
      "last7_score": 120.873,
      "prev7_score": 29.492,
      "trend": "up",
      "trend_arrow": "🔺",
      "change_pct": 309.9,
      "place": "Harghita, Romania"
    },
    {
      "lon": 24.25,
      "lat": 56.75,
      "type": "hotspot_cell",
      "score": 122.957,
      "count": 175,
      "cell_deg": 0.5,
      "sources": {
        "GDELT": 33,
        "GDELT_DOC": 0,
        "DIRECT_FEED": 142,
        "USGS": 0,
        "GDACS": 0
      },
      "last7_score": 120.897,
      "prev7_score": 2.06,
      "trend": "up",
      "trend_arrow": "🔺",
      "change_pct": 5768.0,
      "place": "Ķekavas novads, Latvia"
    },
    {
      "lon": 20.25,
      "lat": 47.25,
      "type": "hotspot_cell",
      "score": 92.414,
      "count": 252,
      "cell_deg": 0.5,
      "sources": {
        "GDELT": 251,
        "GDELT_DOC": 0,
        "DIRECT_FEED": 0,
        "USGS": 0,
        "GDACS": 1
      },
      "last7_score": 74.011,
      "prev7_score": 18.403,
      "trend": "up",
      "trend_arrow": "🔺",
      "change_pct": 302.2,
      "place": "Jász-Nagykun-Szolnok, Hungary"
    },
    {
      "lon": 27.75,
      "lat": 47.25,
      "type": "hotspot_cell",
      "score": 56.299,
      "count": 78,
      "cell_deg": 0.5,
      "sources": {
        "GDELT": 0,
        "GDELT_DOC": 78,
        "DIRECT_FEED": 0,
        "USGS": 0,
        "GDACS": 0
      },
      "last7_score": 56.299,
      "prev7_score": 0.0,
      "trend": "new",
      "trend_arrow": "🆕",
      "change_pct": null,
      "place": "Iași, Romania"
    }
  ]
}