{
  "generated_utc": "2026-06-04T20:01:38Z",
  "top": [
    {
      "lon": 26.25,
      "lat": 44.25,
      "type": "hotspot_cell",
      "score": 685.877,
      "count": 1076,
      "cell_deg": 0.5,
      "sources": {
        "GDELT": 240,
        "GDELT_DOC": 823,
        "DIRECT_FEED": 13,
        "USGS": 0,
        "GDACS": 0
      },
      "last7_score": 677.367,
      "prev7_score": 8.51,
      "trend": "up",
      "trend_arrow": "🔺",
      "change_pct": 7860.0,
      "place": "Giurgiu, Romania"
    },
    {
      "lon": 25.25,
      "lat": 54.75,
      "type": "hotspot_cell",
      "score": 662.926,
      "count": 1045,
      "cell_deg": 0.5,
      "sources": {
        "GDELT": 88,
        "GDELT_DOC": 955,
        "DIRECT_FEED": 2,
        "USGS": 0,
        "GDACS": 0
      },
      "last7_score": 656.765,
      "prev7_score": 6.161,
      "trend": "up",
      "trend_arrow": "🔺",
      "change_pct": 10560.0,
      "place": "Vilnius County, Lithuania"
    },
    {
      "lon": 14.25,
      "lat": 50.25,
      "type": "hotspot_cell",
      "score": 661.162,
      "count": 1139,
      "cell_deg": 0.5,
      "sources": {
        "GDELT": 150,
        "GDELT_DOC": 983,
        "DIRECT_FEED": 6,
        "USGS": 0,
        "GDACS": 0
      },
      "last7_score": 651.0,
      "prev7_score": 10.161,
      "trend": "up",
      "trend_arrow": "🔺",
      "change_pct": 6306.6,
      "place": "SO ORP Kralupy nad Vltavou, Czechia"
    },
    {
      "lon": 19.25,
      "lat": 47.75,
      "type": "hotspot_cell",
      "score": 254.856,
      "count": 450,
      "cell_deg": 0.5,
      "sources": {
        "GDELT": 256,
        "GDELT_DOC": 0,
        "DIRECT_FEED": 194,
        "USGS": 0,
        "GDACS": 0
      },
      "last7_score": 242.086,
      "prev7_score": 12.77,
      "trend": "up",
      "trend_arrow": "🔺",
      "change_pct": 1795.8,
      "place": "Pest, Hungary"
    },
    {
      "lon": 20.25,
      "lat": 52.25,
      "type": "hotspot_cell",
      "score": 217.45,
      "count": 706,
      "cell_deg": 0.5,
      "sources": {
        "GDELT": 706,
        "GDELT_DOC": 0,
        "DIRECT_FEED": 0,
        "USGS": 0,
        "GDACS": 0
      },
      "last7_score": 170.507,
      "prev7_score": 46.943,
      "trend": "up",
      "trend_arrow": "🔺",
      "change_pct": 263.2,
      "place": "Sochaczew County, Poland"
    },
    {
      "lon": 25.25,
      "lat": 46.25,
      "type": "hotspot_cell",
      "score": 196.49,
      "count": 479,
      "cell_deg": 0.5,
      "sources": {
        "GDELT": 479,
        "GDELT_DOC": 0,
        "DIRECT_FEED": 0,
        "USGS": 0,
        "GDACS": 0
      },
      "last7_score": 175.778,
      "prev7_score": 20.713,
      "trend": "up",
      "trend_arrow": "🔺",
      "change_pct": 748.6,
      "place": "Harghita, Romania"
    },
    {
      "lon": 24.25,
      "lat": 56.75,
      "type": "hotspot_cell",
      "score": 134.134,
      "count": 198,
      "cell_deg": 0.5,
      "sources": {
        "GDELT": 48,
        "GDELT_DOC": 0,
        "DIRECT_FEED": 150,
        "USGS": 0,
        "GDACS": 0
      },
      "last7_score": 130.501,
      "prev7_score": 3.634,
      "trend": "up",
      "trend_arrow": "🔺",
      "change_pct": 3491.5,
      "place": "Ķekavas novads, Latvia"
    },
    {
      "lon": 20.25,
      "lat": 47.25,
      "type": "hotspot_cell",
      "score": 108.355,
      "count": 273,
      "cell_deg": 0.5,
      "sources": {
        "GDELT": 273,
        "GDELT_DOC": 0,
        "DIRECT_FEED": 0,
        "USGS": 0,
        "GDACS": 0
      },
      "last7_score": 91.089,
      "prev7_score": 17.266,
      "trend": "up",
      "trend_arrow": "🔺",
      "change_pct": 427.6,
      "place": "Jász-Nagykun-Szolnok, Hungary"
    },
    {
      "lon": 21.25,
      "lat": 52.25,
      "type": "hotspot_cell",
      "score": 93.559,
      "count": 258,
      "cell_deg": 0.5,
      "sources": {
        "GDELT": 258,
        "GDELT_DOC": 0,
        "DIRECT_FEED": 0,
        "USGS": 0,
        "GDACS": 0
      },
      "last7_score": 78.785,
      "prev7_score": 14.774,
      "trend": "up",
      "trend_arrow": "🔺",
      "change_pct": 433.3,
      "place": "Warsaw, Poland"
    },
    {
      "lon": 24.25,
      "lat": 56.25,
      "type": "hotspot_cell",
      "score": 57.826,
      "count": 147,
      "cell_deg": 0.5,
      "sources": {
        "GDELT": 147,
        "GDELT_DOC": 0,
        "DIRECT_FEED": 0,
        "USGS": 0,
        "GDACS": 0
      },
      "last7_score": 46.856,
      "prev7_score": 10.969,
      "trend": "up",
      "trend_arrow": "🔺",
      "change_pct": 327.2,
      "place": "Namišių seniūnija, Lithuania"
    }
  ]
}