{
  "generated_utc": "2026-05-22T09:33:11Z",
  "top": [
    {
      "lon": 26.25,
      "lat": 44.25,
      "type": "hotspot_cell",
      "score": 976.219,
      "count": 1551,
      "cell_deg": 0.5,
      "sources": {
        "GDELT": 185,
        "GDELT_DOC": 1362,
        "DIRECT_FEED": 4,
        "USGS": 0,
        "GDACS": 0
      },
      "last7_score": 953.947,
      "prev7_score": 22.272,
      "trend": "up",
      "trend_arrow": "🔺",
      "change_pct": 4183.2,
      "place": "Giurgiu, Romania"
    },
    {
      "lon": 14.25,
      "lat": 50.25,
      "type": "hotspot_cell",
      "score": 916.933,
      "count": 1443,
      "cell_deg": 0.5,
      "sources": {
        "GDELT": 117,
        "GDELT_DOC": 1313,
        "DIRECT_FEED": 13,
        "USGS": 0,
        "GDACS": 0
      },
      "last7_score": 908.352,
      "prev7_score": 8.581,
      "trend": "up",
      "trend_arrow": "🔺",
      "change_pct": 10486.1,
      "place": "SO ORP Kralupy nad Vltavou, Czechia"
    },
    {
      "lon": 25.25,
      "lat": 54.75,
      "type": "hotspot_cell",
      "score": 622.155,
      "count": 1018,
      "cell_deg": 0.5,
      "sources": {
        "GDELT": 95,
        "GDELT_DOC": 922,
        "DIRECT_FEED": 1,
        "USGS": 0,
        "GDACS": 0
      },
      "last7_score": 616.078,
      "prev7_score": 6.077,
      "trend": "up",
      "trend_arrow": "🔺",
      "change_pct": 10038.1,
      "place": "Vilnius County, Lithuania"
    },
    {
      "lon": 20.25,
      "lat": 52.25,
      "type": "hotspot_cell",
      "score": 357.718,
      "count": 700,
      "cell_deg": 0.5,
      "sources": {
        "GDELT": 700,
        "GDELT_DOC": 0,
        "DIRECT_FEED": 0,
        "USGS": 0,
        "GDACS": 0
      },
      "last7_score": 307.3,
      "prev7_score": 50.418,
      "trend": "up",
      "trend_arrow": "🔺",
      "change_pct": 509.5,
      "place": "Sochaczew County, Poland"
    },
    {
      "lon": 19.25,
      "lat": 47.75,
      "type": "hotspot_cell",
      "score": 252.781,
      "count": 503,
      "cell_deg": 0.5,
      "sources": {
        "GDELT": 277,
        "GDELT_DOC": 0,
        "DIRECT_FEED": 226,
        "USGS": 0,
        "GDACS": 0
      },
      "last7_score": 227.788,
      "prev7_score": 24.993,
      "trend": "up",
      "trend_arrow": "🔺",
      "change_pct": 811.4,
      "place": "Pest, Hungary"
    },
    {
      "lon": 25.25,
      "lat": 46.25,
      "type": "hotspot_cell",
      "score": 123.369,
      "count": 290,
      "cell_deg": 0.5,
      "sources": {
        "GDELT": 290,
        "GDELT_DOC": 0,
        "DIRECT_FEED": 0,
        "USGS": 0,
        "GDACS": 0
      },
      "last7_score": 100.747,
      "prev7_score": 22.622,
      "trend": "up",
      "trend_arrow": "🔺",
      "change_pct": 345.4,
      "place": "Harghita, Romania"
    },
    {
      "lon": 24.25,
      "lat": 56.75,
      "type": "hotspot_cell",
      "score": 119.726,
      "count": 173,
      "cell_deg": 0.5,
      "sources": {
        "GDELT": 49,
        "GDELT_DOC": 0,
        "DIRECT_FEED": 124,
        "USGS": 0,
        "GDACS": 0
      },
      "last7_score": 116.645,
      "prev7_score": 3.082,
      "trend": "up",
      "trend_arrow": "🔺",
      "change_pct": 3685.2,
      "place": "Ķekavas novads, Latvia"
    },
    {
      "lon": 21.25,
      "lat": 52.25,
      "type": "hotspot_cell",
      "score": 113.213,
      "count": 245,
      "cell_deg": 0.5,
      "sources": {
        "GDELT": 245,
        "GDELT_DOC": 0,
        "DIRECT_FEED": 0,
        "USGS": 0,
        "GDACS": 0
      },
      "last7_score": 93.235,
      "prev7_score": 19.978,
      "trend": "up",
      "trend_arrow": "🔺",
      "change_pct": 366.7,
      "place": "Warsaw, Poland"
    },
    {
      "lon": 20.25,
      "lat": 47.25,
      "type": "hotspot_cell",
      "score": 98.461,
      "count": 279,
      "cell_deg": 0.5,
      "sources": {
        "GDELT": 279,
        "GDELT_DOC": 0,
        "DIRECT_FEED": 0,
        "USGS": 0,
        "GDACS": 0
      },
      "last7_score": 75.229,
      "prev7_score": 23.232,
      "trend": "up",
      "trend_arrow": "🔺",
      "change_pct": 223.8,
      "place": "Jász-Nagykun-Szolnok, Hungary"
    },
    {
      "lon": 24.25,
      "lat": 56.25,
      "type": "hotspot_cell",
      "score": 77.947,
      "count": 165,
      "cell_deg": 0.5,
      "sources": {
        "GDELT": 165,
        "GDELT_DOC": 0,
        "DIRECT_FEED": 0,
        "USGS": 0,
        "GDACS": 0
      },
      "last7_score": 65.885,
      "prev7_score": 12.061,
      "trend": "up",
      "trend_arrow": "🔺",
      "change_pct": 446.3,
      "place": "Namišių seniūnija, Lithuania"
    }
  ]
}