{
  "generated_utc": "2026-05-20T03:40:37Z",
  "top": [
    {
      "lon": 14.25,
      "lat": 50.25,
      "type": "hotspot_cell",
      "score": 867.567,
      "count": 1528,
      "cell_deg": 0.5,
      "sources": {
        "GDELT": 102,
        "GDELT_DOC": 1420,
        "DIRECT_FEED": 6,
        "USGS": 0,
        "GDACS": 0
      },
      "last7_score": 859.213,
      "prev7_score": 8.354,
      "trend": "up",
      "trend_arrow": "🔺",
      "change_pct": 10184.9,
      "place": "SO ORP Kralupy nad Vltavou, Czechia"
    },
    {
      "lon": 26.25,
      "lat": 44.25,
      "type": "hotspot_cell",
      "score": 859.689,
      "count": 1403,
      "cell_deg": 0.5,
      "sources": {
        "GDELT": 189,
        "GDELT_DOC": 1209,
        "DIRECT_FEED": 5,
        "USGS": 0,
        "GDACS": 0
      },
      "last7_score": 838.471,
      "prev7_score": 21.218,
      "trend": "up",
      "trend_arrow": "🔺",
      "change_pct": 3851.7,
      "place": "Giurgiu, Romania"
    },
    {
      "lon": 25.25,
      "lat": 54.75,
      "type": "hotspot_cell",
      "score": 570.731,
      "count": 980,
      "cell_deg": 0.5,
      "sources": {
        "GDELT": 72,
        "GDELT_DOC": 908,
        "DIRECT_FEED": 0,
        "USGS": 0,
        "GDACS": 0
      },
      "last7_score": 564.846,
      "prev7_score": 5.885,
      "trend": "up",
      "trend_arrow": "🔺",
      "change_pct": 9498.0,
      "place": "Vilnius County, Lithuania"
    },
    {
      "lon": 19.25,
      "lat": 47.75,
      "type": "hotspot_cell",
      "score": 233.283,
      "count": 510,
      "cell_deg": 0.5,
      "sources": {
        "GDELT": 289,
        "GDELT_DOC": 0,
        "DIRECT_FEED": 221,
        "USGS": 0,
        "GDACS": 0
      },
      "last7_score": 208.271,
      "prev7_score": 25.012,
      "trend": "up",
      "trend_arrow": "🔺",
      "change_pct": 732.7,
      "place": "Pest, Hungary"
    },
    {
      "lon": 20.25,
      "lat": 52.25,
      "type": "hotspot_cell",
      "score": 213.411,
      "count": 556,
      "cell_deg": 0.5,
      "sources": {
        "GDELT": 556,
        "GDELT_DOC": 0,
        "DIRECT_FEED": 0,
        "USGS": 0,
        "GDACS": 0
      },
      "last7_score": 173.141,
      "prev7_score": 40.27,
      "trend": "up",
      "trend_arrow": "🔺",
      "change_pct": 329.9,
      "place": "Sochaczew County, Poland"
    },
    {
      "lon": 24.25,
      "lat": 56.75,
      "type": "hotspot_cell",
      "score": 113.434,
      "count": 177,
      "cell_deg": 0.5,
      "sources": {
        "GDELT": 37,
        "GDELT_DOC": 0,
        "DIRECT_FEED": 140,
        "USGS": 0,
        "GDACS": 0
      },
      "last7_score": 111.945,
      "prev7_score": 1.489,
      "trend": "up",
      "trend_arrow": "🔺",
      "change_pct": 7419.1,
      "place": "Ķekavas novads, Latvia"
    },
    {
      "lon": 25.25,
      "lat": 46.25,
      "type": "hotspot_cell",
      "score": 112.05,
      "count": 270,
      "cell_deg": 0.5,
      "sources": {
        "GDELT": 270,
        "GDELT_DOC": 0,
        "DIRECT_FEED": 0,
        "USGS": 0,
        "GDACS": 0
      },
      "last7_score": 89.9,
      "prev7_score": 22.15,
      "trend": "up",
      "trend_arrow": "🔺",
      "change_pct": 305.9,
      "place": "Harghita, Romania"
    },
    {
      "lon": 20.25,
      "lat": 47.25,
      "type": "hotspot_cell",
      "score": 100.852,
      "count": 285,
      "cell_deg": 0.5,
      "sources": {
        "GDELT": 285,
        "GDELT_DOC": 0,
        "DIRECT_FEED": 0,
        "USGS": 0,
        "GDACS": 0
      },
      "last7_score": 75.545,
      "prev7_score": 25.307,
      "trend": "up",
      "trend_arrow": "🔺",
      "change_pct": 198.5,
      "place": "Jász-Nagykun-Szolnok, Hungary"
    },
    {
      "lon": 21.25,
      "lat": 52.25,
      "type": "hotspot_cell",
      "score": 84.986,
      "count": 219,
      "cell_deg": 0.5,
      "sources": {
        "GDELT": 219,
        "GDELT_DOC": 0,
        "DIRECT_FEED": 0,
        "USGS": 0,
        "GDACS": 0
      },
      "last7_score": 69.764,
      "prev7_score": 15.222,
      "trend": "up",
      "trend_arrow": "🔺",
      "change_pct": 358.3,
      "place": "Warsaw, Poland"
    },
    {
      "lon": 25.25,
      "lat": 57.25,
      "type": "hotspot_cell",
      "score": 79.903,
      "count": 191,
      "cell_deg": 0.5,
      "sources": {
        "GDELT": 191,
        "GDELT_DOC": 0,
        "DIRECT_FEED": 0,
        "USGS": 0,
        "GDACS": 0
      },
      "last7_score": 68.098,
      "prev7_score": 11.805,
      "trend": "up",
      "trend_arrow": "🔺",
      "change_pct": 476.9,
      "place": "Cēsu novads, Latvia"
    }
  ]
}