{
  "generated_utc": "2026-06-11T02:52:53Z",
  "top": [
    {
      "lon": 26.25,
      "lat": 44.25,
      "type": "hotspot_cell",
      "score": 549.65,
      "count": 1100,
      "cell_deg": 0.5,
      "sources": {
        "GDELT": 248,
        "GDELT_DOC": 841,
        "DIRECT_FEED": 11,
        "USGS": 0,
        "GDACS": 0
      },
      "last7_score": 527.223,
      "prev7_score": 22.427,
      "trend": "up",
      "trend_arrow": "🔺",
      "change_pct": 2250.8,
      "place": "Giurgiu, Romania"
    },
    {
      "lon": 14.25,
      "lat": 50.25,
      "type": "hotspot_cell",
      "score": 501.086,
      "count": 799,
      "cell_deg": 0.5,
      "sources": {
        "GDELT": 93,
        "GDELT_DOC": 706,
        "DIRECT_FEED": 0,
        "USGS": 0,
        "GDACS": 0
      },
      "last7_score": 490.753,
      "prev7_score": 10.333,
      "trend": "up",
      "trend_arrow": "🔺",
      "change_pct": 4649.5,
      "place": "SO ORP Kralupy nad Vltavou, Czechia"
    },
    {
      "lon": 25.25,
      "lat": 54.75,
      "type": "hotspot_cell",
      "score": 471.56,
      "count": 890,
      "cell_deg": 0.5,
      "sources": {
        "GDELT": 72,
        "GDELT_DOC": 817,
        "DIRECT_FEED": 1,
        "USGS": 0,
        "GDACS": 0
      },
      "last7_score": 464.56,
      "prev7_score": 7.0,
      "trend": "up",
      "trend_arrow": "🔺",
      "change_pct": 6536.5,
      "place": "Vilnius County, Lithuania"
    },
    {
      "lon": 19.25,
      "lat": 47.75,
      "type": "hotspot_cell",
      "score": 178.282,
      "count": 399,
      "cell_deg": 0.5,
      "sources": {
        "GDELT": 228,
        "GDELT_DOC": 0,
        "DIRECT_FEED": 171,
        "USGS": 0,
        "GDACS": 0
      },
      "last7_score": 153.445,
      "prev7_score": 24.836,
      "trend": "up",
      "trend_arrow": "🔺",
      "change_pct": 517.8,
      "place": "Pest, Hungary"
    },
    {
      "lon": 25.25,
      "lat": 46.25,
      "type": "hotspot_cell",
      "score": 175.967,
      "count": 519,
      "cell_deg": 0.5,
      "sources": {
        "GDELT": 519,
        "GDELT_DOC": 0,
        "DIRECT_FEED": 0,
        "USGS": 0,
        "GDACS": 0
      },
      "last7_score": 134.076,
      "prev7_score": 41.891,
      "trend": "up",
      "trend_arrow": "🔺",
      "change_pct": 220.1,
      "place": "Harghita, Romania"
    },
    {
      "lon": 20.25,
      "lat": 52.25,
      "type": "hotspot_cell",
      "score": 169.237,
      "count": 471,
      "cell_deg": 0.5,
      "sources": {
        "GDELT": 471,
        "GDELT_DOC": 0,
        "DIRECT_FEED": 0,
        "USGS": 0,
        "GDACS": 0
      },
      "last7_score": 128.22,
      "prev7_score": 41.017,
      "trend": "up",
      "trend_arrow": "🔺",
      "change_pct": 212.6,
      "place": "Sochaczew County, Poland"
    },
    {
      "lon": 24.25,
      "lat": 56.75,
      "type": "hotspot_cell",
      "score": 107.793,
      "count": 169,
      "cell_deg": 0.5,
      "sources": {
        "GDELT": 44,
        "GDELT_DOC": 0,
        "DIRECT_FEED": 125,
        "USGS": 0,
        "GDACS": 0
      },
      "last7_score": 103.939,
      "prev7_score": 3.853,
      "trend": "up",
      "trend_arrow": "🔺",
      "change_pct": 2597.3,
      "place": "Ķekavas novads, Latvia"
    },
    {
      "lon": 20.25,
      "lat": 47.25,
      "type": "hotspot_cell",
      "score": 91.484,
      "count": 249,
      "cell_deg": 0.5,
      "sources": {
        "GDELT": 249,
        "GDELT_DOC": 0,
        "DIRECT_FEED": 0,
        "USGS": 0,
        "GDACS": 0
      },
      "last7_score": 69.914,
      "prev7_score": 21.569,
      "trend": "up",
      "trend_arrow": "🔺",
      "change_pct": 224.1,
      "place": "Jász-Nagykun-Szolnok, Hungary"
    },
    {
      "lon": 21.25,
      "lat": 52.25,
      "type": "hotspot_cell",
      "score": 65.498,
      "count": 202,
      "cell_deg": 0.5,
      "sources": {
        "GDELT": 202,
        "GDELT_DOC": 0,
        "DIRECT_FEED": 0,
        "USGS": 0,
        "GDACS": 0
      },
      "last7_score": 46.809,
      "prev7_score": 18.689,
      "trend": "up",
      "trend_arrow": "🔺",
      "change_pct": 150.5,
      "place": "Warsaw, Poland"
    },
    {
      "lon": 25.25,
      "lat": 57.25,
      "type": "hotspot_cell",
      "score": 53.323,
      "count": 118,
      "cell_deg": 0.5,
      "sources": {
        "GDELT": 118,
        "GDELT_DOC": 0,
        "DIRECT_FEED": 0,
        "USGS": 0,
        "GDACS": 0
      },
      "last7_score": 43.251,
      "prev7_score": 10.072,
      "trend": "up",
      "trend_arrow": "🔺",
      "change_pct": 329.4,
      "place": "Cēsu novads, Latvia"
    }
  ]
}