{
  "generated_utc": "2026-04-18T18:57:08Z",
  "top": [
    {
      "lon": 14.25,
      "lat": 50.25,
      "type": "hotspot_cell",
      "score": 894.364,
      "count": 1449,
      "cell_deg": 0.5,
      "sources": {
        "GDELT": 125,
        "GDELT_DOC": 1324,
        "DIRECT_FEED": 0,
        "USGS": 0,
        "GDACS": 0
      },
      "last7_score": 889.229,
      "prev7_score": 5.135,
      "trend": "up",
      "trend_arrow": "🔺",
      "change_pct": 17217.1,
      "place": "SO ORP Kralupy nad Vltavou, Czechia"
    },
    {
      "lon": 26.25,
      "lat": 44.25,
      "type": "hotspot_cell",
      "score": 772.704,
      "count": 1271,
      "cell_deg": 0.5,
      "sources": {
        "GDELT": 109,
        "GDELT_DOC": 1160,
        "DIRECT_FEED": 2,
        "USGS": 0,
        "GDACS": 0
      },
      "last7_score": 767.136,
      "prev7_score": 5.568,
      "trend": "up",
      "trend_arrow": "🔺",
      "change_pct": 13677.6,
      "place": "Giurgiu, Romania"
    },
    {
      "lon": 19.25,
      "lat": 47.75,
      "type": "hotspot_cell",
      "score": 586.445,
      "count": 1525,
      "cell_deg": 0.5,
      "sources": {
        "GDELT": 1196,
        "GDELT_DOC": 0,
        "DIRECT_FEED": 329,
        "USGS": 0,
        "GDACS": 0
      },
      "last7_score": 528.136,
      "prev7_score": 58.309,
      "trend": "up",
      "trend_arrow": "🔺",
      "change_pct": 805.8,
      "place": "Pest, Hungary"
    },
    {
      "lon": 25.25,
      "lat": 54.75,
      "type": "hotspot_cell",
      "score": 509.846,
      "count": 821,
      "cell_deg": 0.5,
      "sources": {
        "GDELT": 75,
        "GDELT_DOC": 746,
        "DIRECT_FEED": 0,
        "USGS": 0,
        "GDACS": 0
      },
      "last7_score": 506.061,
      "prev7_score": 3.785,
      "trend": "up",
      "trend_arrow": "🔺",
      "change_pct": 13269.8,
      "place": "Vilnius County, Lithuania"
    },
    {
      "lon": 20.25,
      "lat": 47.25,
      "type": "hotspot_cell",
      "score": 303.69,
      "count": 823,
      "cell_deg": 0.5,
      "sources": {
        "GDELT": 823,
        "GDELT_DOC": 0,
        "DIRECT_FEED": 0,
        "USGS": 0,
        "GDACS": 0
      },
      "last7_score": 265.944,
      "prev7_score": 37.746,
      "trend": "up",
      "trend_arrow": "🔺",
      "change_pct": 604.6,
      "place": "Jász-Nagykun-Szolnok, Hungary"
    },
    {
      "lon": 20.25,
      "lat": 52.25,
      "type": "hotspot_cell",
      "score": 158.951,
      "count": 402,
      "cell_deg": 0.5,
      "sources": {
        "GDELT": 402,
        "GDELT_DOC": 0,
        "DIRECT_FEED": 0,
        "USGS": 0,
        "GDACS": 0
      },
      "last7_score": 135.123,
      "prev7_score": 23.828,
      "trend": "up",
      "trend_arrow": "🔺",
      "change_pct": 467.1,
      "place": "Sochaczew County, Poland"
    },
    {
      "lon": 24.25,
      "lat": 56.75,
      "type": "hotspot_cell",
      "score": 101.19,
      "count": 158,
      "cell_deg": 0.5,
      "sources": {
        "GDELT": 32,
        "GDELT_DOC": 0,
        "DIRECT_FEED": 126,
        "USGS": 0,
        "GDACS": 0
      },
      "last7_score": 99.683,
      "prev7_score": 1.506,
      "trend": "up",
      "trend_arrow": "🔺",
      "change_pct": 6517.4,
      "place": "Ķekavas novads, Latvia"
    },
    {
      "lon": 25.25,
      "lat": 46.25,
      "type": "hotspot_cell",
      "score": 97.648,
      "count": 262,
      "cell_deg": 0.5,
      "sources": {
        "GDELT": 262,
        "GDELT_DOC": 0,
        "DIRECT_FEED": 0,
        "USGS": 0,
        "GDACS": 0
      },
      "last7_score": 84.52,
      "prev7_score": 13.128,
      "trend": "up",
      "trend_arrow": "🔺",
      "change_pct": 543.8,
      "place": "Harghita, Romania"
    },
    {
      "lon": 15.25,
      "lat": 49.75,
      "type": "hotspot_cell",
      "score": 75.829,
      "count": 176,
      "cell_deg": 0.5,
      "sources": {
        "GDELT": 176,
        "GDELT_DOC": 0,
        "DIRECT_FEED": 0,
        "USGS": 0,
        "GDACS": 0
      },
      "last7_score": 67.151,
      "prev7_score": 8.679,
      "trend": "up",
      "trend_arrow": "🔺",
      "change_pct": 673.8,
      "place": "Vysočina Region, Czechia"
    },
    {
      "lon": 21.25,
      "lat": 52.25,
      "type": "hotspot_cell",
      "score": 74.051,
      "count": 174,
      "cell_deg": 0.5,
      "sources": {
        "GDELT": 174,
        "GDELT_DOC": 0,
        "DIRECT_FEED": 0,
        "USGS": 0,
        "GDACS": 0
      },
      "last7_score": 67.451,
      "prev7_score": 6.601,
      "trend": "up",
      "trend_arrow": "🔺",
      "change_pct": 921.9,
      "place": "Warsaw, Poland"
    }
  ]
}