{
  "generated_utc": "2026-06-18T02:51:39Z",
  "top": [
    {
      "lon": 26.25,
      "lat": 44.25,
      "type": "hotspot_cell",
      "score": 678.137,
      "count": 1074,
      "cell_deg": 0.5,
      "sources": {
        "GDELT": 154,
        "GDELT_DOC": 911,
        "DIRECT_FEED": 9,
        "USGS": 0,
        "GDACS": 0
      },
      "last7_score": 664.54,
      "prev7_score": 13.598,
      "trend": "up",
      "trend_arrow": "🔺",
      "change_pct": 4787.1,
      "place": "Giurgiu, Romania"
    },
    {
      "lon": 25.25,
      "lat": 54.75,
      "type": "hotspot_cell",
      "score": 539.115,
      "count": 797,
      "cell_deg": 0.5,
      "sources": {
        "GDELT": 55,
        "GDELT_DOC": 741,
        "DIRECT_FEED": 1,
        "USGS": 0,
        "GDACS": 0
      },
      "last7_score": 534.198,
      "prev7_score": 4.917,
      "trend": "up",
      "trend_arrow": "🔺",
      "change_pct": 10763.5,
      "place": "Vilnius County, Lithuania"
    },
    {
      "lon": 14.25,
      "lat": 50.25,
      "type": "hotspot_cell",
      "score": 417.983,
      "count": 747,
      "cell_deg": 0.5,
      "sources": {
        "GDELT": 88,
        "GDELT_DOC": 651,
        "DIRECT_FEED": 8,
        "USGS": 0,
        "GDACS": 0
      },
      "last7_score": 410.832,
      "prev7_score": 7.152,
      "trend": "up",
      "trend_arrow": "🔺",
      "change_pct": 5644.6,
      "place": "SO ORP Kralupy nad Vltavou, Czechia"
    },
    {
      "lon": 19.25,
      "lat": 47.75,
      "type": "hotspot_cell",
      "score": 174.404,
      "count": 322,
      "cell_deg": 0.5,
      "sources": {
        "GDELT": 153,
        "GDELT_DOC": 0,
        "DIRECT_FEED": 169,
        "USGS": 0,
        "GDACS": 0
      },
      "last7_score": 163.509,
      "prev7_score": 10.895,
      "trend": "up",
      "trend_arrow": "🔺",
      "change_pct": 1400.8,
      "place": "Pest, Hungary"
    },
    {
      "lon": 20.25,
      "lat": 52.25,
      "type": "hotspot_cell",
      "score": 172.161,
      "count": 430,
      "cell_deg": 0.5,
      "sources": {
        "GDELT": 430,
        "GDELT_DOC": 0,
        "DIRECT_FEED": 0,
        "USGS": 0,
        "GDACS": 0
      },
      "last7_score": 135.669,
      "prev7_score": 36.492,
      "trend": "up",
      "trend_arrow": "🔺",
      "change_pct": 271.8,
      "place": "Sochaczew County, Poland"
    },
    {
      "lon": 25.25,
      "lat": 46.25,
      "type": "hotspot_cell",
      "score": 158.317,
      "count": 410,
      "cell_deg": 0.5,
      "sources": {
        "GDELT": 410,
        "GDELT_DOC": 0,
        "DIRECT_FEED": 0,
        "USGS": 0,
        "GDACS": 0
      },
      "last7_score": 124.874,
      "prev7_score": 33.443,
      "trend": "up",
      "trend_arrow": "🔺",
      "change_pct": 273.4,
      "place": "Harghita, Romania"
    },
    {
      "lon": 24.25,
      "lat": 56.75,
      "type": "hotspot_cell",
      "score": 114.775,
      "count": 179,
      "cell_deg": 0.5,
      "sources": {
        "GDELT": 37,
        "GDELT_DOC": 0,
        "DIRECT_FEED": 142,
        "USGS": 0,
        "GDACS": 0
      },
      "last7_score": 111.275,
      "prev7_score": 3.499,
      "trend": "up",
      "trend_arrow": "🔺",
      "change_pct": 3079.9,
      "place": "Ķekavas novads, Latvia"
    },
    {
      "lon": 17.25,
      "lat": 48.25,
      "type": "hotspot_cell",
      "score": 97.284,
      "count": 160,
      "cell_deg": 0.5,
      "sources": {
        "GDELT": 159,
        "GDELT_DOC": 0,
        "DIRECT_FEED": 1,
        "USGS": 0,
        "GDACS": 0
      },
      "last7_score": 94.363,
      "prev7_score": 2.921,
      "trend": "up",
      "trend_arrow": "🔺",
      "change_pct": 3130.4,
      "place": "District of Pezinok, Slovakia"
    },
    {
      "lon": 20.25,
      "lat": 47.25,
      "type": "hotspot_cell",
      "score": 97.046,
      "count": 238,
      "cell_deg": 0.5,
      "sources": {
        "GDELT": 238,
        "GDELT_DOC": 0,
        "DIRECT_FEED": 0,
        "USGS": 0,
        "GDACS": 0
      },
      "last7_score": 78.25,
      "prev7_score": 18.797,
      "trend": "up",
      "trend_arrow": "🔺",
      "change_pct": 316.3,
      "place": "Jász-Nagykun-Szolnok, Hungary"
    },
    {
      "lon": 21.25,
      "lat": 52.25,
      "type": "hotspot_cell",
      "score": 90.82,
      "count": 177,
      "cell_deg": 0.5,
      "sources": {
        "GDELT": 177,
        "GDELT_DOC": 0,
        "DIRECT_FEED": 0,
        "USGS": 0,
        "GDACS": 0
      },
      "last7_score": 79.999,
      "prev7_score": 10.821,
      "trend": "up",
      "trend_arrow": "🔺",
      "change_pct": 639.3,
      "place": "Warsaw, Poland"
    }
  ]
}