{
  "generated_utc": "2026-04-16T13:54:53Z",
  "top": [
    {
      "lon": 14.25,
      "lat": 50.25,
      "type": "hotspot_cell",
      "score": 922.042,
      "count": 1385,
      "cell_deg": 0.5,
      "sources": {
        "GDELT": 80,
        "GDELT_DOC": 1305,
        "DIRECT_FEED": 0,
        "USGS": 0,
        "GDACS": 0
      },
      "last7_score": 916.68,
      "prev7_score": 5.363,
      "trend": "up",
      "trend_arrow": "🔺",
      "change_pct": 16993.5,
      "place": "SO ORP Kralupy nad Vltavou, Czechia"
    },
    {
      "lon": 26.25,
      "lat": 44.25,
      "type": "hotspot_cell",
      "score": 800.923,
      "count": 1327,
      "cell_deg": 0.5,
      "sources": {
        "GDELT": 107,
        "GDELT_DOC": 1219,
        "DIRECT_FEED": 1,
        "USGS": 0,
        "GDACS": 0
      },
      "last7_score": 792.133,
      "prev7_score": 8.791,
      "trend": "up",
      "trend_arrow": "🔺",
      "change_pct": 8911.0,
      "place": "Giurgiu, Romania"
    },
    {
      "lon": 19.25,
      "lat": 47.75,
      "type": "hotspot_cell",
      "score": 757.624,
      "count": 1476,
      "cell_deg": 0.5,
      "sources": {
        "GDELT": 1146,
        "GDELT_DOC": 0,
        "DIRECT_FEED": 330,
        "USGS": 0,
        "GDACS": 0
      },
      "last7_score": 690.534,
      "prev7_score": 67.091,
      "trend": "up",
      "trend_arrow": "🔺",
      "change_pct": 929.3,
      "place": "Pest, Hungary"
    },
    {
      "lon": 25.25,
      "lat": 54.75,
      "type": "hotspot_cell",
      "score": 525.034,
      "count": 860,
      "cell_deg": 0.5,
      "sources": {
        "GDELT": 74,
        "GDELT_DOC": 784,
        "DIRECT_FEED": 2,
        "USGS": 0,
        "GDACS": 0
      },
      "last7_score": 520.489,
      "prev7_score": 4.545,
      "trend": "up",
      "trend_arrow": "🔺",
      "change_pct": 11352.2,
      "place": "Vilnius County, Lithuania"
    },
    {
      "lon": 20.25,
      "lat": 47.25,
      "type": "hotspot_cell",
      "score": 364.384,
      "count": 750,
      "cell_deg": 0.5,
      "sources": {
        "GDELT": 750,
        "GDELT_DOC": 0,
        "DIRECT_FEED": 0,
        "USGS": 0,
        "GDACS": 0
      },
      "last7_score": 325.007,
      "prev7_score": 39.377,
      "trend": "up",
      "trend_arrow": "🔺",
      "change_pct": 725.4,
      "place": "Jász-Nagykun-Szolnok, Hungary"
    },
    {
      "lon": 20.25,
      "lat": 52.25,
      "type": "hotspot_cell",
      "score": 151.398,
      "count": 376,
      "cell_deg": 0.5,
      "sources": {
        "GDELT": 376,
        "GDELT_DOC": 0,
        "DIRECT_FEED": 0,
        "USGS": 0,
        "GDACS": 0
      },
      "last7_score": 124.785,
      "prev7_score": 26.614,
      "trend": "up",
      "trend_arrow": "🔺",
      "change_pct": 368.9,
      "place": "Sochaczew County, Poland"
    },
    {
      "lon": 24.25,
      "lat": 56.75,
      "type": "hotspot_cell",
      "score": 111.209,
      "count": 154,
      "cell_deg": 0.5,
      "sources": {
        "GDELT": 26,
        "GDELT_DOC": 0,
        "DIRECT_FEED": 128,
        "USGS": 0,
        "GDACS": 0
      },
      "last7_score": 109.321,
      "prev7_score": 1.888,
      "trend": "up",
      "trend_arrow": "🔺",
      "change_pct": 5689.5,
      "place": "Ķekavas novads, Latvia"
    },
    {
      "lon": 25.25,
      "lat": 46.25,
      "type": "hotspot_cell",
      "score": 109.563,
      "count": 249,
      "cell_deg": 0.5,
      "sources": {
        "GDELT": 249,
        "GDELT_DOC": 0,
        "DIRECT_FEED": 0,
        "USGS": 0,
        "GDACS": 0
      },
      "last7_score": 90.05,
      "prev7_score": 19.513,
      "trend": "up",
      "trend_arrow": "🔺",
      "change_pct": 361.5,
      "place": "Harghita, Romania"
    },
    {
      "lon": 21.25,
      "lat": 52.25,
      "type": "hotspot_cell",
      "score": 87.745,
      "count": 164,
      "cell_deg": 0.5,
      "sources": {
        "GDELT": 164,
        "GDELT_DOC": 0,
        "DIRECT_FEED": 0,
        "USGS": 0,
        "GDACS": 0
      },
      "last7_score": 80.137,
      "prev7_score": 7.608,
      "trend": "up",
      "trend_arrow": "🔺",
      "change_pct": 953.3,
      "place": "Warsaw, Poland"
    },
    {
      "lon": 15.25,
      "lat": 49.75,
      "type": "hotspot_cell",
      "score": 68.188,
      "count": 148,
      "cell_deg": 0.5,
      "sources": {
        "GDELT": 148,
        "GDELT_DOC": 0,
        "DIRECT_FEED": 0,
        "USGS": 0,
        "GDACS": 0
      },
      "last7_score": 59.635,
      "prev7_score": 8.553,
      "trend": "up",
      "trend_arrow": "🔺",
      "change_pct": 597.2,
      "place": "Vysočina Region, Czechia"
    }
  ]
}