{
  "generated_utc": "2026-07-07T14:17:40Z",
  "top": [
    {
      "lon": 14.25,
      "lat": 50.25,
      "type": "hotspot_cell",
      "score": 372.905,
      "count": 455,
      "cell_deg": 0.5,
      "sources": {
        "GDELT": 115,
        "GDELT_DOC": 339,
        "DIRECT_FEED": 1,
        "USGS": 0,
        "GDACS": 0
      },
      "last7_score": 363.604,
      "prev7_score": 9.301,
      "trend": "up",
      "trend_arrow": "🔺",
      "change_pct": 3809.4,
      "place": "SO ORP Kralupy nad Vltavou, Czechia"
    },
    {
      "lon": 26.25,
      "lat": 44.25,
      "type": "hotspot_cell",
      "score": 358.596,
      "count": 522,
      "cell_deg": 0.5,
      "sources": {
        "GDELT": 133,
        "GDELT_DOC": 382,
        "DIRECT_FEED": 7,
        "USGS": 0,
        "GDACS": 0
      },
      "last7_score": 348.375,
      "prev7_score": 10.221,
      "trend": "up",
      "trend_arrow": "🔺",
      "change_pct": 3308.4,
      "place": "Giurgiu, Romania"
    },
    {
      "lon": 20.25,
      "lat": 52.25,
      "type": "hotspot_cell",
      "score": 192.853,
      "count": 548,
      "cell_deg": 0.5,
      "sources": {
        "GDELT": 548,
        "GDELT_DOC": 0,
        "DIRECT_FEED": 0,
        "USGS": 0,
        "GDACS": 0
      },
      "last7_score": 156.32,
      "prev7_score": 36.533,
      "trend": "up",
      "trend_arrow": "🔺",
      "change_pct": 327.9,
      "place": "Sochaczew County, Poland"
    },
    {
      "lon": 19.25,
      "lat": 47.75,
      "type": "hotspot_cell",
      "score": 144.273,
      "count": 318,
      "cell_deg": 0.5,
      "sources": {
        "GDELT": 159,
        "GDELT_DOC": 0,
        "DIRECT_FEED": 159,
        "USGS": 0,
        "GDACS": 0
      },
      "last7_score": 132.199,
      "prev7_score": 12.074,
      "trend": "up",
      "trend_arrow": "🔺",
      "change_pct": 994.9,
      "place": "Pest, Hungary"
    },
    {
      "lon": 25.25,
      "lat": 46.25,
      "type": "hotspot_cell",
      "score": 135.166,
      "count": 347,
      "cell_deg": 0.5,
      "sources": {
        "GDELT": 347,
        "GDELT_DOC": 0,
        "DIRECT_FEED": 0,
        "USGS": 0,
        "GDACS": 0
      },
      "last7_score": 112.488,
      "prev7_score": 22.677,
      "trend": "up",
      "trend_arrow": "🔺",
      "change_pct": 396.0,
      "place": "Harghita, Romania"
    },
    {
      "lon": 25.25,
      "lat": 54.75,
      "type": "hotspot_cell",
      "score": 129.156,
      "count": 201,
      "cell_deg": 0.5,
      "sources": {
        "GDELT": 62,
        "GDELT_DOC": 138,
        "DIRECT_FEED": 1,
        "USGS": 0,
        "GDACS": 0
      },
      "last7_score": 124.135,
      "prev7_score": 5.021,
      "trend": "up",
      "trend_arrow": "🔺",
      "change_pct": 2372.6,
      "place": "Vilnius County, Lithuania"
    },
    {
      "lon": 24.25,
      "lat": 56.75,
      "type": "hotspot_cell",
      "score": 103.642,
      "count": 158,
      "cell_deg": 0.5,
      "sources": {
        "GDELT": 22,
        "GDELT_DOC": 0,
        "DIRECT_FEED": 136,
        "USGS": 0,
        "GDACS": 0
      },
      "last7_score": 102.186,
      "prev7_score": 1.456,
      "trend": "up",
      "trend_arrow": "🔺",
      "change_pct": 6916.5,
      "place": "Ķekavas novads, Latvia"
    },
    {
      "lon": 21.25,
      "lat": 52.25,
      "type": "hotspot_cell",
      "score": 99.622,
      "count": 287,
      "cell_deg": 0.5,
      "sources": {
        "GDELT": 287,
        "GDELT_DOC": 0,
        "DIRECT_FEED": 0,
        "USGS": 0,
        "GDACS": 0
      },
      "last7_score": 81.597,
      "prev7_score": 18.025,
      "trend": "up",
      "trend_arrow": "🔺",
      "change_pct": 352.7,
      "place": "Warsaw, Poland"
    },
    {
      "lon": 15.25,
      "lat": 49.75,
      "type": "hotspot_cell",
      "score": 58.894,
      "count": 168,
      "cell_deg": 0.5,
      "sources": {
        "GDELT": 168,
        "GDELT_DOC": 0,
        "DIRECT_FEED": 0,
        "USGS": 0,
        "GDACS": 0
      },
      "last7_score": 45.958,
      "prev7_score": 12.936,
      "trend": "up",
      "trend_arrow": "🔺",
      "change_pct": 255.3,
      "place": "Vysočina Region, Czechia"
    },
    {
      "lon": 20.25,
      "lat": 47.25,
      "type": "hotspot_cell",
      "score": 56.971,
      "count": 156,
      "cell_deg": 0.5,
      "sources": {
        "GDELT": 156,
        "GDELT_DOC": 0,
        "DIRECT_FEED": 0,
        "USGS": 0,
        "GDACS": 0
      },
      "last7_score": 46.879,
      "prev7_score": 10.092,
      "trend": "up",
      "trend_arrow": "🔺",
      "change_pct": 364.5,
      "place": "Jász-Nagykun-Szolnok, Hungary"
    }
  ]
}