{
  "generated_utc": "2026-03-12T18:59:30Z",
  "top": [
    {
      "lon": 26.25,
      "lat": 44.25,
      "type": "hotspot_cell",
      "score": 779.36,
      "count": 1259,
      "cell_deg": 0.5,
      "sources": {
        "GDELT": 188,
        "GDELT_DOC": 1068,
        "DIRECT_FEED": 3,
        "USGS": 0,
        "GDACS": 0
      },
      "last7_score": 766.049,
      "prev7_score": 13.311,
      "trend": "up",
      "trend_arrow": "🔺",
      "change_pct": 5655.0,
      "place": "Giurgiu, Romania"
    },
    {
      "lon": 14.25,
      "lat": 50.25,
      "type": "hotspot_cell",
      "score": 747.504,
      "count": 1206,
      "cell_deg": 0.5,
      "sources": {
        "GDELT": 145,
        "GDELT_DOC": 1057,
        "DIRECT_FEED": 4,
        "USGS": 0,
        "GDACS": 0
      },
      "last7_score": 735.616,
      "prev7_score": 11.888,
      "trend": "up",
      "trend_arrow": "🔺",
      "change_pct": 6087.9,
      "place": "SO ORP Kralupy nad Vltavou, Czechia"
    },
    {
      "lon": 25.25,
      "lat": 54.75,
      "type": "hotspot_cell",
      "score": 576.877,
      "count": 861,
      "cell_deg": 0.5,
      "sources": {
        "GDELT": 79,
        "GDELT_DOC": 782,
        "DIRECT_FEED": 0,
        "USGS": 0,
        "GDACS": 0
      },
      "last7_score": 572.826,
      "prev7_score": 4.051,
      "trend": "up",
      "trend_arrow": "🔺",
      "change_pct": 14041.6,
      "place": "Vilnius County, Lithuania"
    },
    {
      "lon": 19.25,
      "lat": 47.75,
      "type": "hotspot_cell",
      "score": 298.706,
      "count": 578,
      "cell_deg": 0.5,
      "sources": {
        "GDELT": 404,
        "GDELT_DOC": 0,
        "DIRECT_FEED": 174,
        "USGS": 0,
        "GDACS": 0
      },
      "last7_score": 277.868,
      "prev7_score": 20.837,
      "trend": "up",
      "trend_arrow": "🔺",
      "change_pct": 1233.5,
      "place": "Pest, Hungary"
    },
    {
      "lon": 20.25,
      "lat": 52.25,
      "type": "hotspot_cell",
      "score": 151.715,
      "count": 477,
      "cell_deg": 0.5,
      "sources": {
        "GDELT": 477,
        "GDELT_DOC": 0,
        "DIRECT_FEED": 0,
        "USGS": 0,
        "GDACS": 0
      },
      "last7_score": 117.767,
      "prev7_score": 33.948,
      "trend": "up",
      "trend_arrow": "🔺",
      "change_pct": 246.9,
      "place": "Sochaczew County, Poland"
    },
    {
      "lon": 20.25,
      "lat": 47.25,
      "type": "hotspot_cell",
      "score": 144.779,
      "count": 344,
      "cell_deg": 0.5,
      "sources": {
        "GDELT": 344,
        "GDELT_DOC": 0,
        "DIRECT_FEED": 0,
        "USGS": 0,
        "GDACS": 0
      },
      "last7_score": 121.432,
      "prev7_score": 23.347,
      "trend": "up",
      "trend_arrow": "🔺",
      "change_pct": 420.1,
      "place": "Jász-Nagykun-Szolnok, Hungary"
    },
    {
      "lon": 24.25,
      "lat": 56.75,
      "type": "hotspot_cell",
      "score": 139.0,
      "count": 180,
      "cell_deg": 0.5,
      "sources": {
        "GDELT": 28,
        "GDELT_DOC": 0,
        "DIRECT_FEED": 152,
        "USGS": 0,
        "GDACS": 0
      },
      "last7_score": 137.622,
      "prev7_score": 1.379,
      "trend": "up",
      "trend_arrow": "🔺",
      "change_pct": 9882.6,
      "place": "Ķekavas novads, Latvia"
    },
    {
      "lon": 25.25,
      "lat": 46.25,
      "type": "hotspot_cell",
      "score": 134.215,
      "count": 319,
      "cell_deg": 0.5,
      "sources": {
        "GDELT": 319,
        "GDELT_DOC": 0,
        "DIRECT_FEED": 0,
        "USGS": 0,
        "GDACS": 0
      },
      "last7_score": 111.524,
      "prev7_score": 22.691,
      "trend": "up",
      "trend_arrow": "🔺",
      "change_pct": 391.5,
      "place": "Harghita, Romania"
    },
    {
      "lon": 21.25,
      "lat": 52.25,
      "type": "hotspot_cell",
      "score": 78.544,
      "count": 231,
      "cell_deg": 0.5,
      "sources": {
        "GDELT": 231,
        "GDELT_DOC": 0,
        "DIRECT_FEED": 0,
        "USGS": 0,
        "GDACS": 0
      },
      "last7_score": 61.029,
      "prev7_score": 17.515,
      "trend": "up",
      "trend_arrow": "🔺",
      "change_pct": 248.4,
      "place": "Warsaw, Poland"
    },
    {
      "lon": 15.25,
      "lat": 49.75,
      "type": "hotspot_cell",
      "score": 62.913,
      "count": 164,
      "cell_deg": 0.5,
      "sources": {
        "GDELT": 164,
        "GDELT_DOC": 0,
        "DIRECT_FEED": 0,
        "USGS": 0,
        "GDACS": 0
      },
      "last7_score": 52.644,
      "prev7_score": 10.269,
      "trend": "up",
      "trend_arrow": "🔺",
      "change_pct": 412.6,
      "place": "Vysočina Region, Czechia"
    }
  ]
}