{
  "generated_utc": "2026-04-29T08:25:57Z",
  "top": [
    {
      "lon": 26.25,
      "lat": 44.25,
      "type": "hotspot_cell",
      "score": 970.511,
      "count": 1636,
      "cell_deg": 0.5,
      "sources": {
        "GDELT": 158,
        "GDELT_DOC": 1470,
        "DIRECT_FEED": 8,
        "USGS": 0,
        "GDACS": 0
      },
      "last7_score": 956.736,
      "prev7_score": 13.775,
      "trend": "up",
      "trend_arrow": "🔺",
      "change_pct": 6845.5,
      "place": "Giurgiu, Romania"
    },
    {
      "lon": 14.25,
      "lat": 50.25,
      "type": "hotspot_cell",
      "score": 942.601,
      "count": 1713,
      "cell_deg": 0.5,
      "sources": {
        "GDELT": 205,
        "GDELT_DOC": 1506,
        "DIRECT_FEED": 2,
        "USGS": 0,
        "GDACS": 0
      },
      "last7_score": 928.271,
      "prev7_score": 14.331,
      "trend": "up",
      "trend_arrow": "🔺",
      "change_pct": 6377.6,
      "place": "SO ORP Kralupy nad Vltavou, Czechia"
    },
    {
      "lon": 25.25,
      "lat": 54.75,
      "type": "hotspot_cell",
      "score": 669.917,
      "count": 1167,
      "cell_deg": 0.5,
      "sources": {
        "GDELT": 68,
        "GDELT_DOC": 1099,
        "DIRECT_FEED": 0,
        "USGS": 0,
        "GDACS": 0
      },
      "last7_score": 665.865,
      "prev7_score": 4.051,
      "trend": "up",
      "trend_arrow": "🔺",
      "change_pct": 16335.3,
      "place": "Vilnius County, Lithuania"
    },
    {
      "lon": 19.25,
      "lat": 47.75,
      "type": "hotspot_cell",
      "score": 255.685,
      "count": 628,
      "cell_deg": 0.5,
      "sources": {
        "GDELT": 402,
        "GDELT_DOC": 0,
        "DIRECT_FEED": 226,
        "USGS": 0,
        "GDACS": 0
      },
      "last7_score": 209.588,
      "prev7_score": 46.098,
      "trend": "up",
      "trend_arrow": "🔺",
      "change_pct": 354.7,
      "place": "Pest, Hungary"
    },
    {
      "lon": 20.25,
      "lat": 47.25,
      "type": "hotspot_cell",
      "score": 176.306,
      "count": 571,
      "cell_deg": 0.5,
      "sources": {
        "GDELT": 571,
        "GDELT_DOC": 0,
        "DIRECT_FEED": 0,
        "USGS": 0,
        "GDACS": 0
      },
      "last7_score": 123.526,
      "prev7_score": 52.78,
      "trend": "up",
      "trend_arrow": "🔺",
      "change_pct": 134.0,
      "place": "Jász-Nagykun-Szolnok, Hungary"
    },
    {
      "lon": 20.25,
      "lat": 52.25,
      "type": "hotspot_cell",
      "score": 166.186,
      "count": 456,
      "cell_deg": 0.5,
      "sources": {
        "GDELT": 456,
        "GDELT_DOC": 0,
        "DIRECT_FEED": 0,
        "USGS": 0,
        "GDACS": 0
      },
      "last7_score": 132.91,
      "prev7_score": 33.276,
      "trend": "up",
      "trend_arrow": "🔺",
      "change_pct": 299.4,
      "place": "Sochaczew County, Poland"
    },
    {
      "lon": 24.25,
      "lat": 56.75,
      "type": "hotspot_cell",
      "score": 115.296,
      "count": 165,
      "cell_deg": 0.5,
      "sources": {
        "GDELT": 29,
        "GDELT_DOC": 0,
        "DIRECT_FEED": 136,
        "USGS": 0,
        "GDACS": 0
      },
      "last7_score": 113.719,
      "prev7_score": 1.576,
      "trend": "up",
      "trend_arrow": "🔺",
      "change_pct": 7113.6,
      "place": "Ķekavas novads, Latvia"
    },
    {
      "lon": 25.25,
      "lat": 46.25,
      "type": "hotspot_cell",
      "score": 109.855,
      "count": 267,
      "cell_deg": 0.5,
      "sources": {
        "GDELT": 267,
        "GDELT_DOC": 0,
        "DIRECT_FEED": 0,
        "USGS": 0,
        "GDACS": 0
      },
      "last7_score": 91.963,
      "prev7_score": 17.892,
      "trend": "up",
      "trend_arrow": "🔺",
      "change_pct": 414.0,
      "place": "Harghita, Romania"
    },
    {
      "lon": 26.75,
      "lat": 47.75,
      "type": "hotspot_cell",
      "score": 90.452,
      "count": 158,
      "cell_deg": 0.5,
      "sources": {
        "GDELT": 2,
        "GDELT_DOC": 153,
        "DIRECT_FEED": 3,
        "USGS": 0,
        "GDACS": 0
      },
      "last7_score": 90.22,
      "prev7_score": 0.232,
      "trend": "up",
      "trend_arrow": "🔺",
      "change_pct": 38748.4,
      "place": "Botoșani, Romania"
    },
    {
      "lon": 15.25,
      "lat": 49.75,
      "type": "hotspot_cell",
      "score": 71.525,
      "count": 192,
      "cell_deg": 0.5,
      "sources": {
        "GDELT": 192,
        "GDELT_DOC": 0,
        "DIRECT_FEED": 0,
        "USGS": 0,
        "GDACS": 0
      },
      "last7_score": 56.537,
      "prev7_score": 14.989,
      "trend": "up",
      "trend_arrow": "🔺",
      "change_pct": 277.2,
      "place": "Vysočina Region, Czechia"
    }
  ]
}