{
  "generated_utc": "2026-03-20T13:07:09Z",
  "top": [
    {
      "lon": 14.25,
      "lat": 50.25,
      "type": "hotspot_cell",
      "score": 857.305,
      "count": 1377,
      "cell_deg": 0.5,
      "sources": {
        "GDELT": 108,
        "GDELT_DOC": 1267,
        "DIRECT_FEED": 2,
        "USGS": 0,
        "GDACS": 0
      },
      "last7_score": 850.056,
      "prev7_score": 7.249,
      "trend": "up",
      "trend_arrow": "🔺",
      "change_pct": 11626.4,
      "place": "SO ORP Kralupy nad Vltavou, Czechia"
    },
    {
      "lon": 26.25,
      "lat": 44.25,
      "type": "hotspot_cell",
      "score": 825.972,
      "count": 1398,
      "cell_deg": 0.5,
      "sources": {
        "GDELT": 179,
        "GDELT_DOC": 1219,
        "DIRECT_FEED": 0,
        "USGS": 0,
        "GDACS": 0
      },
      "last7_score": 809.152,
      "prev7_score": 16.82,
      "trend": "up",
      "trend_arrow": "🔺",
      "change_pct": 4710.7,
      "place": "Giurgiu, Romania"
    },
    {
      "lon": 25.25,
      "lat": 54.75,
      "type": "hotspot_cell",
      "score": 483.359,
      "count": 830,
      "cell_deg": 0.5,
      "sources": {
        "GDELT": 79,
        "GDELT_DOC": 751,
        "DIRECT_FEED": 0,
        "USGS": 0,
        "GDACS": 0
      },
      "last7_score": 477.0,
      "prev7_score": 6.359,
      "trend": "up",
      "trend_arrow": "🔺",
      "change_pct": 7400.6,
      "place": "Vilnius County, Lithuania"
    },
    {
      "lon": 19.25,
      "lat": 47.75,
      "type": "hotspot_cell",
      "score": 309.672,
      "count": 595,
      "cell_deg": 0.5,
      "sources": {
        "GDELT": 379,
        "GDELT_DOC": 0,
        "DIRECT_FEED": 216,
        "USGS": 0,
        "GDACS": 0
      },
      "last7_score": 282.94,
      "prev7_score": 26.731,
      "trend": "up",
      "trend_arrow": "🔺",
      "change_pct": 958.5,
      "place": "Pest, Hungary"
    },
    {
      "lon": 20.25,
      "lat": 52.25,
      "type": "hotspot_cell",
      "score": 176.929,
      "count": 421,
      "cell_deg": 0.5,
      "sources": {
        "GDELT": 421,
        "GDELT_DOC": 0,
        "DIRECT_FEED": 0,
        "USGS": 0,
        "GDACS": 0
      },
      "last7_score": 146.891,
      "prev7_score": 30.038,
      "trend": "up",
      "trend_arrow": "🔺",
      "change_pct": 389.0,
      "place": "Sochaczew County, Poland"
    },
    {
      "lon": 20.25,
      "lat": 47.25,
      "type": "hotspot_cell",
      "score": 176.756,
      "count": 404,
      "cell_deg": 0.5,
      "sources": {
        "GDELT": 404,
        "GDELT_DOC": 0,
        "DIRECT_FEED": 0,
        "USGS": 0,
        "GDACS": 0
      },
      "last7_score": 148.572,
      "prev7_score": 28.184,
      "trend": "up",
      "trend_arrow": "🔺",
      "change_pct": 427.1,
      "place": "Jász-Nagykun-Szolnok, Hungary"
    },
    {
      "lon": 25.25,
      "lat": 46.25,
      "type": "hotspot_cell",
      "score": 127.187,
      "count": 310,
      "cell_deg": 0.5,
      "sources": {
        "GDELT": 310,
        "GDELT_DOC": 0,
        "DIRECT_FEED": 0,
        "USGS": 0,
        "GDACS": 0
      },
      "last7_score": 102.248,
      "prev7_score": 24.939,
      "trend": "up",
      "trend_arrow": "🔺",
      "change_pct": 310.0,
      "place": "Harghita, Romania"
    },
    {
      "lon": 24.25,
      "lat": 56.75,
      "type": "hotspot_cell",
      "score": 115.198,
      "count": 164,
      "cell_deg": 0.5,
      "sources": {
        "GDELT": 32,
        "GDELT_DOC": 0,
        "DIRECT_FEED": 132,
        "USGS": 0,
        "GDACS": 0
      },
      "last7_score": 112.488,
      "prev7_score": 2.71,
      "trend": "up",
      "trend_arrow": "🔺",
      "change_pct": 4050.9,
      "place": "Ķekavas novads, Latvia"
    },
    {
      "lon": 15.25,
      "lat": 49.75,
      "type": "hotspot_cell",
      "score": 74.672,
      "count": 163,
      "cell_deg": 0.5,
      "sources": {
        "GDELT": 163,
        "GDELT_DOC": 0,
        "DIRECT_FEED": 0,
        "USGS": 0,
        "GDACS": 0
      },
      "last7_score": 64.289,
      "prev7_score": 10.382,
      "trend": "up",
      "trend_arrow": "🔺",
      "change_pct": 519.2,
      "place": "Vysočina Region, Czechia"
    },
    {
      "lon": 21.25,
      "lat": 52.25,
      "type": "hotspot_cell",
      "score": 69.098,
      "count": 185,
      "cell_deg": 0.5,
      "sources": {
        "GDELT": 185,
        "GDELT_DOC": 0,
        "DIRECT_FEED": 0,
        "USGS": 0,
        "GDACS": 0
      },
      "last7_score": 54.11,
      "prev7_score": 14.988,
      "trend": "up",
      "trend_arrow": "🔺",
      "change_pct": 261.0,
      "place": "Warsaw, Poland"
    }
  ]
}