{
  "generated_utc": "2026-04-27T08:31:41Z",
  "top": [
    {
      "lon": 14.25,
      "lat": 50.25,
      "type": "hotspot_cell",
      "score": 957.725,
      "count": 1757,
      "cell_deg": 0.5,
      "sources": {
        "GDELT": 184,
        "GDELT_DOC": 1571,
        "DIRECT_FEED": 2,
        "USGS": 0,
        "GDACS": 0
      },
      "last7_score": 943.522,
      "prev7_score": 14.203,
      "trend": "up",
      "trend_arrow": "🔺",
      "change_pct": 6543.3,
      "place": "SO ORP Kralupy nad Vltavou, Czechia"
    },
    {
      "lon": 26.25,
      "lat": 44.25,
      "type": "hotspot_cell",
      "score": 955.785,
      "count": 1561,
      "cell_deg": 0.5,
      "sources": {
        "GDELT": 138,
        "GDELT_DOC": 1415,
        "DIRECT_FEED": 8,
        "USGS": 0,
        "GDACS": 0
      },
      "last7_score": 944.886,
      "prev7_score": 10.9,
      "trend": "up",
      "trend_arrow": "🔺",
      "change_pct": 8568.8,
      "place": "Giurgiu, Romania"
    },
    {
      "lon": 25.25,
      "lat": 54.75,
      "type": "hotspot_cell",
      "score": 651.099,
      "count": 1159,
      "cell_deg": 0.5,
      "sources": {
        "GDELT": 67,
        "GDELT_DOC": 1092,
        "DIRECT_FEED": 0,
        "USGS": 0,
        "GDACS": 0
      },
      "last7_score": 645.772,
      "prev7_score": 5.327,
      "trend": "up",
      "trend_arrow": "🔺",
      "change_pct": 12021.9,
      "place": "Vilnius County, Lithuania"
    },
    {
      "lon": 19.25,
      "lat": 47.75,
      "type": "hotspot_cell",
      "score": 275.167,
      "count": 801,
      "cell_deg": 0.5,
      "sources": {
        "GDELT": 557,
        "GDELT_DOC": 0,
        "DIRECT_FEED": 244,
        "USGS": 0,
        "GDACS": 0
      },
      "last7_score": 234.543,
      "prev7_score": 40.624,
      "trend": "up",
      "trend_arrow": "🔺",
      "change_pct": 477.4,
      "place": "Pest, Hungary"
    },
    {
      "lon": 20.25,
      "lat": 47.25,
      "type": "hotspot_cell",
      "score": 202.949,
      "count": 683,
      "cell_deg": 0.5,
      "sources": {
        "GDELT": 683,
        "GDELT_DOC": 0,
        "DIRECT_FEED": 0,
        "USGS": 0,
        "GDACS": 0
      },
      "last7_score": 155.968,
      "prev7_score": 46.982,
      "trend": "up",
      "trend_arrow": "🔺",
      "change_pct": 232.0,
      "place": "Jász-Nagykun-Szolnok, Hungary"
    },
    {
      "lon": 20.25,
      "lat": 52.25,
      "type": "hotspot_cell",
      "score": 151.059,
      "count": 445,
      "cell_deg": 0.5,
      "sources": {
        "GDELT": 445,
        "GDELT_DOC": 0,
        "DIRECT_FEED": 0,
        "USGS": 0,
        "GDACS": 0
      },
      "last7_score": 122.398,
      "prev7_score": 28.661,
      "trend": "up",
      "trend_arrow": "🔺",
      "change_pct": 327.0,
      "place": "Sochaczew County, Poland"
    },
    {
      "lon": 26.75,
      "lat": 47.75,
      "type": "hotspot_cell",
      "score": 140.129,
      "count": 168,
      "cell_deg": 0.5,
      "sources": {
        "GDELT": 2,
        "GDELT_DOC": 163,
        "DIRECT_FEED": 3,
        "USGS": 0,
        "GDACS": 0
      },
      "last7_score": 139.76,
      "prev7_score": 0.368,
      "trend": "up",
      "trend_arrow": "🔺",
      "change_pct": 37846.2,
      "place": "Botoșani, Romania"
    },
    {
      "lon": 24.25,
      "lat": 56.75,
      "type": "hotspot_cell",
      "score": 101.374,
      "count": 173,
      "cell_deg": 0.5,
      "sources": {
        "GDELT": 32,
        "GDELT_DOC": 0,
        "DIRECT_FEED": 141,
        "USGS": 0,
        "GDACS": 0
      },
      "last7_score": 99.576,
      "prev7_score": 1.798,
      "trend": "up",
      "trend_arrow": "🔺",
      "change_pct": 5437.3,
      "place": "Ķekavas novads, Latvia"
    },
    {
      "lon": 22.25,
      "lat": 55.25,
      "type": "hotspot_cell",
      "score": 79.989,
      "count": 110,
      "cell_deg": 0.5,
      "sources": {
        "GDELT": 0,
        "GDELT_DOC": 109,
        "DIRECT_FEED": 1,
        "USGS": 0,
        "GDACS": 0
      },
      "last7_score": 79.989,
      "prev7_score": 0.0,
      "trend": "new",
      "trend_arrow": "🆕",
      "change_pct": null,
      "place": "Tauragės seniūnija, Lithuania"
    },
    {
      "lon": 25.25,
      "lat": 46.25,
      "type": "hotspot_cell",
      "score": 79.542,
      "count": 265,
      "cell_deg": 0.5,
      "sources": {
        "GDELT": 265,
        "GDELT_DOC": 0,
        "DIRECT_FEED": 0,
        "USGS": 0,
        "GDACS": 0
      },
      "last7_score": 61.564,
      "prev7_score": 17.978,
      "trend": "up",
      "trend_arrow": "🔺",
      "change_pct": 242.4,
      "place": "Harghita, Romania"
    }
  ]
}