{
  "generated_utc": "2026-06-08T02:54:36Z",
  "top": [
    {
      "lon": 26.25,
      "lat": 44.25,
      "type": "hotspot_cell",
      "score": 641.244,
      "count": 1144,
      "cell_deg": 0.5,
      "sources": {
        "GDELT": 246,
        "GDELT_DOC": 892,
        "DIRECT_FEED": 6,
        "USGS": 0,
        "GDACS": 0
      },
      "last7_score": 617.711,
      "prev7_score": 23.533,
      "trend": "up",
      "trend_arrow": "🔺",
      "change_pct": 2524.8,
      "place": "Giurgiu, Romania"
    },
    {
      "lon": 25.25,
      "lat": 54.75,
      "type": "hotspot_cell",
      "score": 548.369,
      "count": 985,
      "cell_deg": 0.5,
      "sources": {
        "GDELT": 76,
        "GDELT_DOC": 906,
        "DIRECT_FEED": 3,
        "USGS": 0,
        "GDACS": 0
      },
      "last7_score": 541.502,
      "prev7_score": 6.867,
      "trend": "up",
      "trend_arrow": "🔺",
      "change_pct": 7785.1,
      "place": "Vilnius County, Lithuania"
    },
    {
      "lon": 14.25,
      "lat": 50.25,
      "type": "hotspot_cell",
      "score": 400.894,
      "count": 883,
      "cell_deg": 0.5,
      "sources": {
        "GDELT": 116,
        "GDELT_DOC": 763,
        "DIRECT_FEED": 4,
        "USGS": 0,
        "GDACS": 0
      },
      "last7_score": 390.824,
      "prev7_score": 10.07,
      "trend": "up",
      "trend_arrow": "🔺",
      "change_pct": 3780.9,
      "place": "SO ORP Kralupy nad Vltavou, Czechia"
    },
    {
      "lon": 19.25,
      "lat": 47.75,
      "type": "hotspot_cell",
      "score": 183.923,
      "count": 424,
      "cell_deg": 0.5,
      "sources": {
        "GDELT": 250,
        "GDELT_DOC": 0,
        "DIRECT_FEED": 174,
        "USGS": 0,
        "GDACS": 0
      },
      "last7_score": 163.674,
      "prev7_score": 20.248,
      "trend": "up",
      "trend_arrow": "🔺",
      "change_pct": 708.3,
      "place": "Pest, Hungary"
    },
    {
      "lon": 20.25,
      "lat": 52.25,
      "type": "hotspot_cell",
      "score": 169.781,
      "count": 522,
      "cell_deg": 0.5,
      "sources": {
        "GDELT": 522,
        "GDELT_DOC": 0,
        "DIRECT_FEED": 0,
        "USGS": 0,
        "GDACS": 0
      },
      "last7_score": 127.825,
      "prev7_score": 41.956,
      "trend": "up",
      "trend_arrow": "🔺",
      "change_pct": 204.7,
      "place": "Sochaczew County, Poland"
    },
    {
      "lon": 25.25,
      "lat": 46.25,
      "type": "hotspot_cell",
      "score": 160.879,
      "count": 478,
      "cell_deg": 0.5,
      "sources": {
        "GDELT": 478,
        "GDELT_DOC": 0,
        "DIRECT_FEED": 0,
        "USGS": 0,
        "GDACS": 0
      },
      "last7_score": 121.155,
      "prev7_score": 39.724,
      "trend": "up",
      "trend_arrow": "🔺",
      "change_pct": 205.0,
      "place": "Harghita, Romania"
    },
    {
      "lon": 24.25,
      "lat": 56.75,
      "type": "hotspot_cell",
      "score": 110.642,
      "count": 194,
      "cell_deg": 0.5,
      "sources": {
        "GDELT": 50,
        "GDELT_DOC": 0,
        "DIRECT_FEED": 144,
        "USGS": 0,
        "GDACS": 0
      },
      "last7_score": 107.127,
      "prev7_score": 3.515,
      "trend": "up",
      "trend_arrow": "🔺",
      "change_pct": 2948.1,
      "place": "Ķekavas novads, Latvia"
    },
    {
      "lon": 20.25,
      "lat": 47.25,
      "type": "hotspot_cell",
      "score": 85.624,
      "count": 257,
      "cell_deg": 0.5,
      "sources": {
        "GDELT": 257,
        "GDELT_DOC": 0,
        "DIRECT_FEED": 0,
        "USGS": 0,
        "GDACS": 0
      },
      "last7_score": 64.437,
      "prev7_score": 21.187,
      "trend": "up",
      "trend_arrow": "🔺",
      "change_pct": 204.1,
      "place": "Jász-Nagykun-Szolnok, Hungary"
    },
    {
      "lon": 21.25,
      "lat": 52.25,
      "type": "hotspot_cell",
      "score": 63.984,
      "count": 213,
      "cell_deg": 0.5,
      "sources": {
        "GDELT": 213,
        "GDELT_DOC": 0,
        "DIRECT_FEED": 0,
        "USGS": 0,
        "GDACS": 0
      },
      "last7_score": 46.028,
      "prev7_score": 17.956,
      "trend": "up",
      "trend_arrow": "🔺",
      "change_pct": 156.3,
      "place": "Warsaw, Poland"
    },
    {
      "lon": 15.25,
      "lat": 49.75,
      "type": "hotspot_cell",
      "score": 44.566,
      "count": 151,
      "cell_deg": 0.5,
      "sources": {
        "GDELT": 151,
        "GDELT_DOC": 0,
        "DIRECT_FEED": 0,
        "USGS": 0,
        "GDACS": 0
      },
      "last7_score": 32.155,
      "prev7_score": 12.412,
      "trend": "up",
      "trend_arrow": "🔺",
      "change_pct": 159.1,
      "place": "Vysočina Region, Czechia"
    }
  ]
}