{
  "generated_utc": "2026-05-24T08:26:14Z",
  "top": [
    {
      "lon": 14.25,
      "lat": 50.25,
      "type": "hotspot_cell",
      "score": 973.063,
      "count": 1524,
      "cell_deg": 0.5,
      "sources": {
        "GDELT": 138,
        "GDELT_DOC": 1369,
        "DIRECT_FEED": 17,
        "USGS": 0,
        "GDACS": 0
      },
      "last7_score": 965.29,
      "prev7_score": 7.773,
      "trend": "up",
      "trend_arrow": "🔺",
      "change_pct": 12318.4,
      "place": "SO ORP Kralupy nad Vltavou, Czechia"
    },
    {
      "lon": 26.25,
      "lat": 44.25,
      "type": "hotspot_cell",
      "score": 827.793,
      "count": 1522,
      "cell_deg": 0.5,
      "sources": {
        "GDELT": 191,
        "GDELT_DOC": 1329,
        "DIRECT_FEED": 2,
        "USGS": 0,
        "GDACS": 0
      },
      "last7_score": 812.9,
      "prev7_score": 14.893,
      "trend": "up",
      "trend_arrow": "🔺",
      "change_pct": 5358.4,
      "place": "Giurgiu, Romania"
    },
    {
      "lon": 25.25,
      "lat": 54.75,
      "type": "hotspot_cell",
      "score": 715.106,
      "count": 1097,
      "cell_deg": 0.5,
      "sources": {
        "GDELT": 101,
        "GDELT_DOC": 995,
        "DIRECT_FEED": 1,
        "USGS": 0,
        "GDACS": 0
      },
      "last7_score": 711.156,
      "prev7_score": 3.95,
      "trend": "up",
      "trend_arrow": "🔺",
      "change_pct": 17902.3,
      "place": "Vilnius County, Lithuania"
    },
    {
      "lon": 20.25,
      "lat": 52.25,
      "type": "hotspot_cell",
      "score": 358.307,
      "count": 791,
      "cell_deg": 0.5,
      "sources": {
        "GDELT": 791,
        "GDELT_DOC": 0,
        "DIRECT_FEED": 0,
        "USGS": 0,
        "GDACS": 0
      },
      "last7_score": 313.944,
      "prev7_score": 44.363,
      "trend": "up",
      "trend_arrow": "🔺",
      "change_pct": 607.7,
      "place": "Sochaczew County, Poland"
    },
    {
      "lon": 19.25,
      "lat": 47.75,
      "type": "hotspot_cell",
      "score": 218.263,
      "count": 477,
      "cell_deg": 0.5,
      "sources": {
        "GDELT": 242,
        "GDELT_DOC": 0,
        "DIRECT_FEED": 235,
        "USGS": 0,
        "GDACS": 0
      },
      "last7_score": 202.275,
      "prev7_score": 15.988,
      "trend": "up",
      "trend_arrow": "🔺",
      "change_pct": 1165.2,
      "place": "Pest, Hungary"
    },
    {
      "lon": 25.25,
      "lat": 46.25,
      "type": "hotspot_cell",
      "score": 118.55,
      "count": 322,
      "cell_deg": 0.5,
      "sources": {
        "GDELT": 322,
        "GDELT_DOC": 0,
        "DIRECT_FEED": 0,
        "USGS": 0,
        "GDACS": 0
      },
      "last7_score": 100.84,
      "prev7_score": 17.709,
      "trend": "up",
      "trend_arrow": "🔺",
      "change_pct": 469.4,
      "place": "Harghita, Romania"
    },
    {
      "lon": 21.25,
      "lat": 52.25,
      "type": "hotspot_cell",
      "score": 111.681,
      "count": 272,
      "cell_deg": 0.5,
      "sources": {
        "GDELT": 272,
        "GDELT_DOC": 0,
        "DIRECT_FEED": 0,
        "USGS": 0,
        "GDACS": 0
      },
      "last7_score": 95.678,
      "prev7_score": 16.002,
      "trend": "up",
      "trend_arrow": "🔺",
      "change_pct": 497.9,
      "place": "Warsaw, Poland"
    },
    {
      "lon": 24.25,
      "lat": 56.75,
      "type": "hotspot_cell",
      "score": 99.899,
      "count": 169,
      "cell_deg": 0.5,
      "sources": {
        "GDELT": 51,
        "GDELT_DOC": 0,
        "DIRECT_FEED": 118,
        "USGS": 0,
        "GDACS": 0
      },
      "last7_score": 96.525,
      "prev7_score": 3.374,
      "trend": "up",
      "trend_arrow": "🔺",
      "change_pct": 2761.0,
      "place": "Ķekavas novads, Latvia"
    },
    {
      "lon": 20.25,
      "lat": 47.25,
      "type": "hotspot_cell",
      "score": 94.563,
      "count": 286,
      "cell_deg": 0.5,
      "sources": {
        "GDELT": 286,
        "GDELT_DOC": 0,
        "DIRECT_FEED": 0,
        "USGS": 0,
        "GDACS": 0
      },
      "last7_score": 77.086,
      "prev7_score": 17.477,
      "trend": "up",
      "trend_arrow": "🔺",
      "change_pct": 341.1,
      "place": "Jász-Nagykun-Szolnok, Hungary"
    },
    {
      "lon": 26.25,
      "lat": 59.25,
      "type": "hotspot_cell",
      "score": 67.221,
      "count": 159,
      "cell_deg": 0.5,
      "sources": {
        "GDELT": 159,
        "GDELT_DOC": 0,
        "DIRECT_FEED": 0,
        "USGS": 0,
        "GDACS": 0
      },
      "last7_score": 59.892,
      "prev7_score": 7.329,
      "trend": "up",
      "trend_arrow": "🔺",
      "change_pct": 717.1,
      "place": "Lääne-Viru County, Estonia"
    }
  ]
}