{
  "generated_utc": "2026-07-13T14:17:16Z",
  "top": [
    {
      "lon": 14.25,
      "lat": 50.25,
      "type": "hotspot_cell",
      "score": 726.938,
      "count": 1358,
      "cell_deg": 0.5,
      "sources": {
        "GDELT": 101,
        "GDELT_DOC": 1250,
        "DIRECT_FEED": 7,
        "USGS": 0,
        "GDACS": 0
      },
      "last7_score": 719.741,
      "prev7_score": 7.197,
      "trend": "up",
      "trend_arrow": "🔺",
      "change_pct": 9900.1,
      "place": "SO ORP Kralupy nad Vltavou, Czechia"
    },
    {
      "lon": 26.25,
      "lat": 44.25,
      "type": "hotspot_cell",
      "score": 474.419,
      "count": 812,
      "cell_deg": 0.5,
      "sources": {
        "GDELT": 114,
        "GDELT_DOC": 694,
        "DIRECT_FEED": 4,
        "USGS": 0,
        "GDACS": 0
      },
      "last7_score": 467.909,
      "prev7_score": 6.51,
      "trend": "up",
      "trend_arrow": "🔺",
      "change_pct": 7087.9,
      "place": "Giurgiu, Romania"
    },
    {
      "lon": 25.25,
      "lat": 54.75,
      "type": "hotspot_cell",
      "score": 461.655,
      "count": 836,
      "cell_deg": 0.5,
      "sources": {
        "GDELT": 74,
        "GDELT_DOC": 761,
        "DIRECT_FEED": 1,
        "USGS": 0,
        "GDACS": 0
      },
      "last7_score": 457.465,
      "prev7_score": 4.19,
      "trend": "up",
      "trend_arrow": "🔺",
      "change_pct": 10818.2,
      "place": "Vilnius County, Lithuania"
    },
    {
      "lon": 19.25,
      "lat": 47.75,
      "type": "hotspot_cell",
      "score": 154.765,
      "count": 309,
      "cell_deg": 0.5,
      "sources": {
        "GDELT": 146,
        "GDELT_DOC": 0,
        "DIRECT_FEED": 163,
        "USGS": 0,
        "GDACS": 0
      },
      "last7_score": 147.64,
      "prev7_score": 7.125,
      "trend": "up",
      "trend_arrow": "🔺",
      "change_pct": 1972.2,
      "place": "Pest, Hungary"
    },
    {
      "lon": 20.25,
      "lat": 52.25,
      "type": "hotspot_cell",
      "score": 149.093,
      "count": 494,
      "cell_deg": 0.5,
      "sources": {
        "GDELT": 494,
        "GDELT_DOC": 0,
        "DIRECT_FEED": 0,
        "USGS": 0,
        "GDACS": 0
      },
      "last7_score": 116.458,
      "prev7_score": 32.634,
      "trend": "up",
      "trend_arrow": "🔺",
      "change_pct": 256.9,
      "place": "Sochaczew County, Poland"
    },
    {
      "lon": 25.25,
      "lat": 46.25,
      "type": "hotspot_cell",
      "score": 123.284,
      "count": 349,
      "cell_deg": 0.5,
      "sources": {
        "GDELT": 349,
        "GDELT_DOC": 0,
        "DIRECT_FEED": 0,
        "USGS": 0,
        "GDACS": 0
      },
      "last7_score": 101.055,
      "prev7_score": 22.23,
      "trend": "up",
      "trend_arrow": "🔺",
      "change_pct": 354.6,
      "place": "Harghita, Romania"
    },
    {
      "lon": 24.25,
      "lat": 56.75,
      "type": "hotspot_cell",
      "score": 96.87,
      "count": 152,
      "cell_deg": 0.5,
      "sources": {
        "GDELT": 19,
        "GDELT_DOC": 0,
        "DIRECT_FEED": 133,
        "USGS": 0,
        "GDACS": 0
      },
      "last7_score": 95.046,
      "prev7_score": 1.824,
      "trend": "up",
      "trend_arrow": "🔺",
      "change_pct": 5109.7,
      "place": "Ķekavas novads, Latvia"
    },
    {
      "lon": 21.25,
      "lat": 52.25,
      "type": "hotspot_cell",
      "score": 74.663,
      "count": 240,
      "cell_deg": 0.5,
      "sources": {
        "GDELT": 240,
        "GDELT_DOC": 0,
        "DIRECT_FEED": 0,
        "USGS": 0,
        "GDACS": 0
      },
      "last7_score": 57.592,
      "prev7_score": 17.071,
      "trend": "up",
      "trend_arrow": "🔺",
      "change_pct": 237.4,
      "place": "Warsaw, Poland"
    },
    {
      "lon": 26.25,
      "lat": 59.25,
      "type": "hotspot_cell",
      "score": 62.781,
      "count": 168,
      "cell_deg": 0.5,
      "sources": {
        "GDELT": 168,
        "GDELT_DOC": 0,
        "DIRECT_FEED": 0,
        "USGS": 0,
        "GDACS": 0
      },
      "last7_score": 52.375,
      "prev7_score": 10.406,
      "trend": "up",
      "trend_arrow": "🔺",
      "change_pct": 403.3,
      "place": "Lääne-Viru County, Estonia"
    },
    {
      "lon": 20.25,
      "lat": 47.25,
      "type": "hotspot_cell",
      "score": 60.894,
      "count": 174,
      "cell_deg": 0.5,
      "sources": {
        "GDELT": 174,
        "GDELT_DOC": 0,
        "DIRECT_FEED": 0,
        "USGS": 0,
        "GDACS": 0
      },
      "last7_score": 50.415,
      "prev7_score": 10.479,
      "trend": "up",
      "trend_arrow": "🔺",
      "change_pct": 381.1,
      "place": "Jász-Nagykun-Szolnok, Hungary"
    }
  ]
}