{
  "generated_utc": "2026-04-30T03:01:07Z",
  "top": [
    {
      "lon": 26.25,
      "lat": 44.25,
      "type": "hotspot_cell",
      "score": 1001.622,
      "count": 1652,
      "cell_deg": 0.5,
      "sources": {
        "GDELT": 148,
        "GDELT_DOC": 1496,
        "DIRECT_FEED": 8,
        "USGS": 0,
        "GDACS": 0
      },
      "last7_score": 987.365,
      "prev7_score": 14.258,
      "trend": "up",
      "trend_arrow": "🔺",
      "change_pct": 6825.1,
      "place": "Giurgiu, Romania"
    },
    {
      "lon": 14.25,
      "lat": 50.25,
      "type": "hotspot_cell",
      "score": 917.36,
      "count": 1637,
      "cell_deg": 0.5,
      "sources": {
        "GDELT": 195,
        "GDELT_DOC": 1440,
        "DIRECT_FEED": 2,
        "USGS": 0,
        "GDACS": 0
      },
      "last7_score": 901.555,
      "prev7_score": 15.805,
      "trend": "up",
      "trend_arrow": "🔺",
      "change_pct": 5604.2,
      "place": "SO ORP Kralupy nad Vltavou, Czechia"
    },
    {
      "lon": 25.25,
      "lat": 54.75,
      "type": "hotspot_cell",
      "score": 617.058,
      "count": 1092,
      "cell_deg": 0.5,
      "sources": {
        "GDELT": 65,
        "GDELT_DOC": 1027,
        "DIRECT_FEED": 0,
        "USGS": 0,
        "GDACS": 0
      },
      "last7_score": 612.162,
      "prev7_score": 4.895,
      "trend": "up",
      "trend_arrow": "🔺",
      "change_pct": 12404.6,
      "place": "Vilnius County, Lithuania"
    },
    {
      "lon": 19.25,
      "lat": 47.75,
      "type": "hotspot_cell",
      "score": 275.467,
      "count": 610,
      "cell_deg": 0.5,
      "sources": {
        "GDELT": 379,
        "GDELT_DOC": 0,
        "DIRECT_FEED": 231,
        "USGS": 0,
        "GDACS": 0
      },
      "last7_score": 231.334,
      "prev7_score": 44.133,
      "trend": "up",
      "trend_arrow": "🔺",
      "change_pct": 424.2,
      "place": "Pest, Hungary"
    },
    {
      "lon": 20.25,
      "lat": 52.25,
      "type": "hotspot_cell",
      "score": 179.179,
      "count": 460,
      "cell_deg": 0.5,
      "sources": {
        "GDELT": 460,
        "GDELT_DOC": 0,
        "DIRECT_FEED": 0,
        "USGS": 0,
        "GDACS": 0
      },
      "last7_score": 138.641,
      "prev7_score": 40.538,
      "trend": "up",
      "trend_arrow": "🔺",
      "change_pct": 242.0,
      "place": "Sochaczew County, Poland"
    },
    {
      "lon": 20.25,
      "lat": 47.25,
      "type": "hotspot_cell",
      "score": 169.326,
      "count": 535,
      "cell_deg": 0.5,
      "sources": {
        "GDELT": 535,
        "GDELT_DOC": 0,
        "DIRECT_FEED": 0,
        "USGS": 0,
        "GDACS": 0
      },
      "last7_score": 110.491,
      "prev7_score": 58.834,
      "trend": "up",
      "trend_arrow": "🔺",
      "change_pct": 87.8,
      "place": "Jász-Nagykun-Szolnok, Hungary"
    },
    {
      "lon": 25.25,
      "lat": 46.25,
      "type": "hotspot_cell",
      "score": 134.04,
      "count": 281,
      "cell_deg": 0.5,
      "sources": {
        "GDELT": 281,
        "GDELT_DOC": 0,
        "DIRECT_FEED": 0,
        "USGS": 0,
        "GDACS": 0
      },
      "last7_score": 113.978,
      "prev7_score": 20.063,
      "trend": "up",
      "trend_arrow": "🔺",
      "change_pct": 468.1,
      "place": "Harghita, Romania"
    },
    {
      "lon": 24.25,
      "lat": 56.75,
      "type": "hotspot_cell",
      "score": 116.538,
      "count": 164,
      "cell_deg": 0.5,
      "sources": {
        "GDELT": 27,
        "GDELT_DOC": 0,
        "DIRECT_FEED": 137,
        "USGS": 0,
        "GDACS": 0
      },
      "last7_score": 114.944,
      "prev7_score": 1.594,
      "trend": "up",
      "trend_arrow": "🔺",
      "change_pct": 7111.2,
      "place": "Ķekavas novads, Latvia"
    },
    {
      "lon": 15.25,
      "lat": 49.75,
      "type": "hotspot_cell",
      "score": 90.448,
      "count": 209,
      "cell_deg": 0.5,
      "sources": {
        "GDELT": 209,
        "GDELT_DOC": 0,
        "DIRECT_FEED": 0,
        "USGS": 0,
        "GDACS": 0
      },
      "last7_score": 75.023,
      "prev7_score": 15.425,
      "trend": "up",
      "trend_arrow": "🔺",
      "change_pct": 386.4,
      "place": "Vysočina Region, Czechia"
    },
    {
      "lon": 26.75,
      "lat": 47.75,
      "type": "hotspot_cell",
      "score": 78.676,
      "count": 156,
      "cell_deg": 0.5,
      "sources": {
        "GDELT": 2,
        "GDELT_DOC": 150,
        "DIRECT_FEED": 4,
        "USGS": 0,
        "GDACS": 0
      },
      "last7_score": 78.482,
      "prev7_score": 0.194,
      "trend": "up",
      "trend_arrow": "🔺",
      "change_pct": 40315.5,
      "place": "Botoșani, Romania"
    }
  ]
}