{
  "generated_utc": "2026-06-11T10:17:36Z",
  "top": [
    {
      "lon": 26.25,
      "lat": 44.25,
      "type": "hotspot_cell",
      "score": 580.043,
      "count": 1102,
      "cell_deg": 0.5,
      "sources": {
        "GDELT": 251,
        "GDELT_DOC": 840,
        "DIRECT_FEED": 11,
        "USGS": 0,
        "GDACS": 0
      },
      "last7_score": 559.161,
      "prev7_score": 20.882,
      "trend": "up",
      "trend_arrow": "🔺",
      "change_pct": 2577.7,
      "place": "Giurgiu, Romania"
    },
    {
      "lon": 14.25,
      "lat": 50.25,
      "type": "hotspot_cell",
      "score": 560.707,
      "count": 876,
      "cell_deg": 0.5,
      "sources": {
        "GDELT": 95,
        "GDELT_DOC": 781,
        "DIRECT_FEED": 0,
        "USGS": 0,
        "GDACS": 0
      },
      "last7_score": 551.086,
      "prev7_score": 9.621,
      "trend": "up",
      "trend_arrow": "🔺",
      "change_pct": 5627.9,
      "place": "SO ORP Kralupy nad Vltavou, Czechia"
    },
    {
      "lon": 25.25,
      "lat": 54.75,
      "type": "hotspot_cell",
      "score": 508.511,
      "count": 941,
      "cell_deg": 0.5,
      "sources": {
        "GDELT": 73,
        "GDELT_DOC": 867,
        "DIRECT_FEED": 1,
        "USGS": 0,
        "GDACS": 0
      },
      "last7_score": 501.993,
      "prev7_score": 6.518,
      "trend": "up",
      "trend_arrow": "🔺",
      "change_pct": 7601.7,
      "place": "Vilnius County, Lithuania"
    },
    {
      "lon": 19.25,
      "lat": 47.75,
      "type": "hotspot_cell",
      "score": 186.279,
      "count": 406,
      "cell_deg": 0.5,
      "sources": {
        "GDELT": 231,
        "GDELT_DOC": 0,
        "DIRECT_FEED": 175,
        "USGS": 0,
        "GDACS": 0
      },
      "last7_score": 163.153,
      "prev7_score": 23.126,
      "trend": "up",
      "trend_arrow": "🔺",
      "change_pct": 605.5,
      "place": "Pest, Hungary"
    },
    {
      "lon": 25.25,
      "lat": 46.25,
      "type": "hotspot_cell",
      "score": 171.657,
      "count": 525,
      "cell_deg": 0.5,
      "sources": {
        "GDELT": 525,
        "GDELT_DOC": 0,
        "DIRECT_FEED": 0,
        "USGS": 0,
        "GDACS": 0
      },
      "last7_score": 132.651,
      "prev7_score": 39.006,
      "trend": "up",
      "trend_arrow": "🔺",
      "change_pct": 240.1,
      "place": "Harghita, Romania"
    },
    {
      "lon": 20.25,
      "lat": 52.25,
      "type": "hotspot_cell",
      "score": 168.569,
      "count": 480,
      "cell_deg": 0.5,
      "sources": {
        "GDELT": 480,
        "GDELT_DOC": 0,
        "DIRECT_FEED": 0,
        "USGS": 0,
        "GDACS": 0
      },
      "last7_score": 130.377,
      "prev7_score": 38.192,
      "trend": "up",
      "trend_arrow": "🔺",
      "change_pct": 241.4,
      "place": "Sochaczew County, Poland"
    },
    {
      "lon": 24.25,
      "lat": 56.75,
      "type": "hotspot_cell",
      "score": 105.921,
      "count": 165,
      "cell_deg": 0.5,
      "sources": {
        "GDELT": 44,
        "GDELT_DOC": 0,
        "DIRECT_FEED": 121,
        "USGS": 0,
        "GDACS": 0
      },
      "last7_score": 102.333,
      "prev7_score": 3.588,
      "trend": "up",
      "trend_arrow": "🔺",
      "change_pct": 2752.1,
      "place": "Ķekavas novads, Latvia"
    },
    {
      "lon": 20.25,
      "lat": 47.25,
      "type": "hotspot_cell",
      "score": 90.246,
      "count": 253,
      "cell_deg": 0.5,
      "sources": {
        "GDELT": 253,
        "GDELT_DOC": 0,
        "DIRECT_FEED": 0,
        "USGS": 0,
        "GDACS": 0
      },
      "last7_score": 70.162,
      "prev7_score": 20.084,
      "trend": "up",
      "trend_arrow": "🔺",
      "change_pct": 249.3,
      "place": "Jász-Nagykun-Szolnok, Hungary"
    },
    {
      "lon": 21.25,
      "lat": 52.25,
      "type": "hotspot_cell",
      "score": 63.342,
      "count": 204,
      "cell_deg": 0.5,
      "sources": {
        "GDELT": 204,
        "GDELT_DOC": 0,
        "DIRECT_FEED": 0,
        "USGS": 0,
        "GDACS": 0
      },
      "last7_score": 45.94,
      "prev7_score": 17.402,
      "trend": "up",
      "trend_arrow": "🔺",
      "change_pct": 164.0,
      "place": "Warsaw, Poland"
    },
    {
      "lon": 25.25,
      "lat": 57.25,
      "type": "hotspot_cell",
      "score": 49.651,
      "count": 118,
      "cell_deg": 0.5,
      "sources": {
        "GDELT": 118,
        "GDELT_DOC": 0,
        "DIRECT_FEED": 0,
        "USGS": 0,
        "GDACS": 0
      },
      "last7_score": 40.272,
      "prev7_score": 9.379,
      "trend": "up",
      "trend_arrow": "🔺",
      "change_pct": 329.4,
      "place": "Cēsu novads, Latvia"
    }
  ]
}