{
  "generated_utc": "2026-04-19T07:24:11Z",
  "top": [
    {
      "lon": 14.25,
      "lat": 50.25,
      "type": "hotspot_cell",
      "score": 848.792,
      "count": 1455,
      "cell_deg": 0.5,
      "sources": {
        "GDELT": 123,
        "GDELT_DOC": 1332,
        "DIRECT_FEED": 0,
        "USGS": 0,
        "GDACS": 0
      },
      "last7_score": 843.952,
      "prev7_score": 4.84,
      "trend": "up",
      "trend_arrow": "🔺",
      "change_pct": 17335.9,
      "place": "SO ORP Kralupy nad Vltavou, Czechia"
    },
    {
      "lon": 26.25,
      "lat": 44.25,
      "type": "hotspot_cell",
      "score": 753.388,
      "count": 1285,
      "cell_deg": 0.5,
      "sources": {
        "GDELT": 106,
        "GDELT_DOC": 1177,
        "DIRECT_FEED": 2,
        "USGS": 0,
        "GDACS": 0
      },
      "last7_score": 748.356,
      "prev7_score": 5.032,
      "trend": "up",
      "trend_arrow": "🔺",
      "change_pct": 14773.4,
      "place": "Giurgiu, Romania"
    },
    {
      "lon": 19.25,
      "lat": 47.75,
      "type": "hotspot_cell",
      "score": 528.359,
      "count": 1503,
      "cell_deg": 0.5,
      "sources": {
        "GDELT": 1183,
        "GDELT_DOC": 0,
        "DIRECT_FEED": 320,
        "USGS": 0,
        "GDACS": 0
      },
      "last7_score": 440.894,
      "prev7_score": 87.465,
      "trend": "up",
      "trend_arrow": "🔺",
      "change_pct": 404.1,
      "place": "Pest, Hungary"
    },
    {
      "lon": 25.25,
      "lat": 54.75,
      "type": "hotspot_cell",
      "score": 491.761,
      "count": 834,
      "cell_deg": 0.5,
      "sources": {
        "GDELT": 74,
        "GDELT_DOC": 760,
        "DIRECT_FEED": 0,
        "USGS": 0,
        "GDACS": 0
      },
      "last7_score": 487.688,
      "prev7_score": 4.074,
      "trend": "up",
      "trend_arrow": "🔺",
      "change_pct": 11871.4,
      "place": "Vilnius County, Lithuania"
    },
    {
      "lon": 20.25,
      "lat": 47.25,
      "type": "hotspot_cell",
      "score": 280.341,
      "count": 801,
      "cell_deg": 0.5,
      "sources": {
        "GDELT": 801,
        "GDELT_DOC": 0,
        "DIRECT_FEED": 0,
        "USGS": 0,
        "GDACS": 0
      },
      "last7_score": 228.981,
      "prev7_score": 51.36,
      "trend": "up",
      "trend_arrow": "🔺",
      "change_pct": 345.8,
      "place": "Jász-Nagykun-Szolnok, Hungary"
    },
    {
      "lon": 20.25,
      "lat": 52.25,
      "type": "hotspot_cell",
      "score": 151.356,
      "count": 397,
      "cell_deg": 0.5,
      "sources": {
        "GDELT": 397,
        "GDELT_DOC": 0,
        "DIRECT_FEED": 0,
        "USGS": 0,
        "GDACS": 0
      },
      "last7_score": 127.18,
      "prev7_score": 24.176,
      "trend": "up",
      "trend_arrow": "🔺",
      "change_pct": 426.1,
      "place": "Sochaczew County, Poland"
    },
    {
      "lon": 24.25,
      "lat": 56.75,
      "type": "hotspot_cell",
      "score": 94.996,
      "count": 158,
      "cell_deg": 0.5,
      "sources": {
        "GDELT": 32,
        "GDELT_DOC": 0,
        "DIRECT_FEED": 126,
        "USGS": 0,
        "GDACS": 0
      },
      "last7_score": 93.395,
      "prev7_score": 1.6,
      "trend": "up",
      "trend_arrow": "🔺",
      "change_pct": 5735.6,
      "place": "Ķekavas novads, Latvia"
    },
    {
      "lon": 25.25,
      "lat": 46.25,
      "type": "hotspot_cell",
      "score": 89.238,
      "count": 256,
      "cell_deg": 0.5,
      "sources": {
        "GDELT": 256,
        "GDELT_DOC": 0,
        "DIRECT_FEED": 0,
        "USGS": 0,
        "GDACS": 0
      },
      "last7_score": 77.038,
      "prev7_score": 12.2,
      "trend": "up",
      "trend_arrow": "🔺",
      "change_pct": 531.5,
      "place": "Harghita, Romania"
    },
    {
      "lon": 21.25,
      "lat": 52.25,
      "type": "hotspot_cell",
      "score": 70.32,
      "count": 177,
      "cell_deg": 0.5,
      "sources": {
        "GDELT": 177,
        "GDELT_DOC": 0,
        "DIRECT_FEED": 0,
        "USGS": 0,
        "GDACS": 0
      },
      "last7_score": 64.032,
      "prev7_score": 6.288,
      "trend": "up",
      "trend_arrow": "🔺",
      "change_pct": 918.4,
      "place": "Warsaw, Poland"
    },
    {
      "lon": 15.25,
      "lat": 49.75,
      "type": "hotspot_cell",
      "score": 68.321,
      "count": 174,
      "cell_deg": 0.5,
      "sources": {
        "GDELT": 174,
        "GDELT_DOC": 0,
        "DIRECT_FEED": 0,
        "USGS": 0,
        "GDACS": 0
      },
      "last7_score": 58.542,
      "prev7_score": 9.78,
      "trend": "up",
      "trend_arrow": "🔺",
      "change_pct": 498.6,
      "place": "Vysočina Region, Czechia"
    }
  ]
}