{
  "generated_utc": "2026-04-18T07:12:51Z",
  "top": [
    {
      "lon": 14.25,
      "lat": 50.25,
      "type": "hotspot_cell",
      "score": 905.334,
      "count": 1409,
      "cell_deg": 0.5,
      "sources": {
        "GDELT": 121,
        "GDELT_DOC": 1288,
        "DIRECT_FEED": 0,
        "USGS": 0,
        "GDACS": 0
      },
      "last7_score": 899.585,
      "prev7_score": 5.749,
      "trend": "up",
      "trend_arrow": "🔺",
      "change_pct": 15546.9,
      "place": "SO ORP Kralupy nad Vltavou, Czechia"
    },
    {
      "lon": 26.25,
      "lat": 44.25,
      "type": "hotspot_cell",
      "score": 827.521,
      "count": 1334,
      "cell_deg": 0.5,
      "sources": {
        "GDELT": 109,
        "GDELT_DOC": 1223,
        "DIRECT_FEED": 2,
        "USGS": 0,
        "GDACS": 0
      },
      "last7_score": 821.287,
      "prev7_score": 6.234,
      "trend": "up",
      "trend_arrow": "🔺",
      "change_pct": 13074.0,
      "place": "Giurgiu, Romania"
    },
    {
      "lon": 19.25,
      "lat": 47.75,
      "type": "hotspot_cell",
      "score": 621.497,
      "count": 1511,
      "cell_deg": 0.5,
      "sources": {
        "GDELT": 1184,
        "GDELT_DOC": 0,
        "DIRECT_FEED": 327,
        "USGS": 0,
        "GDACS": 0
      },
      "last7_score": 556.212,
      "prev7_score": 65.285,
      "trend": "up",
      "trend_arrow": "🔺",
      "change_pct": 752.0,
      "place": "Pest, Hungary"
    },
    {
      "lon": 25.25,
      "lat": 54.75,
      "type": "hotspot_cell",
      "score": 506.752,
      "count": 824,
      "cell_deg": 0.5,
      "sources": {
        "GDELT": 75,
        "GDELT_DOC": 749,
        "DIRECT_FEED": 0,
        "USGS": 0,
        "GDACS": 0
      },
      "last7_score": 502.514,
      "prev7_score": 4.238,
      "trend": "up",
      "trend_arrow": "🔺",
      "change_pct": 11757.5,
      "place": "Vilnius County, Lithuania"
    },
    {
      "lon": 20.25,
      "lat": 47.25,
      "type": "hotspot_cell",
      "score": 323.892,
      "count": 810,
      "cell_deg": 0.5,
      "sources": {
        "GDELT": 810,
        "GDELT_DOC": 0,
        "DIRECT_FEED": 0,
        "USGS": 0,
        "GDACS": 0
      },
      "last7_score": 281.63,
      "prev7_score": 42.262,
      "trend": "up",
      "trend_arrow": "🔺",
      "change_pct": 566.4,
      "place": "Jász-Nagykun-Szolnok, Hungary"
    },
    {
      "lon": 20.25,
      "lat": 52.25,
      "type": "hotspot_cell",
      "score": 167.901,
      "count": 394,
      "cell_deg": 0.5,
      "sources": {
        "GDELT": 394,
        "GDELT_DOC": 0,
        "DIRECT_FEED": 0,
        "USGS": 0,
        "GDACS": 0
      },
      "last7_score": 141.222,
      "prev7_score": 26.678,
      "trend": "up",
      "trend_arrow": "🔺",
      "change_pct": 429.4,
      "place": "Sochaczew County, Poland"
    },
    {
      "lon": 24.25,
      "lat": 56.75,
      "type": "hotspot_cell",
      "score": 112.143,
      "count": 162,
      "cell_deg": 0.5,
      "sources": {
        "GDELT": 32,
        "GDELT_DOC": 0,
        "DIRECT_FEED": 130,
        "USGS": 0,
        "GDACS": 0
      },
      "last7_score": 110.457,
      "prev7_score": 1.687,
      "trend": "up",
      "trend_arrow": "🔺",
      "change_pct": 6449.1,
      "place": "Ķekavas novads, Latvia"
    },
    {
      "lon": 25.25,
      "lat": 46.25,
      "type": "hotspot_cell",
      "score": 105.449,
      "count": 259,
      "cell_deg": 0.5,
      "sources": {
        "GDELT": 259,
        "GDELT_DOC": 0,
        "DIRECT_FEED": 0,
        "USGS": 0,
        "GDACS": 0
      },
      "last7_score": 90.75,
      "prev7_score": 14.699,
      "trend": "up",
      "trend_arrow": "🔺",
      "change_pct": 517.4,
      "place": "Harghita, Romania"
    },
    {
      "lon": 21.25,
      "lat": 52.25,
      "type": "hotspot_cell",
      "score": 78.059,
      "count": 170,
      "cell_deg": 0.5,
      "sources": {
        "GDELT": 170,
        "GDELT_DOC": 0,
        "DIRECT_FEED": 0,
        "USGS": 0,
        "GDACS": 0
      },
      "last7_score": 70.669,
      "prev7_score": 7.39,
      "trend": "up",
      "trend_arrow": "🔺",
      "change_pct": 856.2,
      "place": "Warsaw, Poland"
    },
    {
      "lon": 15.25,
      "lat": 49.75,
      "type": "hotspot_cell",
      "score": 77.382,
      "count": 170,
      "cell_deg": 0.5,
      "sources": {
        "GDELT": 170,
        "GDELT_DOC": 0,
        "DIRECT_FEED": 0,
        "USGS": 0,
        "GDACS": 0
      },
      "last7_score": 67.665,
      "prev7_score": 9.717,
      "trend": "up",
      "trend_arrow": "🔺",
      "change_pct": 596.4,
      "place": "Vysočina Region, Czechia"
    }
  ]
}