{
  "generated_utc": "2026-06-01T11:17:58Z",
  "top": [
    {
      "lon": 25.25,
      "lat": 54.75,
      "type": "hotspot_cell",
      "score": 700.054,
      "count": 1197,
      "cell_deg": 0.5,
      "sources": {
        "GDELT": 100,
        "GDELT_DOC": 1095,
        "DIRECT_FEED": 2,
        "USGS": 0,
        "GDACS": 0
      },
      "last7_score": 691.904,
      "prev7_score": 8.151,
      "trend": "up",
      "trend_arrow": "🔺",
      "change_pct": 8389.0,
      "place": "Vilnius County, Lithuania"
    },
    {
      "lon": 26.25,
      "lat": 44.25,
      "type": "hotspot_cell",
      "score": 648.73,
      "count": 1191,
      "cell_deg": 0.5,
      "sources": {
        "GDELT": 212,
        "GDELT_DOC": 967,
        "DIRECT_FEED": 12,
        "USGS": 0,
        "GDACS": 0
      },
      "last7_score": 642.181,
      "prev7_score": 6.549,
      "trend": "up",
      "trend_arrow": "🔺",
      "change_pct": 9705.5,
      "place": "Giurgiu, Romania"
    },
    {
      "lon": 14.25,
      "lat": 50.25,
      "type": "hotspot_cell",
      "score": 644.183,
      "count": 1271,
      "cell_deg": 0.5,
      "sources": {
        "GDELT": 153,
        "GDELT_DOC": 1107,
        "DIRECT_FEED": 11,
        "USGS": 0,
        "GDACS": 0
      },
      "last7_score": 633.47,
      "prev7_score": 10.713,
      "trend": "up",
      "trend_arrow": "🔺",
      "change_pct": 5813.0,
      "place": "SO ORP Kralupy nad Vltavou, Czechia"
    },
    {
      "lon": 20.25,
      "lat": 52.25,
      "type": "hotspot_cell",
      "score": 220.358,
      "count": 769,
      "cell_deg": 0.5,
      "sources": {
        "GDELT": 769,
        "GDELT_DOC": 0,
        "DIRECT_FEED": 0,
        "USGS": 0,
        "GDACS": 0
      },
      "last7_score": 159.01,
      "prev7_score": 61.348,
      "trend": "up",
      "trend_arrow": "🔺",
      "change_pct": 159.2,
      "place": "Sochaczew County, Poland"
    },
    {
      "lon": 19.25,
      "lat": 47.75,
      "type": "hotspot_cell",
      "score": 214.498,
      "count": 426,
      "cell_deg": 0.5,
      "sources": {
        "GDELT": 220,
        "GDELT_DOC": 0,
        "DIRECT_FEED": 206,
        "USGS": 0,
        "GDACS": 0
      },
      "last7_score": 203.993,
      "prev7_score": 10.505,
      "trend": "up",
      "trend_arrow": "🔺",
      "change_pct": 1841.8,
      "place": "Pest, Hungary"
    },
    {
      "lon": 25.25,
      "lat": 46.25,
      "type": "hotspot_cell",
      "score": 182.557,
      "count": 443,
      "cell_deg": 0.5,
      "sources": {
        "GDELT": 443,
        "GDELT_DOC": 0,
        "DIRECT_FEED": 0,
        "USGS": 0,
        "GDACS": 0
      },
      "last7_score": 157.825,
      "prev7_score": 24.732,
      "trend": "up",
      "trend_arrow": "🔺",
      "change_pct": 538.1,
      "place": "Harghita, Romania"
    },
    {
      "lon": 24.25,
      "lat": 56.75,
      "type": "hotspot_cell",
      "score": 107.54,
      "count": 183,
      "cell_deg": 0.5,
      "sources": {
        "GDELT": 51,
        "GDELT_DOC": 0,
        "DIRECT_FEED": 132,
        "USGS": 0,
        "GDACS": 0
      },
      "last7_score": 104.46,
      "prev7_score": 3.08,
      "trend": "up",
      "trend_arrow": "🔺",
      "change_pct": 3291.5,
      "place": "Ķekavas novads, Latvia"
    },
    {
      "lon": 20.25,
      "lat": 47.25,
      "type": "hotspot_cell",
      "score": 92.757,
      "count": 256,
      "cell_deg": 0.5,
      "sources": {
        "GDELT": 256,
        "GDELT_DOC": 0,
        "DIRECT_FEED": 0,
        "USGS": 0,
        "GDACS": 0
      },
      "last7_score": 77.947,
      "prev7_score": 14.81,
      "trend": "up",
      "trend_arrow": "🔺",
      "change_pct": 426.3,
      "place": "Jász-Nagykun-Szolnok, Hungary"
    },
    {
      "lon": 21.25,
      "lat": 52.25,
      "type": "hotspot_cell",
      "score": 86.206,
      "count": 273,
      "cell_deg": 0.5,
      "sources": {
        "GDELT": 273,
        "GDELT_DOC": 0,
        "DIRECT_FEED": 0,
        "USGS": 0,
        "GDACS": 0
      },
      "last7_score": 68.896,
      "prev7_score": 17.309,
      "trend": "up",
      "trend_arrow": "🔺",
      "change_pct": 298.0,
      "place": "Warsaw, Poland"
    },
    {
      "lon": 22.25,
      "lat": 55.25,
      "type": "hotspot_cell",
      "score": 67.188,
      "count": 93,
      "cell_deg": 0.5,
      "sources": {
        "GDELT": 0,
        "GDELT_DOC": 93,
        "DIRECT_FEED": 0,
        "USGS": 0,
        "GDACS": 0
      },
      "last7_score": 67.188,
      "prev7_score": 0.0,
      "trend": "new",
      "trend_arrow": "🆕",
      "change_pct": null,
      "place": "Tauragės seniūnija, Lithuania"
    }
  ]
}