{
  "generated_utc": "2026-06-05T02:40:45Z",
  "top": [
    {
      "lon": 26.25,
      "lat": 44.25,
      "type": "hotspot_cell",
      "score": 716.858,
      "count": 1094,
      "cell_deg": 0.5,
      "sources": {
        "GDELT": 232,
        "GDELT_DOC": 849,
        "DIRECT_FEED": 13,
        "USGS": 0,
        "GDACS": 0
      },
      "last7_score": 684.95,
      "prev7_score": 31.908,
      "trend": "up",
      "trend_arrow": "🔺",
      "change_pct": 2046.6,
      "place": "Giurgiu, Romania"
    },
    {
      "lon": 25.25,
      "lat": 54.75,
      "type": "hotspot_cell",
      "score": 669.957,
      "count": 1061,
      "cell_deg": 0.5,
      "sources": {
        "GDELT": 78,
        "GDELT_DOC": 980,
        "DIRECT_FEED": 3,
        "USGS": 0,
        "GDACS": 0
      },
      "last7_score": 663.643,
      "prev7_score": 6.313,
      "trend": "up",
      "trend_arrow": "🔺",
      "change_pct": 10411.8,
      "place": "Vilnius County, Lithuania"
    },
    {
      "lon": 14.25,
      "lat": 50.25,
      "type": "hotspot_cell",
      "score": 614.696,
      "count": 1090,
      "cell_deg": 0.5,
      "sources": {
        "GDELT": 134,
        "GDELT_DOC": 950,
        "DIRECT_FEED": 6,
        "USGS": 0,
        "GDACS": 0
      },
      "last7_score": 604.328,
      "prev7_score": 10.369,
      "trend": "up",
      "trend_arrow": "🔺",
      "change_pct": 5728.4,
      "place": "SO ORP Kralupy nad Vltavou, Czechia"
    },
    {
      "lon": 19.25,
      "lat": 47.75,
      "type": "hotspot_cell",
      "score": 244.384,
      "count": 438,
      "cell_deg": 0.5,
      "sources": {
        "GDELT": 243,
        "GDELT_DOC": 0,
        "DIRECT_FEED": 195,
        "USGS": 0,
        "GDACS": 0
      },
      "last7_score": 223.96,
      "prev7_score": 20.424,
      "trend": "up",
      "trend_arrow": "🔺",
      "change_pct": 996.6,
      "place": "Pest, Hungary"
    },
    {
      "lon": 20.25,
      "lat": 52.25,
      "type": "hotspot_cell",
      "score": 210.591,
      "count": 559,
      "cell_deg": 0.5,
      "sources": {
        "GDELT": 559,
        "GDELT_DOC": 0,
        "DIRECT_FEED": 0,
        "USGS": 0,
        "GDACS": 0
      },
      "last7_score": 161.872,
      "prev7_score": 48.719,
      "trend": "up",
      "trend_arrow": "🔺",
      "change_pct": 232.3,
      "place": "Sochaczew County, Poland"
    },
    {
      "lon": 25.25,
      "lat": 46.25,
      "type": "hotspot_cell",
      "score": 187.297,
      "count": 456,
      "cell_deg": 0.5,
      "sources": {
        "GDELT": 456,
        "GDELT_DOC": 0,
        "DIRECT_FEED": 0,
        "USGS": 0,
        "GDACS": 0
      },
      "last7_score": 134.201,
      "prev7_score": 53.096,
      "trend": "up",
      "trend_arrow": "🔺",
      "change_pct": 152.8,
      "place": "Harghita, Romania"
    },
    {
      "lon": 24.25,
      "lat": 56.75,
      "type": "hotspot_cell",
      "score": 131.773,
      "count": 194,
      "cell_deg": 0.5,
      "sources": {
        "GDELT": 42,
        "GDELT_DOC": 0,
        "DIRECT_FEED": 152,
        "USGS": 0,
        "GDACS": 0
      },
      "last7_score": 127.288,
      "prev7_score": 4.485,
      "trend": "up",
      "trend_arrow": "🔺",
      "change_pct": 2738.4,
      "place": "Ķekavas novads, Latvia"
    },
    {
      "lon": 20.25,
      "lat": 47.25,
      "type": "hotspot_cell",
      "score": 101.316,
      "count": 248,
      "cell_deg": 0.5,
      "sources": {
        "GDELT": 248,
        "GDELT_DOC": 0,
        "DIRECT_FEED": 0,
        "USGS": 0,
        "GDACS": 0
      },
      "last7_score": 79.591,
      "prev7_score": 21.725,
      "trend": "up",
      "trend_arrow": "🔺",
      "change_pct": 266.4,
      "place": "Jász-Nagykun-Szolnok, Hungary"
    },
    {
      "lon": 21.25,
      "lat": 52.25,
      "type": "hotspot_cell",
      "score": 86.476,
      "count": 216,
      "cell_deg": 0.5,
      "sources": {
        "GDELT": 216,
        "GDELT_DOC": 0,
        "DIRECT_FEED": 0,
        "USGS": 0,
        "GDACS": 0
      },
      "last7_score": 66.927,
      "prev7_score": 19.55,
      "trend": "up",
      "trend_arrow": "🔺",
      "change_pct": 242.3,
      "place": "Warsaw, Poland"
    },
    {
      "lon": 24.25,
      "lat": 56.25,
      "type": "hotspot_cell",
      "score": 56.734,
      "count": 131,
      "cell_deg": 0.5,
      "sources": {
        "GDELT": 131,
        "GDELT_DOC": 0,
        "DIRECT_FEED": 0,
        "USGS": 0,
        "GDACS": 0
      },
      "last7_score": 44.658,
      "prev7_score": 12.076,
      "trend": "up",
      "trend_arrow": "🔺",
      "change_pct": 269.8,
      "place": "Namišių seniūnija, Lithuania"
    }
  ]
}