{
  "generated_utc": "2026-06-23T14:36:09Z",
  "top": [
    {
      "lon": 26.25,
      "lat": 44.25,
      "type": "hotspot_cell",
      "score": 641.824,
      "count": 1043,
      "cell_deg": 0.5,
      "sources": {
        "GDELT": 144,
        "GDELT_DOC": 894,
        "DIRECT_FEED": 5,
        "USGS": 0,
        "GDACS": 0
      },
      "last7_score": 631.464,
      "prev7_score": 10.36,
      "trend": "up",
      "trend_arrow": "🔺",
      "change_pct": 5995.2,
      "place": "Giurgiu, Romania"
    },
    {
      "lon": 14.25,
      "lat": 50.25,
      "type": "hotspot_cell",
      "score": 552.935,
      "count": 817,
      "cell_deg": 0.5,
      "sources": {
        "GDELT": 121,
        "GDELT_DOC": 685,
        "DIRECT_FEED": 11,
        "USGS": 0,
        "GDACS": 0
      },
      "last7_score": 545.15,
      "prev7_score": 7.784,
      "trend": "up",
      "trend_arrow": "🔺",
      "change_pct": 6903.0,
      "place": "SO ORP Kralupy nad Vltavou, Czechia"
    },
    {
      "lon": 25.25,
      "lat": 54.75,
      "type": "hotspot_cell",
      "score": 461.465,
      "count": 856,
      "cell_deg": 0.5,
      "sources": {
        "GDELT": 57,
        "GDELT_DOC": 798,
        "DIRECT_FEED": 1,
        "USGS": 0,
        "GDACS": 0
      },
      "last7_score": 458.489,
      "prev7_score": 2.976,
      "trend": "up",
      "trend_arrow": "🔺",
      "change_pct": 15304.3,
      "place": "Vilnius County, Lithuania"
    },
    {
      "lon": 19.25,
      "lat": 47.75,
      "type": "hotspot_cell",
      "score": 192.298,
      "count": 346,
      "cell_deg": 0.5,
      "sources": {
        "GDELT": 173,
        "GDELT_DOC": 0,
        "DIRECT_FEED": 173,
        "USGS": 0,
        "GDACS": 0
      },
      "last7_score": 180.392,
      "prev7_score": 11.906,
      "trend": "up",
      "trend_arrow": "🔺",
      "change_pct": 1415.1,
      "place": "Pest, Hungary"
    },
    {
      "lon": 20.25,
      "lat": 52.25,
      "type": "hotspot_cell",
      "score": 172.159,
      "count": 483,
      "cell_deg": 0.5,
      "sources": {
        "GDELT": 483,
        "GDELT_DOC": 0,
        "DIRECT_FEED": 0,
        "USGS": 0,
        "GDACS": 0
      },
      "last7_score": 141.304,
      "prev7_score": 30.856,
      "trend": "up",
      "trend_arrow": "🔺",
      "change_pct": 357.9,
      "place": "Sochaczew County, Poland"
    },
    {
      "lon": 25.25,
      "lat": 46.25,
      "type": "hotspot_cell",
      "score": 148.607,
      "count": 407,
      "cell_deg": 0.5,
      "sources": {
        "GDELT": 407,
        "GDELT_DOC": 0,
        "DIRECT_FEED": 0,
        "USGS": 0,
        "GDACS": 0
      },
      "last7_score": 118.615,
      "prev7_score": 29.992,
      "trend": "up",
      "trend_arrow": "🔺",
      "change_pct": 295.5,
      "place": "Harghita, Romania"
    },
    {
      "lon": 21.25,
      "lat": 52.25,
      "type": "hotspot_cell",
      "score": 135.532,
      "count": 288,
      "cell_deg": 0.5,
      "sources": {
        "GDELT": 288,
        "GDELT_DOC": 0,
        "DIRECT_FEED": 0,
        "USGS": 0,
        "GDACS": 0
      },
      "last7_score": 124.032,
      "prev7_score": 11.5,
      "trend": "up",
      "trend_arrow": "🔺",
      "change_pct": 978.5,
      "place": "Warsaw, Poland"
    },
    {
      "lon": 24.25,
      "lat": 56.75,
      "type": "hotspot_cell",
      "score": 110.223,
      "count": 177,
      "cell_deg": 0.5,
      "sources": {
        "GDELT": 39,
        "GDELT_DOC": 0,
        "DIRECT_FEED": 138,
        "USGS": 0,
        "GDACS": 0
      },
      "last7_score": 108.44,
      "prev7_score": 1.783,
      "trend": "up",
      "trend_arrow": "🔺",
      "change_pct": 5982.4,
      "place": "Ķekavas novads, Latvia"
    },
    {
      "lon": 20.25,
      "lat": 47.25,
      "type": "hotspot_cell",
      "score": 91.405,
      "count": 253,
      "cell_deg": 0.5,
      "sources": {
        "GDELT": 252,
        "GDELT_DOC": 0,
        "DIRECT_FEED": 0,
        "USGS": 0,
        "GDACS": 1
      },
      "last7_score": 73.299,
      "prev7_score": 18.106,
      "trend": "up",
      "trend_arrow": "🔺",
      "change_pct": 304.8,
      "place": "Jász-Nagykun-Szolnok, Hungary"
    },
    {
      "lon": 15.25,
      "lat": 49.75,
      "type": "hotspot_cell",
      "score": 51.014,
      "count": 141,
      "cell_deg": 0.5,
      "sources": {
        "GDELT": 141,
        "GDELT_DOC": 0,
        "DIRECT_FEED": 0,
        "USGS": 0,
        "GDACS": 0
      },
      "last7_score": 41.727,
      "prev7_score": 9.288,
      "trend": "up",
      "trend_arrow": "🔺",
      "change_pct": 349.3,
      "place": "Vysočina Region, Czechia"
    }
  ]
}