{
  "generated_utc": "2026-05-10T13:23:23Z",
  "top": [
    {
      "lon": 14.25,
      "lat": 50.25,
      "type": "hotspot_cell",
      "score": 762.887,
      "count": 1310,
      "cell_deg": 0.5,
      "sources": {
        "GDELT": 153,
        "GDELT_DOC": 1153,
        "DIRECT_FEED": 4,
        "USGS": 0,
        "GDACS": 0
      },
      "last7_score": 751.951,
      "prev7_score": 10.936,
      "trend": "up",
      "trend_arrow": "🔺",
      "change_pct": 6775.9,
      "place": "SO ORP Kralupy nad Vltavou, Czechia"
    },
    {
      "lon": 26.25,
      "lat": 44.25,
      "type": "hotspot_cell",
      "score": 721.164,
      "count": 1180,
      "cell_deg": 0.5,
      "sources": {
        "GDELT": 155,
        "GDELT_DOC": 1016,
        "DIRECT_FEED": 9,
        "USGS": 0,
        "GDACS": 0
      },
      "last7_score": 715.044,
      "prev7_score": 6.12,
      "trend": "up",
      "trend_arrow": "🔺",
      "change_pct": 11584.4,
      "place": "Giurgiu, Romania"
    },
    {
      "lon": 25.25,
      "lat": 54.75,
      "type": "hotspot_cell",
      "score": 662.133,
      "count": 1030,
      "cell_deg": 0.5,
      "sources": {
        "GDELT": 73,
        "GDELT_DOC": 957,
        "DIRECT_FEED": 0,
        "USGS": 0,
        "GDACS": 0
      },
      "last7_score": 658.765,
      "prev7_score": 3.368,
      "trend": "up",
      "trend_arrow": "🔺",
      "change_pct": 19460.3,
      "place": "Vilnius County, Lithuania"
    },
    {
      "lon": 19.25,
      "lat": 47.75,
      "type": "hotspot_cell",
      "score": 248.918,
      "count": 453,
      "cell_deg": 0.5,
      "sources": {
        "GDELT": 259,
        "GDELT_DOC": 0,
        "DIRECT_FEED": 194,
        "USGS": 0,
        "GDACS": 0
      },
      "last7_score": 238.018,
      "prev7_score": 10.9,
      "trend": "up",
      "trend_arrow": "🔺",
      "change_pct": 2083.6,
      "place": "Pest, Hungary"
    },
    {
      "lon": 20.25,
      "lat": 52.25,
      "type": "hotspot_cell",
      "score": 188.498,
      "count": 527,
      "cell_deg": 0.5,
      "sources": {
        "GDELT": 527,
        "GDELT_DOC": 0,
        "DIRECT_FEED": 0,
        "USGS": 0,
        "GDACS": 0
      },
      "last7_score": 155.995,
      "prev7_score": 32.503,
      "trend": "up",
      "trend_arrow": "🔺",
      "change_pct": 379.9,
      "place": "Sochaczew County, Poland"
    },
    {
      "lon": 20.25,
      "lat": 47.25,
      "type": "hotspot_cell",
      "score": 99.266,
      "count": 290,
      "cell_deg": 0.5,
      "sources": {
        "GDELT": 290,
        "GDELT_DOC": 0,
        "DIRECT_FEED": 0,
        "USGS": 0,
        "GDACS": 0
      },
      "last7_score": 83.272,
      "prev7_score": 15.994,
      "trend": "up",
      "trend_arrow": "🔺",
      "change_pct": 420.6,
      "place": "Jász-Nagykun-Szolnok, Hungary"
    },
    {
      "lon": 25.25,
      "lat": 46.25,
      "type": "hotspot_cell",
      "score": 96.823,
      "count": 347,
      "cell_deg": 0.5,
      "sources": {
        "GDELT": 347,
        "GDELT_DOC": 0,
        "DIRECT_FEED": 0,
        "USGS": 0,
        "GDACS": 0
      },
      "last7_score": 73.853,
      "prev7_score": 22.97,
      "trend": "up",
      "trend_arrow": "🔺",
      "change_pct": 221.5,
      "place": "Harghita, Romania"
    },
    {
      "lon": 24.25,
      "lat": 56.75,
      "type": "hotspot_cell",
      "score": 94.333,
      "count": 158,
      "cell_deg": 0.5,
      "sources": {
        "GDELT": 33,
        "GDELT_DOC": 0,
        "DIRECT_FEED": 125,
        "USGS": 0,
        "GDACS": 0
      },
      "last7_score": 93.463,
      "prev7_score": 0.87,
      "trend": "up",
      "trend_arrow": "🔺",
      "change_pct": 10637.8,
      "place": "Ķekavas novads, Latvia"
    },
    {
      "lon": 21.25,
      "lat": 52.25,
      "type": "hotspot_cell",
      "score": 67.963,
      "count": 179,
      "cell_deg": 0.5,
      "sources": {
        "GDELT": 179,
        "GDELT_DOC": 0,
        "DIRECT_FEED": 0,
        "USGS": 0,
        "GDACS": 0
      },
      "last7_score": 59.401,
      "prev7_score": 8.562,
      "trend": "up",
      "trend_arrow": "🔺",
      "change_pct": 593.8,
      "place": "Warsaw, Poland"
    },
    {
      "lon": 27.75,
      "lat": 47.25,
      "type": "hotspot_cell",
      "score": 59.367,
      "count": 94,
      "cell_deg": 0.5,
      "sources": {
        "GDELT": 0,
        "GDELT_DOC": 94,
        "DIRECT_FEED": 0,
        "USGS": 0,
        "GDACS": 0
      },
      "last7_score": 59.367,
      "prev7_score": 0.0,
      "trend": "new",
      "trend_arrow": "🆕",
      "change_pct": null,
      "place": "Iași, Romania"
    }
  ]
}