{
  "generated_utc": "2026-03-05T19:20:55Z",
  "top": [
    {
      "lon": 21.25,
      "lat": 52.25,
      "type": "hotspot_cell",
      "score": 17.732,
      "count": 48,
      "cell_deg": 0.5,
      "sources": {
        "GDELT": 48,
        "USGS": 0,
        "GDACS": 0
      },
      "last7_score": 14.713,
      "prev7_score": 3.018,
      "trend": "up",
      "trend_arrow": "🔺",
      "change_pct": 387.5,
      "place": "Warsaw, Poland"
    },
    {
      "lon": 25.25,
      "lat": 46.25,
      "type": "hotspot_cell",
      "score": 16.748,
      "count": 39,
      "cell_deg": 0.5,
      "sources": {
        "GDELT": 39,
        "USGS": 0,
        "GDACS": 0
      },
      "last7_score": 14.677,
      "prev7_score": 2.071,
      "trend": "up",
      "trend_arrow": "🔺",
      "change_pct": 608.6,
      "place": "Harghita, Romania"
    },
    {
      "lon": 20.25,
      "lat": 52.25,
      "type": "hotspot_cell",
      "score": 15.765,
      "count": 47,
      "cell_deg": 0.5,
      "sources": {
        "GDELT": 47,
        "USGS": 0,
        "GDACS": 0
      },
      "last7_score": 12.759,
      "prev7_score": 3.005,
      "trend": "up",
      "trend_arrow": "🔺",
      "change_pct": 324.6,
      "place": "Sochaczew County, Poland"
    },
    {
      "lon": 20.25,
      "lat": 47.25,
      "type": "hotspot_cell",
      "score": 15.423,
      "count": 42,
      "cell_deg": 0.5,
      "sources": {
        "GDELT": 42,
        "USGS": 0,
        "GDACS": 0
      },
      "last7_score": 12.918,
      "prev7_score": 2.505,
      "trend": "up",
      "trend_arrow": "🔺",
      "change_pct": 415.7,
      "place": "Jász-Nagykun-Szolnok, Hungary"
    },
    {
      "lon": 19.25,
      "lat": 47.75,
      "type": "hotspot_cell",
      "score": 15.002,
      "count": 41,
      "cell_deg": 0.5,
      "sources": {
        "GDELT": 41,
        "USGS": 0,
        "GDACS": 0
      },
      "last7_score": 12.467,
      "prev7_score": 2.535,
      "trend": "up",
      "trend_arrow": "🔺",
      "change_pct": 391.7,
      "place": "Pest, Hungary"
    },
    {
      "lon": 26.25,
      "lat": 59.25,
      "type": "hotspot_cell",
      "score": 14.786,
      "count": 35,
      "cell_deg": 0.5,
      "sources": {
        "GDELT": 35,
        "USGS": 0,
        "GDACS": 0
      },
      "last7_score": 12.988,
      "prev7_score": 1.798,
      "trend": "up",
      "trend_arrow": "🔺",
      "change_pct": 622.5,
      "place": "Lääne-Viru County, Estonia"
    },
    {
      "lon": 14.25,
      "lat": 50.25,
      "type": "hotspot_cell",
      "score": 13.462,
      "count": 38,
      "cell_deg": 0.5,
      "sources": {
        "GDELT": 38,
        "USGS": 0,
        "GDACS": 0
      },
      "last7_score": 10.908,
      "prev7_score": 2.554,
      "trend": "up",
      "trend_arrow": "🔺",
      "change_pct": 327.1,
      "place": "SO ORP Kralupy nad Vltavou, Czechia"
    },
    {
      "lon": 25.25,
      "lat": 57.25,
      "type": "hotspot_cell",
      "score": 13.406,
      "count": 35,
      "cell_deg": 0.5,
      "sources": {
        "GDELT": 35,
        "USGS": 0,
        "GDACS": 0
      },
      "last7_score": 11.359,
      "prev7_score": 2.047,
      "trend": "up",
      "trend_arrow": "🔺",
      "change_pct": 455.0,
      "place": "Cēsu novads, Latvia"
    },
    {
      "lon": 15.25,
      "lat": 49.75,
      "type": "hotspot_cell",
      "score": 11.262,
      "count": 34,
      "cell_deg": 0.5,
      "sources": {
        "GDELT": 34,
        "USGS": 0,
        "GDACS": 0
      },
      "last7_score": 8.725,
      "prev7_score": 2.536,
      "trend": "up",
      "trend_arrow": "🔺",
      "change_pct": 244.0,
      "place": "Vysočina Region, Czechia"
    },
    {
      "lon": 26.25,
      "lat": 44.25,
      "type": "hotspot_cell",
      "score": 10.386,
      "count": 29,
      "cell_deg": 0.5,
      "sources": {
        "GDELT": 29,
        "USGS": 0,
        "GDACS": 0
      },
      "last7_score": 8.333,
      "prev7_score": 2.052,
      "trend": "up",
      "trend_arrow": "🔺",
      "change_pct": 306.0,
      "place": "Giurgiu, Romania"
    }
  ]
}