{
  "generated_utc": "2026-05-31T13:22:44Z",
  "top": [
    {
      "lon": 26.25,
      "lat": 44.25,
      "type": "hotspot_cell",
      "score": 730.213,
      "count": 1251,
      "cell_deg": 0.5,
      "sources": {
        "GDELT": 212,
        "GDELT_DOC": 1028,
        "DIRECT_FEED": 11,
        "USGS": 0,
        "GDACS": 0
      },
      "last7_score": 724.075,
      "prev7_score": 6.137,
      "trend": "up",
      "trend_arrow": "🔺",
      "change_pct": 11697.6,
      "place": "Giurgiu, Romania"
    },
    {
      "lon": 14.25,
      "lat": 50.25,
      "type": "hotspot_cell",
      "score": 720.991,
      "count": 1324,
      "cell_deg": 0.5,
      "sources": {
        "GDELT": 150,
        "GDELT_DOC": 1163,
        "DIRECT_FEED": 11,
        "USGS": 0,
        "GDACS": 0
      },
      "last7_score": 709.552,
      "prev7_score": 11.439,
      "trend": "up",
      "trend_arrow": "🔺",
      "change_pct": 6103.0,
      "place": "SO ORP Kralupy nad Vltavou, Czechia"
    },
    {
      "lon": 25.25,
      "lat": 54.75,
      "type": "hotspot_cell",
      "score": 694.62,
      "count": 1139,
      "cell_deg": 0.5,
      "sources": {
        "GDELT": 106,
        "GDELT_DOC": 1031,
        "DIRECT_FEED": 2,
        "USGS": 0,
        "GDACS": 0
      },
      "last7_score": 686.269,
      "prev7_score": 8.35,
      "trend": "up",
      "trend_arrow": "🔺",
      "change_pct": 8118.6,
      "place": "Vilnius County, Lithuania"
    },
    {
      "lon": 20.25,
      "lat": 52.25,
      "type": "hotspot_cell",
      "score": 233.952,
      "count": 772,
      "cell_deg": 0.5,
      "sources": {
        "GDELT": 772,
        "GDELT_DOC": 0,
        "DIRECT_FEED": 0,
        "USGS": 0,
        "GDACS": 0
      },
      "last7_score": 169.832,
      "prev7_score": 64.12,
      "trend": "up",
      "trend_arrow": "🔺",
      "change_pct": 164.9,
      "place": "Sochaczew County, Poland"
    },
    {
      "lon": 19.25,
      "lat": 47.75,
      "type": "hotspot_cell",
      "score": 226.58,
      "count": 433,
      "cell_deg": 0.5,
      "sources": {
        "GDELT": 232,
        "GDELT_DOC": 0,
        "DIRECT_FEED": 201,
        "USGS": 0,
        "GDACS": 0
      },
      "last7_score": 215.054,
      "prev7_score": 11.526,
      "trend": "up",
      "trend_arrow": "🔺",
      "change_pct": 1765.8,
      "place": "Pest, Hungary"
    },
    {
      "lon": 25.25,
      "lat": 46.25,
      "type": "hotspot_cell",
      "score": 201.166,
      "count": 444,
      "cell_deg": 0.5,
      "sources": {
        "GDELT": 444,
        "GDELT_DOC": 0,
        "DIRECT_FEED": 0,
        "USGS": 0,
        "GDACS": 0
      },
      "last7_score": 180.023,
      "prev7_score": 21.143,
      "trend": "up",
      "trend_arrow": "🔺",
      "change_pct": 751.4,
      "place": "Harghita, Romania"
    },
    {
      "lon": 24.25,
      "lat": 56.75,
      "type": "hotspot_cell",
      "score": 112.03,
      "count": 187,
      "cell_deg": 0.5,
      "sources": {
        "GDELT": 55,
        "GDELT_DOC": 0,
        "DIRECT_FEED": 132,
        "USGS": 0,
        "GDACS": 0
      },
      "last7_score": 108.885,
      "prev7_score": 3.145,
      "trend": "up",
      "trend_arrow": "🔺",
      "change_pct": 3362.5,
      "place": "Ķekavas novads, Latvia"
    },
    {
      "lon": 20.25,
      "lat": 47.25,
      "type": "hotspot_cell",
      "score": 98.748,
      "count": 267,
      "cell_deg": 0.5,
      "sources": {
        "GDELT": 267,
        "GDELT_DOC": 0,
        "DIRECT_FEED": 0,
        "USGS": 0,
        "GDACS": 0
      },
      "last7_score": 82.735,
      "prev7_score": 16.014,
      "trend": "up",
      "trend_arrow": "🔺",
      "change_pct": 416.6,
      "place": "Jász-Nagykun-Szolnok, Hungary"
    },
    {
      "lon": 21.25,
      "lat": 52.25,
      "type": "hotspot_cell",
      "score": 96.708,
      "count": 274,
      "cell_deg": 0.5,
      "sources": {
        "GDELT": 274,
        "GDELT_DOC": 0,
        "DIRECT_FEED": 0,
        "USGS": 0,
        "GDACS": 0
      },
      "last7_score": 76.89,
      "prev7_score": 19.818,
      "trend": "up",
      "trend_arrow": "🔺",
      "change_pct": 288.0,
      "place": "Warsaw, Poland"
    },
    {
      "lon": 22.25,
      "lat": 55.25,
      "type": "hotspot_cell",
      "score": 76.387,
      "count": 89,
      "cell_deg": 0.5,
      "sources": {
        "GDELT": 0,
        "GDELT_DOC": 89,
        "DIRECT_FEED": 0,
        "USGS": 0,
        "GDACS": 0
      },
      "last7_score": 76.387,
      "prev7_score": 0.0,
      "trend": "new",
      "trend_arrow": "🆕",
      "change_pct": null,
      "place": "Tauragės seniūnija, Lithuania"
    }
  ]
}