{
  "generated_utc": "2026-04-02T19:07:18Z",
  "top": [
    {
      "lon": 14.25,
      "lat": 50.25,
      "type": "hotspot_cell",
      "score": 1027.248,
      "count": 1613,
      "cell_deg": 0.5,
      "sources": {
        "GDELT": 122,
        "GDELT_DOC": 1489,
        "DIRECT_FEED": 2,
        "USGS": 0,
        "GDACS": 0
      },
      "last7_score": 1019.607,
      "prev7_score": 7.641,
      "trend": "up",
      "trend_arrow": "🔺",
      "change_pct": 13244.1,
      "place": "SO ORP Kralupy nad Vltavou, Czechia"
    },
    {
      "lon": 26.25,
      "lat": 44.25,
      "type": "hotspot_cell",
      "score": 893.499,
      "count": 1348,
      "cell_deg": 0.5,
      "sources": {
        "GDELT": 158,
        "GDELT_DOC": 1186,
        "DIRECT_FEED": 4,
        "USGS": 0,
        "GDACS": 0
      },
      "last7_score": 883.447,
      "prev7_score": 10.052,
      "trend": "up",
      "trend_arrow": "🔺",
      "change_pct": 8688.5,
      "place": "Giurgiu, Romania"
    },
    {
      "lon": 25.25,
      "lat": 54.75,
      "type": "hotspot_cell",
      "score": 745.131,
      "count": 1214,
      "cell_deg": 0.5,
      "sources": {
        "GDELT": 99,
        "GDELT_DOC": 1115,
        "DIRECT_FEED": 0,
        "USGS": 0,
        "GDACS": 0
      },
      "last7_score": 739.494,
      "prev7_score": 5.637,
      "trend": "up",
      "trend_arrow": "🔺",
      "change_pct": 13018.4,
      "place": "Vilnius County, Lithuania"
    },
    {
      "lon": 19.25,
      "lat": 47.75,
      "type": "hotspot_cell",
      "score": 258.396,
      "count": 499,
      "cell_deg": 0.5,
      "sources": {
        "GDELT": 277,
        "GDELT_DOC": 0,
        "DIRECT_FEED": 222,
        "USGS": 0,
        "GDACS": 0
      },
      "last7_score": 236.005,
      "prev7_score": 22.391,
      "trend": "up",
      "trend_arrow": "🔺",
      "change_pct": 954.0,
      "place": "Pest, Hungary"
    },
    {
      "lon": 20.25,
      "lat": 52.25,
      "type": "hotspot_cell",
      "score": 193.9,
      "count": 474,
      "cell_deg": 0.5,
      "sources": {
        "GDELT": 474,
        "GDELT_DOC": 0,
        "DIRECT_FEED": 0,
        "USGS": 0,
        "GDACS": 0
      },
      "last7_score": 166.721,
      "prev7_score": 27.179,
      "trend": "up",
      "trend_arrow": "🔺",
      "change_pct": 513.4,
      "place": "Sochaczew County, Poland"
    },
    {
      "lon": 24.25,
      "lat": 56.75,
      "type": "hotspot_cell",
      "score": 129.486,
      "count": 191,
      "cell_deg": 0.5,
      "sources": {
        "GDELT": 48,
        "GDELT_DOC": 0,
        "DIRECT_FEED": 143,
        "USGS": 0,
        "GDACS": 0
      },
      "last7_score": 125.337,
      "prev7_score": 4.149,
      "trend": "up",
      "trend_arrow": "🔺",
      "change_pct": 2921.1,
      "place": "Ķekavas novads, Latvia"
    },
    {
      "lon": 20.25,
      "lat": 47.25,
      "type": "hotspot_cell",
      "score": 126.161,
      "count": 343,
      "cell_deg": 0.5,
      "sources": {
        "GDELT": 343,
        "GDELT_DOC": 0,
        "DIRECT_FEED": 0,
        "USGS": 0,
        "GDACS": 0
      },
      "last7_score": 101.561,
      "prev7_score": 24.6,
      "trend": "up",
      "trend_arrow": "🔺",
      "change_pct": 312.8,
      "place": "Jász-Nagykun-Szolnok, Hungary"
    },
    {
      "lon": 25.25,
      "lat": 46.25,
      "type": "hotspot_cell",
      "score": 122.581,
      "count": 321,
      "cell_deg": 0.5,
      "sources": {
        "GDELT": 321,
        "GDELT_DOC": 0,
        "DIRECT_FEED": 0,
        "USGS": 0,
        "GDACS": 0
      },
      "last7_score": 97.17,
      "prev7_score": 25.412,
      "trend": "up",
      "trend_arrow": "🔺",
      "change_pct": 282.4,
      "place": "Harghita, Romania"
    },
    {
      "lon": 27.75,
      "lat": 47.25,
      "type": "hotspot_cell",
      "score": 62.229,
      "count": 89,
      "cell_deg": 0.5,
      "sources": {
        "GDELT": 0,
        "GDELT_DOC": 89,
        "DIRECT_FEED": 0,
        "USGS": 0,
        "GDACS": 0
      },
      "last7_score": 62.229,
      "prev7_score": 0.0,
      "trend": "new",
      "trend_arrow": "🆕",
      "change_pct": null,
      "place": "Iași, Romania"
    },
    {
      "lon": 21.25,
      "lat": 52.25,
      "type": "hotspot_cell",
      "score": 55.707,
      "count": 139,
      "cell_deg": 0.5,
      "sources": {
        "GDELT": 139,
        "GDELT_DOC": 0,
        "DIRECT_FEED": 0,
        "USGS": 0,
        "GDACS": 0
      },
      "last7_score": 45.886,
      "prev7_score": 9.821,
      "trend": "up",
      "trend_arrow": "🔺",
      "change_pct": 367.2,
      "place": "Warsaw, Poland"
    }
  ]
}