{
  "generated_utc": "2026-05-19T15:30:32Z",
  "top": [
    {
      "lon": 26.25,
      "lat": 44.25,
      "type": "hotspot_cell",
      "score": 906.141,
      "count": 1484,
      "cell_deg": 0.5,
      "sources": {
        "GDELT": 204,
        "GDELT_DOC": 1276,
        "DIRECT_FEED": 4,
        "USGS": 0,
        "GDACS": 0
      },
      "last7_score": 893.572,
      "prev7_score": 12.57,
      "trend": "up",
      "trend_arrow": "🔺",
      "change_pct": 7008.9,
      "place": "Giurgiu, Romania"
    },
    {
      "lon": 14.25,
      "lat": 50.25,
      "type": "hotspot_cell",
      "score": 875.744,
      "count": 1511,
      "cell_deg": 0.5,
      "sources": {
        "GDELT": 108,
        "GDELT_DOC": 1397,
        "DIRECT_FEED": 6,
        "USGS": 0,
        "GDACS": 0
      },
      "last7_score": 868.775,
      "prev7_score": 6.969,
      "trend": "up",
      "trend_arrow": "🔺",
      "change_pct": 12365.8,
      "place": "SO ORP Kralupy nad Vltavou, Czechia"
    },
    {
      "lon": 25.25,
      "lat": 54.75,
      "type": "hotspot_cell",
      "score": 590.697,
      "count": 1035,
      "cell_deg": 0.5,
      "sources": {
        "GDELT": 76,
        "GDELT_DOC": 959,
        "DIRECT_FEED": 0,
        "USGS": 0,
        "GDACS": 0
      },
      "last7_score": 586.423,
      "prev7_score": 4.274,
      "trend": "up",
      "trend_arrow": "🔺",
      "change_pct": 13620.7,
      "place": "Vilnius County, Lithuania"
    },
    {
      "lon": 19.25,
      "lat": 47.75,
      "type": "hotspot_cell",
      "score": 243.514,
      "count": 535,
      "cell_deg": 0.5,
      "sources": {
        "GDELT": 312,
        "GDELT_DOC": 0,
        "DIRECT_FEED": 223,
        "USGS": 0,
        "GDACS": 0
      },
      "last7_score": 219.632,
      "prev7_score": 23.882,
      "trend": "up",
      "trend_arrow": "🔺",
      "change_pct": 819.7,
      "place": "Pest, Hungary"
    },
    {
      "lon": 20.25,
      "lat": 52.25,
      "type": "hotspot_cell",
      "score": 194.998,
      "count": 566,
      "cell_deg": 0.5,
      "sources": {
        "GDELT": 566,
        "GDELT_DOC": 0,
        "DIRECT_FEED": 0,
        "USGS": 0,
        "GDACS": 0
      },
      "last7_score": 163.002,
      "prev7_score": 31.997,
      "trend": "up",
      "trend_arrow": "🔺",
      "change_pct": 409.4,
      "place": "Sochaczew County, Poland"
    },
    {
      "lon": 24.25,
      "lat": 56.75,
      "type": "hotspot_cell",
      "score": 113.347,
      "count": 180,
      "cell_deg": 0.5,
      "sources": {
        "GDELT": 38,
        "GDELT_DOC": 0,
        "DIRECT_FEED": 142,
        "USGS": 0,
        "GDACS": 0
      },
      "last7_score": 112.526,
      "prev7_score": 0.821,
      "trend": "up",
      "trend_arrow": "🔺",
      "change_pct": 13613.9,
      "place": "Ķekavas novads, Latvia"
    },
    {
      "lon": 25.25,
      "lat": 46.25,
      "type": "hotspot_cell",
      "score": 108.068,
      "count": 282,
      "cell_deg": 0.5,
      "sources": {
        "GDELT": 282,
        "GDELT_DOC": 0,
        "DIRECT_FEED": 0,
        "USGS": 0,
        "GDACS": 0
      },
      "last7_score": 88.195,
      "prev7_score": 19.873,
      "trend": "up",
      "trend_arrow": "🔺",
      "change_pct": 343.8,
      "place": "Harghita, Romania"
    },
    {
      "lon": 20.25,
      "lat": 47.25,
      "type": "hotspot_cell",
      "score": 98.71,
      "count": 296,
      "cell_deg": 0.5,
      "sources": {
        "GDELT": 296,
        "GDELT_DOC": 0,
        "DIRECT_FEED": 0,
        "USGS": 0,
        "GDACS": 0
      },
      "last7_score": 75.604,
      "prev7_score": 23.106,
      "trend": "up",
      "trend_arrow": "🔺",
      "change_pct": 227.2,
      "place": "Jász-Nagykun-Szolnok, Hungary"
    },
    {
      "lon": 21.25,
      "lat": 52.25,
      "type": "hotspot_cell",
      "score": 85.921,
      "count": 226,
      "cell_deg": 0.5,
      "sources": {
        "GDELT": 226,
        "GDELT_DOC": 0,
        "DIRECT_FEED": 0,
        "USGS": 0,
        "GDACS": 0
      },
      "last7_score": 73.824,
      "prev7_score": 12.096,
      "trend": "up",
      "trend_arrow": "🔺",
      "change_pct": 510.3,
      "place": "Warsaw, Poland"
    },
    {
      "lon": 25.25,
      "lat": 57.25,
      "type": "hotspot_cell",
      "score": 75.825,
      "count": 187,
      "cell_deg": 0.5,
      "sources": {
        "GDELT": 187,
        "GDELT_DOC": 0,
        "DIRECT_FEED": 0,
        "USGS": 0,
        "GDACS": 0
      },
      "last7_score": 64.51,
      "prev7_score": 11.315,
      "trend": "up",
      "trend_arrow": "🔺",
      "change_pct": 470.1,
      "place": "Cēsu novads, Latvia"
    }
  ]
}