{
  "generated_utc": "2026-04-25T13:12:10Z",
  "top": [
    {
      "lon": 14.25,
      "lat": 50.25,
      "type": "hotspot_cell",
      "score": 1100.864,
      "count": 1664,
      "cell_deg": 0.5,
      "sources": {
        "GDELT": 181,
        "GDELT_DOC": 1479,
        "DIRECT_FEED": 4,
        "USGS": 0,
        "GDACS": 0
      },
      "last7_score": 1086.394,
      "prev7_score": 14.47,
      "trend": "up",
      "trend_arrow": "🔺",
      "change_pct": 7408.0,
      "place": "SO ORP Kralupy nad Vltavou, Czechia"
    },
    {
      "lon": 26.25,
      "lat": 44.25,
      "type": "hotspot_cell",
      "score": 968.353,
      "count": 1431,
      "cell_deg": 0.5,
      "sources": {
        "GDELT": 138,
        "GDELT_DOC": 1286,
        "DIRECT_FEED": 7,
        "USGS": 0,
        "GDACS": 0
      },
      "last7_score": 960.83,
      "prev7_score": 7.522,
      "trend": "up",
      "trend_arrow": "🔺",
      "change_pct": 12673.0,
      "place": "Giurgiu, Romania"
    },
    {
      "lon": 25.25,
      "lat": 54.75,
      "type": "hotspot_cell",
      "score": 768.221,
      "count": 1197,
      "cell_deg": 0.5,
      "sources": {
        "GDELT": 76,
        "GDELT_DOC": 1121,
        "DIRECT_FEED": 0,
        "USGS": 0,
        "GDACS": 0
      },
      "last7_score": 762.677,
      "prev7_score": 5.544,
      "trend": "up",
      "trend_arrow": "🔺",
      "change_pct": 13656.3,
      "place": "Vilnius County, Lithuania"
    },
    {
      "lon": 19.25,
      "lat": 47.75,
      "type": "hotspot_cell",
      "score": 372.418,
      "count": 1217,
      "cell_deg": 0.5,
      "sources": {
        "GDELT": 964,
        "GDELT_DOC": 0,
        "DIRECT_FEED": 253,
        "USGS": 0,
        "GDACS": 0
      },
      "last7_score": 304.685,
      "prev7_score": 67.733,
      "trend": "up",
      "trend_arrow": "🔺",
      "change_pct": 349.8,
      "place": "Pest, Hungary"
    },
    {
      "lon": 20.25,
      "lat": 47.25,
      "type": "hotspot_cell",
      "score": 260.528,
      "count": 861,
      "cell_deg": 0.5,
      "sources": {
        "GDELT": 861,
        "GDELT_DOC": 0,
        "DIRECT_FEED": 0,
        "USGS": 0,
        "GDACS": 0
      },
      "last7_score": 203.585,
      "prev7_score": 56.943,
      "trend": "up",
      "trend_arrow": "🔺",
      "change_pct": 257.5,
      "place": "Jász-Nagykun-Szolnok, Hungary"
    },
    {
      "lon": 20.25,
      "lat": 52.25,
      "type": "hotspot_cell",
      "score": 193.192,
      "count": 474,
      "cell_deg": 0.5,
      "sources": {
        "GDELT": 474,
        "GDELT_DOC": 0,
        "DIRECT_FEED": 0,
        "USGS": 0,
        "GDACS": 0
      },
      "last7_score": 163.605,
      "prev7_score": 29.587,
      "trend": "up",
      "trend_arrow": "🔺",
      "change_pct": 453.0,
      "place": "Sochaczew County, Poland"
    },
    {
      "lon": 24.25,
      "lat": 56.75,
      "type": "hotspot_cell",
      "score": 112.254,
      "count": 172,
      "cell_deg": 0.5,
      "sources": {
        "GDELT": 33,
        "GDELT_DOC": 0,
        "DIRECT_FEED": 139,
        "USGS": 0,
        "GDACS": 0
      },
      "last7_score": 109.523,
      "prev7_score": 2.731,
      "trend": "up",
      "trend_arrow": "🔺",
      "change_pct": 3909.8,
      "place": "Ķekavas novads, Latvia"
    },
    {
      "lon": 25.25,
      "lat": 46.25,
      "type": "hotspot_cell",
      "score": 100.011,
      "count": 270,
      "cell_deg": 0.5,
      "sources": {
        "GDELT": 270,
        "GDELT_DOC": 0,
        "DIRECT_FEED": 0,
        "USGS": 0,
        "GDACS": 0
      },
      "last7_score": 81.559,
      "prev7_score": 18.452,
      "trend": "up",
      "trend_arrow": "🔺",
      "change_pct": 342.0,
      "place": "Harghita, Romania"
    },
    {
      "lon": 26.75,
      "lat": 47.75,
      "type": "hotspot_cell",
      "score": 97.635,
      "count": 94,
      "cell_deg": 0.5,
      "sources": {
        "GDELT": 2,
        "GDELT_DOC": 91,
        "DIRECT_FEED": 1,
        "USGS": 0,
        "GDACS": 0
      },
      "last7_score": 97.437,
      "prev7_score": 0.198,
      "trend": "up",
      "trend_arrow": "🔺",
      "change_pct": 49028.7,
      "place": "Botoșani, Romania"
    },
    {
      "lon": 27.75,
      "lat": 47.25,
      "type": "hotspot_cell",
      "score": 92.606,
      "count": 130,
      "cell_deg": 0.5,
      "sources": {
        "GDELT": 0,
        "GDELT_DOC": 130,
        "DIRECT_FEED": 0,
        "USGS": 0,
        "GDACS": 0
      },
      "last7_score": 92.606,
      "prev7_score": 0.0,
      "trend": "new",
      "trend_arrow": "🆕",
      "change_pct": null,
      "place": "Iași, Romania"
    }
  ]
}