{
  "generated_utc": "2026-04-13T02:49:28Z",
  "top": [
    {
      "lon": 26.25,
      "lat": 44.25,
      "type": "hotspot_cell",
      "score": 822.307,
      "count": 1473,
      "cell_deg": 0.5,
      "sources": {
        "GDELT": 141,
        "GDELT_DOC": 1326,
        "DIRECT_FEED": 6,
        "USGS": 0,
        "GDACS": 0
      },
      "last7_score": 809.61,
      "prev7_score": 12.697,
      "trend": "up",
      "trend_arrow": "🔺",
      "change_pct": 6276.3,
      "place": "Giurgiu, Romania"
    },
    {
      "lon": 14.25,
      "lat": 50.25,
      "type": "hotspot_cell",
      "score": 725.88,
      "count": 1209,
      "cell_deg": 0.5,
      "sources": {
        "GDELT": 79,
        "GDELT_DOC": 1130,
        "DIRECT_FEED": 0,
        "USGS": 0,
        "GDACS": 0
      },
      "last7_score": 719.605,
      "prev7_score": 6.275,
      "trend": "up",
      "trend_arrow": "🔺",
      "change_pct": 11367.8,
      "place": "SO ORP Kralupy nad Vltavou, Czechia"
    },
    {
      "lon": 19.25,
      "lat": 47.75,
      "type": "hotspot_cell",
      "score": 648.381,
      "count": 1048,
      "cell_deg": 0.5,
      "sources": {
        "GDELT": 767,
        "GDELT_DOC": 0,
        "DIRECT_FEED": 281,
        "USGS": 0,
        "GDACS": 0
      },
      "last7_score": 627.211,
      "prev7_score": 21.17,
      "trend": "up",
      "trend_arrow": "🔺",
      "change_pct": 2862.7,
      "place": "Pest, Hungary"
    },
    {
      "lon": 25.25,
      "lat": 54.75,
      "type": "hotspot_cell",
      "score": 535.503,
      "count": 914,
      "cell_deg": 0.5,
      "sources": {
        "GDELT": 67,
        "GDELT_DOC": 845,
        "DIRECT_FEED": 2,
        "USGS": 0,
        "GDACS": 0
      },
      "last7_score": 531.136,
      "prev7_score": 4.367,
      "trend": "up",
      "trend_arrow": "🔺",
      "change_pct": 12063.0,
      "place": "Vilnius County, Lithuania"
    },
    {
      "lon": 20.25,
      "lat": 47.25,
      "type": "hotspot_cell",
      "score": 254.705,
      "count": 508,
      "cell_deg": 0.5,
      "sources": {
        "GDELT": 508,
        "GDELT_DOC": 0,
        "DIRECT_FEED": 0,
        "USGS": 0,
        "GDACS": 0
      },
      "last7_score": 228.56,
      "prev7_score": 26.144,
      "trend": "up",
      "trend_arrow": "🔺",
      "change_pct": 774.2,
      "place": "Jász-Nagykun-Szolnok, Hungary"
    },
    {
      "lon": 20.25,
      "lat": 52.25,
      "type": "hotspot_cell",
      "score": 128.925,
      "count": 384,
      "cell_deg": 0.5,
      "sources": {
        "GDELT": 384,
        "GDELT_DOC": 0,
        "DIRECT_FEED": 0,
        "USGS": 0,
        "GDACS": 0
      },
      "last7_score": 104.237,
      "prev7_score": 24.687,
      "trend": "up",
      "trend_arrow": "🔺",
      "change_pct": 322.2,
      "place": "Sochaczew County, Poland"
    },
    {
      "lon": 24.25,
      "lat": 56.75,
      "type": "hotspot_cell",
      "score": 96.378,
      "count": 158,
      "cell_deg": 0.5,
      "sources": {
        "GDELT": 20,
        "GDELT_DOC": 0,
        "DIRECT_FEED": 138,
        "USGS": 0,
        "GDACS": 0
      },
      "last7_score": 95.55,
      "prev7_score": 0.828,
      "trend": "up",
      "trend_arrow": "🔺",
      "change_pct": 11440.6,
      "place": "Ķekavas novads, Latvia"
    },
    {
      "lon": 25.25,
      "lat": 46.25,
      "type": "hotspot_cell",
      "score": 62.876,
      "count": 232,
      "cell_deg": 0.5,
      "sources": {
        "GDELT": 232,
        "GDELT_DOC": 0,
        "DIRECT_FEED": 0,
        "USGS": 0,
        "GDACS": 0
      },
      "last7_score": 44.675,
      "prev7_score": 18.2,
      "trend": "up",
      "trend_arrow": "🔺",
      "change_pct": 145.5,
      "place": "Harghita, Romania"
    },
    {
      "lon": 15.25,
      "lat": 49.75,
      "type": "hotspot_cell",
      "score": 45.779,
      "count": 120,
      "cell_deg": 0.5,
      "sources": {
        "GDELT": 120,
        "GDELT_DOC": 0,
        "DIRECT_FEED": 0,
        "USGS": 0,
        "GDACS": 0
      },
      "last7_score": 38.045,
      "prev7_score": 7.734,
      "trend": "up",
      "trend_arrow": "🔺",
      "change_pct": 391.9,
      "place": "Vysočina Region, Czechia"
    },
    {
      "lon": 24.25,
      "lat": 56.25,
      "type": "hotspot_cell",
      "score": 38.515,
      "count": 109,
      "cell_deg": 0.5,
      "sources": {
        "GDELT": 109,
        "GDELT_DOC": 0,
        "DIRECT_FEED": 0,
        "USGS": 0,
        "GDACS": 0
      },
      "last7_score": 33.471,
      "prev7_score": 5.045,
      "trend": "up",
      "trend_arrow": "🔺",
      "change_pct": 563.5,
      "place": "Namišių seniūnija, Lithuania"
    }
  ]
}