{
  "generated_utc": "2026-04-29T19:35:06Z",
  "top": [
    {
      "lon": 26.25,
      "lat": 44.25,
      "type": "hotspot_cell",
      "score": 1008.105,
      "count": 1657,
      "cell_deg": 0.5,
      "sources": {
        "GDELT": 164,
        "GDELT_DOC": 1485,
        "DIRECT_FEED": 8,
        "USGS": 0,
        "GDACS": 0
      },
      "last7_score": 995.732,
      "prev7_score": 12.373,
      "trend": "up",
      "trend_arrow": "🔺",
      "change_pct": 7947.8,
      "place": "Giurgiu, Romania"
    },
    {
      "lon": 14.25,
      "lat": 50.25,
      "type": "hotspot_cell",
      "score": 940.09,
      "count": 1676,
      "cell_deg": 0.5,
      "sources": {
        "GDELT": 217,
        "GDELT_DOC": 1457,
        "DIRECT_FEED": 2,
        "USGS": 0,
        "GDACS": 0
      },
      "last7_score": 927.219,
      "prev7_score": 12.872,
      "trend": "up",
      "trend_arrow": "🔺",
      "change_pct": 7103.6,
      "place": "SO ORP Kralupy nad Vltavou, Czechia"
    },
    {
      "lon": 25.25,
      "lat": 54.75,
      "type": "hotspot_cell",
      "score": 671.737,
      "count": 1132,
      "cell_deg": 0.5,
      "sources": {
        "GDELT": 72,
        "GDELT_DOC": 1060,
        "DIRECT_FEED": 0,
        "USGS": 0,
        "GDACS": 0
      },
      "last7_score": 668.098,
      "prev7_score": 3.639,
      "trend": "up",
      "trend_arrow": "🔺",
      "change_pct": 18259.4,
      "place": "Vilnius County, Lithuania"
    },
    {
      "lon": 19.25,
      "lat": 47.75,
      "type": "hotspot_cell",
      "score": 289.487,
      "count": 657,
      "cell_deg": 0.5,
      "sources": {
        "GDELT": 424,
        "GDELT_DOC": 0,
        "DIRECT_FEED": 233,
        "USGS": 0,
        "GDACS": 0
      },
      "last7_score": 248.082,
      "prev7_score": 41.405,
      "trend": "up",
      "trend_arrow": "🔺",
      "change_pct": 499.2,
      "place": "Pest, Hungary"
    },
    {
      "lon": 20.25,
      "lat": 52.25,
      "type": "hotspot_cell",
      "score": 181.708,
      "count": 485,
      "cell_deg": 0.5,
      "sources": {
        "GDELT": 485,
        "GDELT_DOC": 0,
        "DIRECT_FEED": 0,
        "USGS": 0,
        "GDACS": 0
      },
      "last7_score": 151.82,
      "prev7_score": 29.888,
      "trend": "up",
      "trend_arrow": "🔺",
      "change_pct": 408.0,
      "place": "Sochaczew County, Poland"
    },
    {
      "lon": 20.25,
      "lat": 47.25,
      "type": "hotspot_cell",
      "score": 180.785,
      "count": 591,
      "cell_deg": 0.5,
      "sources": {
        "GDELT": 591,
        "GDELT_DOC": 0,
        "DIRECT_FEED": 0,
        "USGS": 0,
        "GDACS": 0
      },
      "last7_score": 133.379,
      "prev7_score": 47.407,
      "trend": "up",
      "trend_arrow": "🔺",
      "change_pct": 181.4,
      "place": "Jász-Nagykun-Szolnok, Hungary"
    },
    {
      "lon": 25.25,
      "lat": 46.25,
      "type": "hotspot_cell",
      "score": 132.081,
      "count": 297,
      "cell_deg": 0.5,
      "sources": {
        "GDELT": 297,
        "GDELT_DOC": 0,
        "DIRECT_FEED": 0,
        "USGS": 0,
        "GDACS": 0
      },
      "last7_score": 116.011,
      "prev7_score": 16.07,
      "trend": "up",
      "trend_arrow": "🔺",
      "change_pct": 621.9,
      "place": "Harghita, Romania"
    },
    {
      "lon": 24.25,
      "lat": 56.75,
      "type": "hotspot_cell",
      "score": 119.28,
      "count": 168,
      "cell_deg": 0.5,
      "sources": {
        "GDELT": 31,
        "GDELT_DOC": 0,
        "DIRECT_FEED": 137,
        "USGS": 0,
        "GDACS": 0
      },
      "last7_score": 117.864,
      "prev7_score": 1.416,
      "trend": "up",
      "trend_arrow": "🔺",
      "change_pct": 8224.0,
      "place": "Ķekavas novads, Latvia"
    },
    {
      "lon": 15.25,
      "lat": 49.75,
      "type": "hotspot_cell",
      "score": 85.595,
      "count": 211,
      "cell_deg": 0.5,
      "sources": {
        "GDELT": 211,
        "GDELT_DOC": 0,
        "DIRECT_FEED": 0,
        "USGS": 0,
        "GDACS": 0
      },
      "last7_score": 72.133,
      "prev7_score": 13.463,
      "trend": "up",
      "trend_arrow": "🔺",
      "change_pct": 435.8,
      "place": "Vysočina Region, Czechia"
    },
    {
      "lon": 26.75,
      "lat": 47.75,
      "type": "hotspot_cell",
      "score": 81.224,
      "count": 154,
      "cell_deg": 0.5,
      "sources": {
        "GDELT": 2,
        "GDELT_DOC": 149,
        "DIRECT_FEED": 3,
        "USGS": 0,
        "GDACS": 0
      },
      "last7_score": 81.016,
      "prev7_score": 0.209,
      "trend": "up",
      "trend_arrow": "🔺",
      "change_pct": 38739.1,
      "place": "Botoșani, Romania"
    }
  ]
}