{
  "generated_utc": "2026-03-27T07:16:32Z",
  "top": [
    {
      "lon": 14.25,
      "lat": 50.25,
      "type": "hotspot_cell",
      "score": 925.191,
      "count": 1425,
      "cell_deg": 0.5,
      "sources": {
        "GDELT": 113,
        "GDELT_DOC": 1309,
        "DIRECT_FEED": 3,
        "USGS": 0,
        "GDACS": 0
      },
      "last7_score": 915.216,
      "prev7_score": 9.975,
      "trend": "up",
      "trend_arrow": "🔺",
      "change_pct": 9074.9,
      "place": "SO ORP Kralupy nad Vltavou, Czechia"
    },
    {
      "lon": 26.25,
      "lat": 44.25,
      "type": "hotspot_cell",
      "score": 748.535,
      "count": 1183,
      "cell_deg": 0.5,
      "sources": {
        "GDELT": 147,
        "GDELT_DOC": 1034,
        "DIRECT_FEED": 2,
        "USGS": 0,
        "GDACS": 0
      },
      "last7_score": 737.131,
      "prev7_score": 11.403,
      "trend": "up",
      "trend_arrow": "🔺",
      "change_pct": 6364.1,
      "place": "Giurgiu, Romania"
    },
    {
      "lon": 25.25,
      "lat": 54.75,
      "type": "hotspot_cell",
      "score": 576.361,
      "count": 963,
      "cell_deg": 0.5,
      "sources": {
        "GDELT": 79,
        "GDELT_DOC": 884,
        "DIRECT_FEED": 0,
        "USGS": 0,
        "GDACS": 0
      },
      "last7_score": 567.965,
      "prev7_score": 8.396,
      "trend": "up",
      "trend_arrow": "🔺",
      "change_pct": 6664.7,
      "place": "Vilnius County, Lithuania"
    },
    {
      "lon": 19.25,
      "lat": 47.75,
      "type": "hotspot_cell",
      "score": 271.086,
      "count": 549,
      "cell_deg": 0.5,
      "sources": {
        "GDELT": 338,
        "GDELT_DOC": 0,
        "DIRECT_FEED": 211,
        "USGS": 0,
        "GDACS": 0
      },
      "last7_score": 240.69,
      "prev7_score": 30.397,
      "trend": "up",
      "trend_arrow": "🔺",
      "change_pct": 691.8,
      "place": "Pest, Hungary"
    },
    {
      "lon": 20.25,
      "lat": 52.25,
      "type": "hotspot_cell",
      "score": 161.173,
      "count": 407,
      "cell_deg": 0.5,
      "sources": {
        "GDELT": 407,
        "GDELT_DOC": 0,
        "DIRECT_FEED": 0,
        "USGS": 0,
        "GDACS": 0
      },
      "last7_score": 124.928,
      "prev7_score": 36.245,
      "trend": "up",
      "trend_arrow": "🔺",
      "change_pct": 244.7,
      "place": "Sochaczew County, Poland"
    },
    {
      "lon": 24.25,
      "lat": 56.75,
      "type": "hotspot_cell",
      "score": 143.453,
      "count": 194,
      "cell_deg": 0.5,
      "sources": {
        "GDELT": 42,
        "GDELT_DOC": 0,
        "DIRECT_FEED": 152,
        "USGS": 0,
        "GDACS": 0
      },
      "last7_score": 140.491,
      "prev7_score": 2.962,
      "trend": "up",
      "trend_arrow": "🔺",
      "change_pct": 4643.5,
      "place": "Ķekavas novads, Latvia"
    },
    {
      "lon": 20.25,
      "lat": 47.25,
      "type": "hotspot_cell",
      "score": 140.154,
      "count": 383,
      "cell_deg": 0.5,
      "sources": {
        "GDELT": 383,
        "GDELT_DOC": 0,
        "DIRECT_FEED": 0,
        "USGS": 0,
        "GDACS": 0
      },
      "last7_score": 103.741,
      "prev7_score": 36.413,
      "trend": "up",
      "trend_arrow": "🔺",
      "change_pct": 184.9,
      "place": "Jász-Nagykun-Szolnok, Hungary"
    },
    {
      "lon": 25.25,
      "lat": 46.25,
      "type": "hotspot_cell",
      "score": 135.201,
      "count": 313,
      "cell_deg": 0.5,
      "sources": {
        "GDELT": 313,
        "GDELT_DOC": 0,
        "DIRECT_FEED": 0,
        "USGS": 0,
        "GDACS": 0
      },
      "last7_score": 110.323,
      "prev7_score": 24.878,
      "trend": "up",
      "trend_arrow": "🔺",
      "change_pct": 343.5,
      "place": "Harghita, Romania"
    },
    {
      "lon": 15.25,
      "lat": 49.75,
      "type": "hotspot_cell",
      "score": 64.73,
      "count": 169,
      "cell_deg": 0.5,
      "sources": {
        "GDELT": 169,
        "GDELT_DOC": 0,
        "DIRECT_FEED": 0,
        "USGS": 0,
        "GDACS": 0
      },
      "last7_score": 48.461,
      "prev7_score": 16.268,
      "trend": "up",
      "trend_arrow": "🔺",
      "change_pct": 197.9,
      "place": "Vysočina Region, Czechia"
    },
    {
      "lon": 27.75,
      "lat": 47.25,
      "type": "hotspot_cell",
      "score": 64.585,
      "count": 95,
      "cell_deg": 0.5,
      "sources": {
        "GDELT": 0,
        "GDELT_DOC": 95,
        "DIRECT_FEED": 0,
        "USGS": 0,
        "GDACS": 0
      },
      "last7_score": 64.585,
      "prev7_score": 0.0,
      "trend": "new",
      "trend_arrow": "🆕",
      "change_pct": null,
      "place": "Iași, Romania"
    }
  ]
}