{
  "generated_utc": "2026-05-23T07:11:09Z",
  "top": [
    {
      "lon": 26.25,
      "lat": 44.25,
      "type": "hotspot_cell",
      "score": 923.799,
      "count": 1571,
      "cell_deg": 0.5,
      "sources": {
        "GDELT": 191,
        "GDELT_DOC": 1378,
        "DIRECT_FEED": 2,
        "USGS": 0,
        "GDACS": 0
      },
      "last7_score": 905.597,
      "prev7_score": 18.202,
      "trend": "up",
      "trend_arrow": "🔺",
      "change_pct": 4875.4,
      "place": "Giurgiu, Romania"
    },
    {
      "lon": 14.25,
      "lat": 50.25,
      "type": "hotspot_cell",
      "score": 910.762,
      "count": 1422,
      "cell_deg": 0.5,
      "sources": {
        "GDELT": 130,
        "GDELT_DOC": 1278,
        "DIRECT_FEED": 14,
        "USGS": 0,
        "GDACS": 0
      },
      "last7_score": 901.937,
      "prev7_score": 8.825,
      "trend": "up",
      "trend_arrow": "🔺",
      "change_pct": 10120.3,
      "place": "SO ORP Kralupy nad Vltavou, Czechia"
    },
    {
      "lon": 25.25,
      "lat": 54.75,
      "type": "hotspot_cell",
      "score": 691.078,
      "count": 1060,
      "cell_deg": 0.5,
      "sources": {
        "GDELT": 101,
        "GDELT_DOC": 958,
        "DIRECT_FEED": 1,
        "USGS": 0,
        "GDACS": 0
      },
      "last7_score": 685.974,
      "prev7_score": 5.104,
      "trend": "up",
      "trend_arrow": "🔺",
      "change_pct": 13340.8,
      "place": "Vilnius County, Lithuania"
    },
    {
      "lon": 20.25,
      "lat": 52.25,
      "type": "hotspot_cell",
      "score": 406.624,
      "count": 779,
      "cell_deg": 0.5,
      "sources": {
        "GDELT": 779,
        "GDELT_DOC": 0,
        "DIRECT_FEED": 0,
        "USGS": 0,
        "GDACS": 0
      },
      "last7_score": 356.253,
      "prev7_score": 50.371,
      "trend": "up",
      "trend_arrow": "🔺",
      "change_pct": 607.3,
      "place": "Sochaczew County, Poland"
    },
    {
      "lon": 19.25,
      "lat": 47.75,
      "type": "hotspot_cell",
      "score": 253.784,
      "count": 498,
      "cell_deg": 0.5,
      "sources": {
        "GDELT": 257,
        "GDELT_DOC": 0,
        "DIRECT_FEED": 241,
        "USGS": 0,
        "GDACS": 0
      },
      "last7_score": 234.473,
      "prev7_score": 19.312,
      "trend": "up",
      "trend_arrow": "🔺",
      "change_pct": 1114.2,
      "place": "Pest, Hungary"
    },
    {
      "lon": 21.25,
      "lat": 52.25,
      "type": "hotspot_cell",
      "score": 129.212,
      "count": 267,
      "cell_deg": 0.5,
      "sources": {
        "GDELT": 267,
        "GDELT_DOC": 0,
        "DIRECT_FEED": 0,
        "USGS": 0,
        "GDACS": 0
      },
      "last7_score": 110.635,
      "prev7_score": 18.577,
      "trend": "up",
      "trend_arrow": "🔺",
      "change_pct": 495.5,
      "place": "Warsaw, Poland"
    },
    {
      "lon": 25.25,
      "lat": 46.25,
      "type": "hotspot_cell",
      "score": 126.208,
      "count": 310,
      "cell_deg": 0.5,
      "sources": {
        "GDELT": 310,
        "GDELT_DOC": 0,
        "DIRECT_FEED": 0,
        "USGS": 0,
        "GDACS": 0
      },
      "last7_score": 105.584,
      "prev7_score": 20.624,
      "trend": "up",
      "trend_arrow": "🔺",
      "change_pct": 412.0,
      "place": "Harghita, Romania"
    },
    {
      "lon": 24.25,
      "lat": 56.75,
      "type": "hotspot_cell",
      "score": 117.301,
      "count": 175,
      "cell_deg": 0.5,
      "sources": {
        "GDELT": 51,
        "GDELT_DOC": 0,
        "DIRECT_FEED": 124,
        "USGS": 0,
        "GDACS": 0
      },
      "last7_score": 113.575,
      "prev7_score": 3.726,
      "trend": "up",
      "trend_arrow": "🔺",
      "change_pct": 2948.6,
      "place": "Ķekavas novads, Latvia"
    },
    {
      "lon": 20.25,
      "lat": 47.25,
      "type": "hotspot_cell",
      "score": 103.153,
      "count": 283,
      "cell_deg": 0.5,
      "sources": {
        "GDELT": 283,
        "GDELT_DOC": 0,
        "DIRECT_FEED": 0,
        "USGS": 0,
        "GDACS": 0
      },
      "last7_score": 82.322,
      "prev7_score": 20.832,
      "trend": "up",
      "trend_arrow": "🔺",
      "change_pct": 295.2,
      "place": "Jász-Nagykun-Szolnok, Hungary"
    },
    {
      "lon": 24.25,
      "lat": 56.25,
      "type": "hotspot_cell",
      "score": 77.612,
      "count": 175,
      "cell_deg": 0.5,
      "sources": {
        "GDELT": 175,
        "GDELT_DOC": 0,
        "DIRECT_FEED": 0,
        "USGS": 0,
        "GDACS": 0
      },
      "last7_score": 67.759,
      "prev7_score": 9.853,
      "trend": "up",
      "trend_arrow": "🔺",
      "change_pct": 587.7,
      "place": "Namišių seniūnija, Lithuania"
    }
  ]
}