{
  "generated_utc": "2026-06-28T02:43:25Z",
  "top": [
    {
      "lon": 14.25,
      "lat": 50.25,
      "type": "hotspot_cell",
      "score": 708.13,
      "count": 1182,
      "cell_deg": 0.5,
      "sources": {
        "GDELT": 124,
        "GDELT_DOC": 1047,
        "DIRECT_FEED": 11,
        "USGS": 0,
        "GDACS": 0
      },
      "last7_score": 699.914,
      "prev7_score": 8.217,
      "trend": "up",
      "trend_arrow": "🔺",
      "change_pct": 8418.0,
      "place": "SO ORP Kralupy nad Vltavou, Czechia"
    },
    {
      "lon": 26.25,
      "lat": 44.25,
      "type": "hotspot_cell",
      "score": 616.998,
      "count": 1062,
      "cell_deg": 0.5,
      "sources": {
        "GDELT": 135,
        "GDELT_DOC": 917,
        "DIRECT_FEED": 10,
        "USGS": 0,
        "GDACS": 0
      },
      "last7_score": 608.619,
      "prev7_score": 8.378,
      "trend": "up",
      "trend_arrow": "🔺",
      "change_pct": 7164.1,
      "place": "Giurgiu, Romania"
    },
    {
      "lon": 25.25,
      "lat": 54.75,
      "type": "hotspot_cell",
      "score": 377.615,
      "count": 611,
      "cell_deg": 0.5,
      "sources": {
        "GDELT": 57,
        "GDELT_DOC": 554,
        "DIRECT_FEED": 0,
        "USGS": 0,
        "GDACS": 0
      },
      "last7_score": 373.981,
      "prev7_score": 3.634,
      "trend": "up",
      "trend_arrow": "🔺",
      "change_pct": 10189.8,
      "place": "Vilnius County, Lithuania"
    },
    {
      "lon": 20.25,
      "lat": 52.25,
      "type": "hotspot_cell",
      "score": 190.681,
      "count": 516,
      "cell_deg": 0.5,
      "sources": {
        "GDELT": 516,
        "GDELT_DOC": 0,
        "DIRECT_FEED": 0,
        "USGS": 0,
        "GDACS": 0
      },
      "last7_score": 155.916,
      "prev7_score": 34.765,
      "trend": "up",
      "trend_arrow": "🔺",
      "change_pct": 348.5,
      "place": "Sochaczew County, Poland"
    },
    {
      "lon": 19.25,
      "lat": 47.75,
      "type": "hotspot_cell",
      "score": 178.997,
      "count": 357,
      "cell_deg": 0.5,
      "sources": {
        "GDELT": 195,
        "GDELT_DOC": 0,
        "DIRECT_FEED": 162,
        "USGS": 0,
        "GDACS": 0
      },
      "last7_score": 167.931,
      "prev7_score": 11.066,
      "trend": "up",
      "trend_arrow": "🔺",
      "change_pct": 1417.5,
      "place": "Pest, Hungary"
    },
    {
      "lon": 25.25,
      "lat": 46.25,
      "type": "hotspot_cell",
      "score": 124.63,
      "count": 394,
      "cell_deg": 0.5,
      "sources": {
        "GDELT": 394,
        "GDELT_DOC": 0,
        "DIRECT_FEED": 0,
        "USGS": 0,
        "GDACS": 0
      },
      "last7_score": 98.302,
      "prev7_score": 26.329,
      "trend": "up",
      "trend_arrow": "🔺",
      "change_pct": 273.4,
      "place": "Harghita, Romania"
    },
    {
      "lon": 21.25,
      "lat": 52.25,
      "type": "hotspot_cell",
      "score": 122.807,
      "count": 348,
      "cell_deg": 0.5,
      "sources": {
        "GDELT": 348,
        "GDELT_DOC": 0,
        "DIRECT_FEED": 0,
        "USGS": 0,
        "GDACS": 0
      },
      "last7_score": 93.485,
      "prev7_score": 29.322,
      "trend": "up",
      "trend_arrow": "🔺",
      "change_pct": 218.8,
      "place": "Warsaw, Poland"
    },
    {
      "lon": 24.25,
      "lat": 56.75,
      "type": "hotspot_cell",
      "score": 111.581,
      "count": 176,
      "cell_deg": 0.5,
      "sources": {
        "GDELT": 31,
        "GDELT_DOC": 0,
        "DIRECT_FEED": 145,
        "USGS": 0,
        "GDACS": 0
      },
      "last7_score": 108.898,
      "prev7_score": 2.683,
      "trend": "up",
      "trend_arrow": "🔺",
      "change_pct": 3959.0,
      "place": "Ķekavas novads, Latvia"
    },
    {
      "lon": 20.25,
      "lat": 47.25,
      "type": "hotspot_cell",
      "score": 71.003,
      "count": 228,
      "cell_deg": 0.5,
      "sources": {
        "GDELT": 227,
        "GDELT_DOC": 0,
        "DIRECT_FEED": 0,
        "USGS": 0,
        "GDACS": 1
      },
      "last7_score": 55.376,
      "prev7_score": 15.626,
      "trend": "up",
      "trend_arrow": "🔺",
      "change_pct": 254.4,
      "place": "Jász-Nagykun-Szolnok, Hungary"
    },
    {
      "lon": 15.25,
      "lat": 49.75,
      "type": "hotspot_cell",
      "score": 58.947,
      "count": 152,
      "cell_deg": 0.5,
      "sources": {
        "GDELT": 152,
        "GDELT_DOC": 0,
        "DIRECT_FEED": 0,
        "USGS": 0,
        "GDACS": 0
      },
      "last7_score": 47.9,
      "prev7_score": 11.047,
      "trend": "up",
      "trend_arrow": "🔺",
      "change_pct": 333.6,
      "place": "Vysočina Region, Czechia"
    }
  ]
}