{
  "generated_utc": "2026-04-23T13:50:15Z",
  "top": [
    {
      "lon": 14.25,
      "lat": 50.25,
      "type": "hotspot_cell",
      "score": 1014.476,
      "count": 1484,
      "cell_deg": 0.5,
      "sources": {
        "GDELT": 159,
        "GDELT_DOC": 1321,
        "DIRECT_FEED": 4,
        "USGS": 0,
        "GDACS": 0
      },
      "last7_score": 1004.085,
      "prev7_score": 10.39,
      "trend": "up",
      "trend_arrow": "🔺",
      "change_pct": 9563.6,
      "place": "SO ORP Kralupy nad Vltavou, Czechia"
    },
    {
      "lon": 26.25,
      "lat": 44.25,
      "type": "hotspot_cell",
      "score": 845.21,
      "count": 1316,
      "cell_deg": 0.5,
      "sources": {
        "GDELT": 126,
        "GDELT_DOC": 1184,
        "DIRECT_FEED": 6,
        "USGS": 0,
        "GDACS": 0
      },
      "last7_score": 837.452,
      "prev7_score": 7.759,
      "trend": "up",
      "trend_arrow": "🔺",
      "change_pct": 10693.6,
      "place": "Giurgiu, Romania"
    },
    {
      "lon": 25.25,
      "lat": 54.75,
      "type": "hotspot_cell",
      "score": 704.92,
      "count": 1054,
      "cell_deg": 0.5,
      "sources": {
        "GDELT": 71,
        "GDELT_DOC": 983,
        "DIRECT_FEED": 0,
        "USGS": 0,
        "GDACS": 0
      },
      "last7_score": 698.707,
      "prev7_score": 6.213,
      "trend": "up",
      "trend_arrow": "🔺",
      "change_pct": 11145.7,
      "place": "Vilnius County, Lithuania"
    },
    {
      "lon": 19.25,
      "lat": 47.75,
      "type": "hotspot_cell",
      "score": 454.459,
      "count": 1275,
      "cell_deg": 0.5,
      "sources": {
        "GDELT": 1025,
        "GDELT_DOC": 0,
        "DIRECT_FEED": 250,
        "USGS": 0,
        "GDACS": 0
      },
      "last7_score": 359.684,
      "prev7_score": 94.775,
      "trend": "up",
      "trend_arrow": "🔺",
      "change_pct": 279.5,
      "place": "Pest, Hungary"
    },
    {
      "lon": 20.25,
      "lat": 47.25,
      "type": "hotspot_cell",
      "score": 292.053,
      "count": 848,
      "cell_deg": 0.5,
      "sources": {
        "GDELT": 848,
        "GDELT_DOC": 0,
        "DIRECT_FEED": 0,
        "USGS": 0,
        "GDACS": 0
      },
      "last7_score": 221.451,
      "prev7_score": 70.602,
      "trend": "up",
      "trend_arrow": "🔺",
      "change_pct": 213.7,
      "place": "Jász-Nagykun-Szolnok, Hungary"
    },
    {
      "lon": 20.25,
      "lat": 52.25,
      "type": "hotspot_cell",
      "score": 188.228,
      "count": 444,
      "cell_deg": 0.5,
      "sources": {
        "GDELT": 444,
        "GDELT_DOC": 0,
        "DIRECT_FEED": 0,
        "USGS": 0,
        "GDACS": 0
      },
      "last7_score": 159.74,
      "prev7_score": 28.487,
      "trend": "up",
      "trend_arrow": "🔺",
      "change_pct": 460.7,
      "place": "Sochaczew County, Poland"
    },
    {
      "lon": 24.25,
      "lat": 56.75,
      "type": "hotspot_cell",
      "score": 118.499,
      "count": 171,
      "cell_deg": 0.5,
      "sources": {
        "GDELT": 31,
        "GDELT_DOC": 0,
        "DIRECT_FEED": 140,
        "USGS": 0,
        "GDACS": 0
      },
      "last7_score": 115.324,
      "prev7_score": 3.175,
      "trend": "up",
      "trend_arrow": "🔺",
      "change_pct": 3531.8,
      "place": "Ķekavas novads, Latvia"
    },
    {
      "lon": 25.25,
      "lat": 46.25,
      "type": "hotspot_cell",
      "score": 99.725,
      "count": 241,
      "cell_deg": 0.5,
      "sources": {
        "GDELT": 241,
        "GDELT_DOC": 0,
        "DIRECT_FEED": 0,
        "USGS": 0,
        "GDACS": 0
      },
      "last7_score": 79.465,
      "prev7_score": 20.259,
      "trend": "up",
      "trend_arrow": "🔺",
      "change_pct": 292.2,
      "place": "Harghita, Romania"
    },
    {
      "lon": 27.75,
      "lat": 47.25,
      "type": "hotspot_cell",
      "score": 89.782,
      "count": 106,
      "cell_deg": 0.5,
      "sources": {
        "GDELT": 0,
        "GDELT_DOC": 106,
        "DIRECT_FEED": 0,
        "USGS": 0,
        "GDACS": 0
      },
      "last7_score": 89.782,
      "prev7_score": 0.0,
      "trend": "new",
      "trend_arrow": "🆕",
      "change_pct": null,
      "place": "Iași, Romania"
    },
    {
      "lon": 15.25,
      "lat": 49.75,
      "type": "hotspot_cell",
      "score": 77.284,
      "count": 202,
      "cell_deg": 0.5,
      "sources": {
        "GDELT": 202,
        "GDELT_DOC": 0,
        "DIRECT_FEED": 0,
        "USGS": 0,
        "GDACS": 0
      },
      "last7_score": 64.019,
      "prev7_score": 13.264,
      "trend": "up",
      "trend_arrow": "🔺",
      "change_pct": 382.6,
      "place": "Vysočina Region, Czechia"
    }
  ]
}