{
  "generated_utc": "2026-07-02T19:22:06Z",
  "top": [
    {
      "lon": 26.25,
      "lat": 44.25,
      "type": "hotspot_cell",
      "score": 329.886,
      "count": 707,
      "cell_deg": 0.5,
      "sources": {
        "GDELT": 152,
        "GDELT_DOC": 552,
        "DIRECT_FEED": 3,
        "USGS": 0,
        "GDACS": 0
      },
      "last7_score": 319.024,
      "prev7_score": 10.863,
      "trend": "up",
      "trend_arrow": "🔺",
      "change_pct": 2836.9,
      "place": "Giurgiu, Romania"
    },
    {
      "lon": 14.25,
      "lat": 50.25,
      "type": "hotspot_cell",
      "score": 277.128,
      "count": 590,
      "cell_deg": 0.5,
      "sources": {
        "GDELT": 133,
        "GDELT_DOC": 456,
        "DIRECT_FEED": 1,
        "USGS": 0,
        "GDACS": 0
      },
      "last7_score": 268.444,
      "prev7_score": 8.684,
      "trend": "up",
      "trend_arrow": "🔺",
      "change_pct": 2991.1,
      "place": "SO ORP Kralupy nad Vltavou, Czechia"
    },
    {
      "lon": 25.25,
      "lat": 54.75,
      "type": "hotspot_cell",
      "score": 272.567,
      "count": 552,
      "cell_deg": 0.5,
      "sources": {
        "GDELT": 65,
        "GDELT_DOC": 487,
        "DIRECT_FEED": 0,
        "USGS": 0,
        "GDACS": 0
      },
      "last7_score": 268.616,
      "prev7_score": 3.951,
      "trend": "up",
      "trend_arrow": "🔺",
      "change_pct": 6698.0,
      "place": "Vilnius County, Lithuania"
    },
    {
      "lon": 20.25,
      "lat": 52.25,
      "type": "hotspot_cell",
      "score": 227.114,
      "count": 558,
      "cell_deg": 0.5,
      "sources": {
        "GDELT": 558,
        "GDELT_DOC": 0,
        "DIRECT_FEED": 0,
        "USGS": 0,
        "GDACS": 0
      },
      "last7_score": 189.57,
      "prev7_score": 37.544,
      "trend": "up",
      "trend_arrow": "🔺",
      "change_pct": 404.9,
      "place": "Sochaczew County, Poland"
    },
    {
      "lon": 19.25,
      "lat": 47.75,
      "type": "hotspot_cell",
      "score": 210.402,
      "count": 369,
      "cell_deg": 0.5,
      "sources": {
        "GDELT": 193,
        "GDELT_DOC": 0,
        "DIRECT_FEED": 176,
        "USGS": 0,
        "GDACS": 0
      },
      "last7_score": 195.468,
      "prev7_score": 14.933,
      "trend": "up",
      "trend_arrow": "🔺",
      "change_pct": 1209.0,
      "place": "Pest, Hungary"
    },
    {
      "lon": 25.25,
      "lat": 46.25,
      "type": "hotspot_cell",
      "score": 130.949,
      "count": 354,
      "cell_deg": 0.5,
      "sources": {
        "GDELT": 354,
        "GDELT_DOC": 0,
        "DIRECT_FEED": 0,
        "USGS": 0,
        "GDACS": 0
      },
      "last7_score": 106.207,
      "prev7_score": 24.743,
      "trend": "up",
      "trend_arrow": "🔺",
      "change_pct": 329.2,
      "place": "Harghita, Romania"
    },
    {
      "lon": 24.25,
      "lat": 56.75,
      "type": "hotspot_cell",
      "score": 120.238,
      "count": 178,
      "cell_deg": 0.5,
      "sources": {
        "GDELT": 29,
        "GDELT_DOC": 0,
        "DIRECT_FEED": 149,
        "USGS": 0,
        "GDACS": 0
      },
      "last7_score": 118.4,
      "prev7_score": 1.838,
      "trend": "up",
      "trend_arrow": "🔺",
      "change_pct": 6343.1,
      "place": "Ķekavas novads, Latvia"
    },
    {
      "lon": 21.25,
      "lat": 52.25,
      "type": "hotspot_cell",
      "score": 104.303,
      "count": 343,
      "cell_deg": 0.5,
      "sources": {
        "GDELT": 343,
        "GDELT_DOC": 0,
        "DIRECT_FEED": 0,
        "USGS": 0,
        "GDACS": 0
      },
      "last7_score": 76.79,
      "prev7_score": 27.513,
      "trend": "up",
      "trend_arrow": "🔺",
      "change_pct": 179.1,
      "place": "Warsaw, Poland"
    },
    {
      "lon": 15.25,
      "lat": 49.75,
      "type": "hotspot_cell",
      "score": 66.346,
      "count": 169,
      "cell_deg": 0.5,
      "sources": {
        "GDELT": 169,
        "GDELT_DOC": 0,
        "DIRECT_FEED": 0,
        "USGS": 0,
        "GDACS": 0
      },
      "last7_score": 57.114,
      "prev7_score": 9.233,
      "trend": "up",
      "trend_arrow": "🔺",
      "change_pct": 518.6,
      "place": "Vysočina Region, Czechia"
    },
    {
      "lon": 20.25,
      "lat": 47.25,
      "type": "hotspot_cell",
      "score": 63.746,
      "count": 186,
      "cell_deg": 0.5,
      "sources": {
        "GDELT": 186,
        "GDELT_DOC": 0,
        "DIRECT_FEED": 0,
        "USGS": 0,
        "GDACS": 0
      },
      "last7_score": 48.843,
      "prev7_score": 14.903,
      "trend": "up",
      "trend_arrow": "🔺",
      "change_pct": 227.8,
      "place": "Jász-Nagykun-Szolnok, Hungary"
    }
  ]
}