{
  "generated_utc": "2026-07-04T13:10:07Z",
  "top": [
    {
      "lon": 20.25,
      "lat": 52.25,
      "type": "hotspot_cell",
      "score": 212.479,
      "count": 551,
      "cell_deg": 0.5,
      "sources": {
        "GDELT": 551,
        "GDELT_DOC": 0,
        "DIRECT_FEED": 0,
        "USGS": 0,
        "GDACS": 0
      },
      "last7_score": 176.115,
      "prev7_score": 36.364,
      "trend": "up",
      "trend_arrow": "🔺",
      "change_pct": 384.3,
      "place": "Sochaczew County, Poland"
    },
    {
      "lon": 26.25,
      "lat": 44.25,
      "type": "hotspot_cell",
      "score": 187.279,
      "count": 506,
      "cell_deg": 0.5,
      "sources": {
        "GDELT": 144,
        "GDELT_DOC": 357,
        "DIRECT_FEED": 5,
        "USGS": 0,
        "GDACS": 0
      },
      "last7_score": 178.679,
      "prev7_score": 8.599,
      "trend": "up",
      "trend_arrow": "🔺",
      "change_pct": 1977.8,
      "place": "Giurgiu, Romania"
    },
    {
      "lon": 19.25,
      "lat": 47.75,
      "type": "hotspot_cell",
      "score": 181.132,
      "count": 361,
      "cell_deg": 0.5,
      "sources": {
        "GDELT": 182,
        "GDELT_DOC": 0,
        "DIRECT_FEED": 179,
        "USGS": 0,
        "GDACS": 0
      },
      "last7_score": 166.736,
      "prev7_score": 14.396,
      "trend": "up",
      "trend_arrow": "🔺",
      "change_pct": 1058.2,
      "place": "Pest, Hungary"
    },
    {
      "lon": 14.25,
      "lat": 50.25,
      "type": "hotspot_cell",
      "score": 160.867,
      "count": 441,
      "cell_deg": 0.5,
      "sources": {
        "GDELT": 134,
        "GDELT_DOC": 306,
        "DIRECT_FEED": 1,
        "USGS": 0,
        "GDACS": 0
      },
      "last7_score": 152.162,
      "prev7_score": 8.705,
      "trend": "up",
      "trend_arrow": "🔺",
      "change_pct": 1648.0,
      "place": "SO ORP Kralupy nad Vltavou, Czechia"
    },
    {
      "lon": 25.25,
      "lat": 54.75,
      "type": "hotspot_cell",
      "score": 159.038,
      "count": 397,
      "cell_deg": 0.5,
      "sources": {
        "GDELT": 70,
        "GDELT_DOC": 327,
        "DIRECT_FEED": 0,
        "USGS": 0,
        "GDACS": 0
      },
      "last7_score": 155.475,
      "prev7_score": 3.563,
      "trend": "up",
      "trend_arrow": "🔺",
      "change_pct": 4263.5,
      "place": "Vilnius County, Lithuania"
    },
    {
      "lon": 25.25,
      "lat": 46.25,
      "type": "hotspot_cell",
      "score": 128.014,
      "count": 351,
      "cell_deg": 0.5,
      "sources": {
        "GDELT": 351,
        "GDELT_DOC": 0,
        "DIRECT_FEED": 0,
        "USGS": 0,
        "GDACS": 0
      },
      "last7_score": 104.898,
      "prev7_score": 23.117,
      "trend": "up",
      "trend_arrow": "🔺",
      "change_pct": 353.8,
      "place": "Harghita, Romania"
    },
    {
      "lon": 21.25,
      "lat": 52.25,
      "type": "hotspot_cell",
      "score": 119.301,
      "count": 322,
      "cell_deg": 0.5,
      "sources": {
        "GDELT": 322,
        "GDELT_DOC": 0,
        "DIRECT_FEED": 0,
        "USGS": 0,
        "GDACS": 0
      },
      "last7_score": 97.382,
      "prev7_score": 21.919,
      "trend": "up",
      "trend_arrow": "🔺",
      "change_pct": 344.3,
      "place": "Warsaw, Poland"
    },
    {
      "lon": 24.25,
      "lat": 56.75,
      "type": "hotspot_cell",
      "score": 109.123,
      "count": 169,
      "cell_deg": 0.5,
      "sources": {
        "GDELT": 26,
        "GDELT_DOC": 0,
        "DIRECT_FEED": 143,
        "USGS": 0,
        "GDACS": 0
      },
      "last7_score": 107.513,
      "prev7_score": 1.611,
      "trend": "up",
      "trend_arrow": "🔺",
      "change_pct": 6575.4,
      "place": "Ķekavas novads, Latvia"
    },
    {
      "lon": 20.25,
      "lat": 47.25,
      "type": "hotspot_cell",
      "score": 60.142,
      "count": 182,
      "cell_deg": 0.5,
      "sources": {
        "GDELT": 182,
        "GDELT_DOC": 0,
        "DIRECT_FEED": 0,
        "USGS": 0,
        "GDACS": 0
      },
      "last7_score": 47.146,
      "prev7_score": 12.996,
      "trend": "up",
      "trend_arrow": "🔺",
      "change_pct": 262.8,
      "place": "Jász-Nagykun-Szolnok, Hungary"
    },
    {
      "lon": 15.25,
      "lat": 49.75,
      "type": "hotspot_cell",
      "score": 59.884,
      "count": 162,
      "cell_deg": 0.5,
      "sources": {
        "GDELT": 162,
        "GDELT_DOC": 0,
        "DIRECT_FEED": 0,
        "USGS": 0,
        "GDACS": 0
      },
      "last7_score": 49.033,
      "prev7_score": 10.851,
      "trend": "up",
      "trend_arrow": "🔺",
      "change_pct": 351.9,
      "place": "Vysočina Region, Czechia"
    }
  ]
}