{
  "generated_utc": "2026-05-13T03:37:26Z",
  "top": [
    {
      "lon": 26.25,
      "lat": 44.25,
      "type": "hotspot_cell",
      "score": 854.106,
      "count": 1343,
      "cell_deg": 0.5,
      "sources": {
        "GDELT": 155,
        "GDELT_DOC": 1180,
        "DIRECT_FEED": 8,
        "USGS": 0,
        "GDACS": 0
      },
      "last7_score": 839.955,
      "prev7_score": 14.152,
      "trend": "up",
      "trend_arrow": "🔺",
      "change_pct": 5835.4,
      "place": "Giurgiu, Romania"
    },
    {
      "lon": 14.25,
      "lat": 50.25,
      "type": "hotspot_cell",
      "score": 823.447,
      "count": 1339,
      "cell_deg": 0.5,
      "sources": {
        "GDELT": 120,
        "GDELT_DOC": 1216,
        "DIRECT_FEED": 3,
        "USGS": 0,
        "GDACS": 0
      },
      "last7_score": 812.553,
      "prev7_score": 10.893,
      "trend": "up",
      "trend_arrow": "🔺",
      "change_pct": 7359.2,
      "place": "SO ORP Kralupy nad Vltavou, Czechia"
    },
    {
      "lon": 25.25,
      "lat": 54.75,
      "type": "hotspot_cell",
      "score": 632.053,
      "count": 1000,
      "cell_deg": 0.5,
      "sources": {
        "GDELT": 58,
        "GDELT_DOC": 942,
        "DIRECT_FEED": 0,
        "USGS": 0,
        "GDACS": 0
      },
      "last7_score": 628.62,
      "prev7_score": 3.433,
      "trend": "up",
      "trend_arrow": "🔺",
      "change_pct": 18209.5,
      "place": "Vilnius County, Lithuania"
    },
    {
      "lon": 19.25,
      "lat": 47.75,
      "type": "hotspot_cell",
      "score": 270.623,
      "count": 484,
      "cell_deg": 0.5,
      "sources": {
        "GDELT": 255,
        "GDELT_DOC": 0,
        "DIRECT_FEED": 229,
        "USGS": 0,
        "GDACS": 0
      },
      "last7_score": 255.591,
      "prev7_score": 15.031,
      "trend": "up",
      "trend_arrow": "🔺",
      "change_pct": 1600.4,
      "place": "Pest, Hungary"
    },
    {
      "lon": 20.25,
      "lat": 52.25,
      "type": "hotspot_cell",
      "score": 181.55,
      "count": 505,
      "cell_deg": 0.5,
      "sources": {
        "GDELT": 505,
        "GDELT_DOC": 0,
        "DIRECT_FEED": 0,
        "USGS": 0,
        "GDACS": 0
      },
      "last7_score": 137.57,
      "prev7_score": 43.98,
      "trend": "up",
      "trend_arrow": "🔺",
      "change_pct": 212.8,
      "place": "Sochaczew County, Poland"
    },
    {
      "lon": 20.25,
      "lat": 47.25,
      "type": "hotspot_cell",
      "score": 116.316,
      "count": 270,
      "cell_deg": 0.5,
      "sources": {
        "GDELT": 270,
        "GDELT_DOC": 0,
        "DIRECT_FEED": 0,
        "USGS": 0,
        "GDACS": 0
      },
      "last7_score": 98.853,
      "prev7_score": 17.463,
      "trend": "up",
      "trend_arrow": "🔺",
      "change_pct": 466.1,
      "place": "Jász-Nagykun-Szolnok, Hungary"
    },
    {
      "lon": 25.25,
      "lat": 46.25,
      "type": "hotspot_cell",
      "score": 111.243,
      "count": 310,
      "cell_deg": 0.5,
      "sources": {
        "GDELT": 310,
        "GDELT_DOC": 0,
        "DIRECT_FEED": 0,
        "USGS": 0,
        "GDACS": 0
      },
      "last7_score": 83.127,
      "prev7_score": 28.115,
      "trend": "up",
      "trend_arrow": "🔺",
      "change_pct": 195.7,
      "place": "Harghita, Romania"
    },
    {
      "lon": 24.25,
      "lat": 56.75,
      "type": "hotspot_cell",
      "score": 110.823,
      "count": 164,
      "cell_deg": 0.5,
      "sources": {
        "GDELT": 25,
        "GDELT_DOC": 0,
        "DIRECT_FEED": 139,
        "USGS": 0,
        "GDACS": 0
      },
      "last7_score": 106.936,
      "prev7_score": 3.888,
      "trend": "up",
      "trend_arrow": "🔺",
      "change_pct": 2650.5,
      "place": "Ķekavas novads, Latvia"
    },
    {
      "lon": 21.25,
      "lat": 52.25,
      "type": "hotspot_cell",
      "score": 62.591,
      "count": 158,
      "cell_deg": 0.5,
      "sources": {
        "GDELT": 158,
        "GDELT_DOC": 0,
        "DIRECT_FEED": 0,
        "USGS": 0,
        "GDACS": 0
      },
      "last7_score": 51.521,
      "prev7_score": 11.07,
      "trend": "up",
      "trend_arrow": "🔺",
      "change_pct": 365.4,
      "place": "Warsaw, Poland"
    },
    {
      "lon": 27.75,
      "lat": 47.25,
      "type": "hotspot_cell",
      "score": 62.363,
      "count": 106,
      "cell_deg": 0.5,
      "sources": {
        "GDELT": 0,
        "GDELT_DOC": 106,
        "DIRECT_FEED": 0,
        "USGS": 0,
        "GDACS": 0
      },
      "last7_score": 62.363,
      "prev7_score": 0.0,
      "trend": "new",
      "trend_arrow": "🆕",
      "change_pct": null,
      "place": "Iași, Romania"
    }
  ]
}