{
  "generated_utc": "2026-04-03T13:13:12Z",
  "top": [
    {
      "lon": 14.25,
      "lat": 50.25,
      "type": "hotspot_cell",
      "score": 941.397,
      "count": 1524,
      "cell_deg": 0.5,
      "sources": {
        "GDELT": 113,
        "GDELT_DOC": 1409,
        "DIRECT_FEED": 2,
        "USGS": 0,
        "GDACS": 0
      },
      "last7_score": 930.643,
      "prev7_score": 10.755,
      "trend": "up",
      "trend_arrow": "🔺",
      "change_pct": 8553.4,
      "place": "SO ORP Kralupy nad Vltavou, Czechia"
    },
    {
      "lon": 26.25,
      "lat": 44.25,
      "type": "hotspot_cell",
      "score": 840.036,
      "count": 1358,
      "cell_deg": 0.5,
      "sources": {
        "GDELT": 163,
        "GDELT_DOC": 1191,
        "DIRECT_FEED": 4,
        "USGS": 0,
        "GDACS": 0
      },
      "last7_score": 831.151,
      "prev7_score": 8.885,
      "trend": "up",
      "trend_arrow": "🔺",
      "change_pct": 9254.8,
      "place": "Giurgiu, Romania"
    },
    {
      "lon": 25.25,
      "lat": 54.75,
      "type": "hotspot_cell",
      "score": 673.428,
      "count": 1142,
      "cell_deg": 0.5,
      "sources": {
        "GDELT": 85,
        "GDELT_DOC": 1057,
        "DIRECT_FEED": 0,
        "USGS": 0,
        "GDACS": 0
      },
      "last7_score": 666.045,
      "prev7_score": 7.383,
      "trend": "up",
      "trend_arrow": "🔺",
      "change_pct": 8920.8,
      "place": "Vilnius County, Lithuania"
    },
    {
      "lon": 19.25,
      "lat": 47.75,
      "type": "hotspot_cell",
      "score": 260.777,
      "count": 495,
      "cell_deg": 0.5,
      "sources": {
        "GDELT": 265,
        "GDELT_DOC": 0,
        "DIRECT_FEED": 230,
        "USGS": 0,
        "GDACS": 0
      },
      "last7_score": 236.417,
      "prev7_score": 24.36,
      "trend": "up",
      "trend_arrow": "🔺",
      "change_pct": 870.5,
      "place": "Pest, Hungary"
    },
    {
      "lon": 20.25,
      "lat": 52.25,
      "type": "hotspot_cell",
      "score": 181.415,
      "count": 449,
      "cell_deg": 0.5,
      "sources": {
        "GDELT": 449,
        "GDELT_DOC": 0,
        "DIRECT_FEED": 0,
        "USGS": 0,
        "GDACS": 0
      },
      "last7_score": 151.063,
      "prev7_score": 30.353,
      "trend": "up",
      "trend_arrow": "🔺",
      "change_pct": 397.7,
      "place": "Sochaczew County, Poland"
    },
    {
      "lon": 20.25,
      "lat": 47.25,
      "type": "hotspot_cell",
      "score": 119.421,
      "count": 311,
      "cell_deg": 0.5,
      "sources": {
        "GDELT": 311,
        "GDELT_DOC": 0,
        "DIRECT_FEED": 0,
        "USGS": 0,
        "GDACS": 0
      },
      "last7_score": 95.427,
      "prev7_score": 23.994,
      "trend": "up",
      "trend_arrow": "🔺",
      "change_pct": 297.7,
      "place": "Jász-Nagykun-Szolnok, Hungary"
    },
    {
      "lon": 25.25,
      "lat": 46.25,
      "type": "hotspot_cell",
      "score": 115.33,
      "count": 303,
      "cell_deg": 0.5,
      "sources": {
        "GDELT": 303,
        "GDELT_DOC": 0,
        "DIRECT_FEED": 0,
        "USGS": 0,
        "GDACS": 0
      },
      "last7_score": 89.524,
      "prev7_score": 25.806,
      "trend": "up",
      "trend_arrow": "🔺",
      "change_pct": 246.9,
      "place": "Harghita, Romania"
    },
    {
      "lon": 24.25,
      "lat": 56.75,
      "type": "hotspot_cell",
      "score": 113.796,
      "count": 176,
      "cell_deg": 0.5,
      "sources": {
        "GDELT": 43,
        "GDELT_DOC": 0,
        "DIRECT_FEED": 133,
        "USGS": 0,
        "GDACS": 0
      },
      "last7_score": 109.869,
      "prev7_score": 3.926,
      "trend": "up",
      "trend_arrow": "🔺",
      "change_pct": 2698.2,
      "place": "Ķekavas novads, Latvia"
    },
    {
      "lon": 27.75,
      "lat": 47.25,
      "type": "hotspot_cell",
      "score": 57.869,
      "count": 90,
      "cell_deg": 0.5,
      "sources": {
        "GDELT": 0,
        "GDELT_DOC": 90,
        "DIRECT_FEED": 0,
        "USGS": 0,
        "GDACS": 0
      },
      "last7_score": 57.869,
      "prev7_score": 0.0,
      "trend": "new",
      "trend_arrow": "🆕",
      "change_pct": null,
      "place": "Iași, Romania"
    },
    {
      "lon": 15.25,
      "lat": 49.75,
      "type": "hotspot_cell",
      "score": 50.194,
      "count": 140,
      "cell_deg": 0.5,
      "sources": {
        "GDELT": 140,
        "GDELT_DOC": 0,
        "DIRECT_FEED": 0,
        "USGS": 0,
        "GDACS": 0
      },
      "last7_score": 38.895,
      "prev7_score": 11.299,
      "trend": "up",
      "trend_arrow": "🔺",
      "change_pct": 244.2,
      "place": "Vysočina Region, Czechia"
    }
  ]
}