{
  "generated_utc": "2026-05-25T02:45:39Z",
  "top": [
    {
      "lon": 14.25,
      "lat": 50.25,
      "type": "hotspot_cell",
      "score": 941.343,
      "count": 1540,
      "cell_deg": 0.5,
      "sources": {
        "GDELT": 135,
        "GDELT_DOC": 1390,
        "DIRECT_FEED": 15,
        "USGS": 0,
        "GDACS": 0
      },
      "last7_score": 933.783,
      "prev7_score": 7.56,
      "trend": "up",
      "trend_arrow": "🔺",
      "change_pct": 12251.6,
      "place": "SO ORP Kralupy nad Vltavou, Czechia"
    },
    {
      "lon": 26.25,
      "lat": 44.25,
      "type": "hotspot_cell",
      "score": 742.868,
      "count": 1417,
      "cell_deg": 0.5,
      "sources": {
        "GDELT": 176,
        "GDELT_DOC": 1239,
        "DIRECT_FEED": 2,
        "USGS": 0,
        "GDACS": 0
      },
      "last7_score": 729.025,
      "prev7_score": 13.843,
      "trend": "up",
      "trend_arrow": "🔺",
      "change_pct": 5166.4,
      "place": "Giurgiu, Romania"
    },
    {
      "lon": 25.25,
      "lat": 54.75,
      "type": "hotspot_cell",
      "score": 651.322,
      "count": 1088,
      "cell_deg": 0.5,
      "sources": {
        "GDELT": 101,
        "GDELT_DOC": 986,
        "DIRECT_FEED": 1,
        "USGS": 0,
        "GDACS": 0
      },
      "last7_score": 646.352,
      "prev7_score": 4.971,
      "trend": "up",
      "trend_arrow": "🔺",
      "change_pct": 12903.7,
      "place": "Vilnius County, Lithuania"
    },
    {
      "lon": 20.25,
      "lat": 52.25,
      "type": "hotspot_cell",
      "score": 326.858,
      "count": 775,
      "cell_deg": 0.5,
      "sources": {
        "GDELT": 775,
        "GDELT_DOC": 0,
        "DIRECT_FEED": 0,
        "USGS": 0,
        "GDACS": 0
      },
      "last7_score": 283.402,
      "prev7_score": 43.456,
      "trend": "up",
      "trend_arrow": "🔺",
      "change_pct": 552.2,
      "place": "Sochaczew County, Poland"
    },
    {
      "lon": 19.25,
      "lat": 47.75,
      "type": "hotspot_cell",
      "score": 205.348,
      "count": 458,
      "cell_deg": 0.5,
      "sources": {
        "GDELT": 217,
        "GDELT_DOC": 0,
        "DIRECT_FEED": 241,
        "USGS": 0,
        "GDACS": 0
      },
      "last7_score": 188.175,
      "prev7_score": 17.173,
      "trend": "up",
      "trend_arrow": "🔺",
      "change_pct": 995.8,
      "place": "Pest, Hungary"
    },
    {
      "lon": 25.25,
      "lat": 46.25,
      "type": "hotspot_cell",
      "score": 109.726,
      "count": 307,
      "cell_deg": 0.5,
      "sources": {
        "GDELT": 307,
        "GDELT_DOC": 0,
        "DIRECT_FEED": 0,
        "USGS": 0,
        "GDACS": 0
      },
      "last7_score": 91.519,
      "prev7_score": 18.207,
      "trend": "up",
      "trend_arrow": "🔺",
      "change_pct": 402.7,
      "place": "Harghita, Romania"
    },
    {
      "lon": 21.25,
      "lat": 52.25,
      "type": "hotspot_cell",
      "score": 100.397,
      "count": 263,
      "cell_deg": 0.5,
      "sources": {
        "GDELT": 263,
        "GDELT_DOC": 0,
        "DIRECT_FEED": 0,
        "USGS": 0,
        "GDACS": 0
      },
      "last7_score": 85.72,
      "prev7_score": 14.677,
      "trend": "up",
      "trend_arrow": "🔺",
      "change_pct": 484.0,
      "place": "Warsaw, Poland"
    },
    {
      "lon": 24.25,
      "lat": 56.75,
      "type": "hotspot_cell",
      "score": 93.951,
      "count": 170,
      "cell_deg": 0.5,
      "sources": {
        "GDELT": 51,
        "GDELT_DOC": 0,
        "DIRECT_FEED": 119,
        "USGS": 0,
        "GDACS": 0
      },
      "last7_score": 90.118,
      "prev7_score": 3.833,
      "trend": "up",
      "trend_arrow": "🔺",
      "change_pct": 2251.2,
      "place": "Ķekavas novads, Latvia"
    },
    {
      "lon": 20.25,
      "lat": 47.25,
      "type": "hotspot_cell",
      "score": 83.466,
      "count": 253,
      "cell_deg": 0.5,
      "sources": {
        "GDELT": 253,
        "GDELT_DOC": 0,
        "DIRECT_FEED": 0,
        "USGS": 0,
        "GDACS": 0
      },
      "last7_score": 64.789,
      "prev7_score": 18.678,
      "trend": "up",
      "trend_arrow": "🔺",
      "change_pct": 246.9,
      "place": "Jász-Nagykun-Szolnok, Hungary"
    },
    {
      "lon": 26.25,
      "lat": 59.25,
      "type": "hotspot_cell",
      "score": 59.089,
      "count": 152,
      "cell_deg": 0.5,
      "sources": {
        "GDELT": 152,
        "GDELT_DOC": 0,
        "DIRECT_FEED": 0,
        "USGS": 0,
        "GDACS": 0
      },
      "last7_score": 52.373,
      "prev7_score": 6.716,
      "trend": "up",
      "trend_arrow": "🔺",
      "change_pct": 679.9,
      "place": "Lääne-Viru County, Estonia"
    }
  ]
}