{
  "generated_utc": "2026-06-27T19:13:32Z",
  "top": [
    {
      "lon": 14.25,
      "lat": 50.25,
      "type": "hotspot_cell",
      "score": 736.04,
      "count": 1182,
      "cell_deg": 0.5,
      "sources": {
        "GDELT": 130,
        "GDELT_DOC": 1041,
        "DIRECT_FEED": 11,
        "USGS": 0,
        "GDACS": 0
      },
      "last7_score": 729.57,
      "prev7_score": 6.47,
      "trend": "up",
      "trend_arrow": "🔺",
      "change_pct": 11176.9,
      "place": "SO ORP Kralupy nad Vltavou, Czechia"
    },
    {
      "lon": 26.25,
      "lat": 44.25,
      "type": "hotspot_cell",
      "score": 648.811,
      "count": 1073,
      "cell_deg": 0.5,
      "sources": {
        "GDELT": 143,
        "GDELT_DOC": 920,
        "DIRECT_FEED": 10,
        "USGS": 0,
        "GDACS": 0
      },
      "last7_score": 640.446,
      "prev7_score": 8.365,
      "trend": "up",
      "trend_arrow": "🔺",
      "change_pct": 7556.5,
      "place": "Giurgiu, Romania"
    },
    {
      "lon": 25.25,
      "lat": 54.75,
      "type": "hotspot_cell",
      "score": 327.747,
      "count": 553,
      "cell_deg": 0.5,
      "sources": {
        "GDELT": 57,
        "GDELT_DOC": 496,
        "DIRECT_FEED": 0,
        "USGS": 0,
        "GDACS": 0
      },
      "last7_score": 324.678,
      "prev7_score": 3.069,
      "trend": "up",
      "trend_arrow": "🔺",
      "change_pct": 10478.4,
      "place": "Vilnius County, Lithuania"
    },
    {
      "lon": 20.25,
      "lat": 52.25,
      "type": "hotspot_cell",
      "score": 198.474,
      "count": 518,
      "cell_deg": 0.5,
      "sources": {
        "GDELT": 518,
        "GDELT_DOC": 0,
        "DIRECT_FEED": 0,
        "USGS": 0,
        "GDACS": 0
      },
      "last7_score": 165.372,
      "prev7_score": 33.102,
      "trend": "up",
      "trend_arrow": "🔺",
      "change_pct": 399.6,
      "place": "Sochaczew County, Poland"
    },
    {
      "lon": 19.25,
      "lat": 47.75,
      "type": "hotspot_cell",
      "score": 184.378,
      "count": 356,
      "cell_deg": 0.5,
      "sources": {
        "GDELT": 194,
        "GDELT_DOC": 0,
        "DIRECT_FEED": 162,
        "USGS": 0,
        "GDACS": 0
      },
      "last7_score": 173.609,
      "prev7_score": 10.769,
      "trend": "up",
      "trend_arrow": "🔺",
      "change_pct": 1512.1,
      "place": "Pest, Hungary"
    },
    {
      "lon": 25.25,
      "lat": 46.25,
      "type": "hotspot_cell",
      "score": 131.323,
      "count": 404,
      "cell_deg": 0.5,
      "sources": {
        "GDELT": 404,
        "GDELT_DOC": 0,
        "DIRECT_FEED": 0,
        "USGS": 0,
        "GDACS": 0
      },
      "last7_score": 105.155,
      "prev7_score": 26.168,
      "trend": "up",
      "trend_arrow": "🔺",
      "change_pct": 301.9,
      "place": "Harghita, Romania"
    },
    {
      "lon": 21.25,
      "lat": 52.25,
      "type": "hotspot_cell",
      "score": 126.093,
      "count": 349,
      "cell_deg": 0.5,
      "sources": {
        "GDELT": 349,
        "GDELT_DOC": 0,
        "DIRECT_FEED": 0,
        "USGS": 0,
        "GDACS": 0
      },
      "last7_score": 100.648,
      "prev7_score": 25.445,
      "trend": "up",
      "trend_arrow": "🔺",
      "change_pct": 295.5,
      "place": "Warsaw, Poland"
    },
    {
      "lon": 24.25,
      "lat": 56.75,
      "type": "hotspot_cell",
      "score": 113.97,
      "count": 175,
      "cell_deg": 0.5,
      "sources": {
        "GDELT": 31,
        "GDELT_DOC": 0,
        "DIRECT_FEED": 144,
        "USGS": 0,
        "GDACS": 0
      },
      "last7_score": 111.923,
      "prev7_score": 2.046,
      "trend": "up",
      "trend_arrow": "🔺",
      "change_pct": 5369.2,
      "place": "Ķekavas novads, Latvia"
    },
    {
      "lon": 20.25,
      "lat": 47.25,
      "type": "hotspot_cell",
      "score": 76.542,
      "count": 232,
      "cell_deg": 0.5,
      "sources": {
        "GDELT": 231,
        "GDELT_DOC": 0,
        "DIRECT_FEED": 0,
        "USGS": 0,
        "GDACS": 1
      },
      "last7_score": 62.006,
      "prev7_score": 14.536,
      "trend": "up",
      "trend_arrow": "🔺",
      "change_pct": 326.6,
      "place": "Jász-Nagykun-Szolnok, Hungary"
    },
    {
      "lon": 15.25,
      "lat": 49.75,
      "type": "hotspot_cell",
      "score": 60.989,
      "count": 159,
      "cell_deg": 0.5,
      "sources": {
        "GDELT": 159,
        "GDELT_DOC": 0,
        "DIRECT_FEED": 0,
        "USGS": 0,
        "GDACS": 0
      },
      "last7_score": 50.842,
      "prev7_score": 10.147,
      "trend": "up",
      "trend_arrow": "🔺",
      "change_pct": 401.1,
      "place": "Vysočina Region, Czechia"
    }
  ]
}