{
  "generated_utc": "2026-04-11T07:04:51Z",
  "top": [
    {
      "lon": 26.25,
      "lat": 44.25,
      "type": "hotspot_cell",
      "score": 860.812,
      "count": 1437,
      "cell_deg": 0.5,
      "sources": {
        "GDELT": 156,
        "GDELT_DOC": 1274,
        "DIRECT_FEED": 7,
        "USGS": 0,
        "GDACS": 0
      },
      "last7_score": 846.693,
      "prev7_score": 14.119,
      "trend": "up",
      "trend_arrow": "🔺",
      "change_pct": 5896.7,
      "place": "Giurgiu, Romania"
    },
    {
      "lon": 14.25,
      "lat": 50.25,
      "type": "hotspot_cell",
      "score": 749.863,
      "count": 1155,
      "cell_deg": 0.5,
      "sources": {
        "GDELT": 86,
        "GDELT_DOC": 1069,
        "DIRECT_FEED": 0,
        "USGS": 0,
        "GDACS": 0
      },
      "last7_score": 743.322,
      "prev7_score": 6.541,
      "trend": "up",
      "trend_arrow": "🔺",
      "change_pct": 11263.6,
      "place": "SO ORP Kralupy nad Vltavou, Czechia"
    },
    {
      "lon": 25.25,
      "lat": 54.75,
      "type": "hotspot_cell",
      "score": 556.059,
      "count": 870,
      "cell_deg": 0.5,
      "sources": {
        "GDELT": 74,
        "GDELT_DOC": 794,
        "DIRECT_FEED": 2,
        "USGS": 0,
        "GDACS": 0
      },
      "last7_score": 549.613,
      "prev7_score": 6.446,
      "trend": "up",
      "trend_arrow": "🔺",
      "change_pct": 8426.6,
      "place": "Vilnius County, Lithuania"
    },
    {
      "lon": 19.25,
      "lat": 47.75,
      "type": "hotspot_cell",
      "score": 486.219,
      "count": 799,
      "cell_deg": 0.5,
      "sources": {
        "GDELT": 553,
        "GDELT_DOC": 0,
        "DIRECT_FEED": 246,
        "USGS": 0,
        "GDACS": 0
      },
      "last7_score": 470.919,
      "prev7_score": 15.3,
      "trend": "up",
      "trend_arrow": "🔺",
      "change_pct": 2977.9,
      "place": "Pest, Hungary"
    },
    {
      "lon": 20.25,
      "lat": 47.25,
      "type": "hotspot_cell",
      "score": 198.73,
      "count": 417,
      "cell_deg": 0.5,
      "sources": {
        "GDELT": 417,
        "GDELT_DOC": 0,
        "DIRECT_FEED": 0,
        "USGS": 0,
        "GDACS": 0
      },
      "last7_score": 180.169,
      "prev7_score": 18.561,
      "trend": "up",
      "trend_arrow": "🔺",
      "change_pct": 870.7,
      "place": "Jász-Nagykun-Szolnok, Hungary"
    },
    {
      "lon": 20.25,
      "lat": 52.25,
      "type": "hotspot_cell",
      "score": 146.108,
      "count": 409,
      "cell_deg": 0.5,
      "sources": {
        "GDELT": 409,
        "GDELT_DOC": 0,
        "DIRECT_FEED": 0,
        "USGS": 0,
        "GDACS": 0
      },
      "last7_score": 114.305,
      "prev7_score": 31.804,
      "trend": "up",
      "trend_arrow": "🔺",
      "change_pct": 259.4,
      "place": "Sochaczew County, Poland"
    },
    {
      "lon": 24.25,
      "lat": 56.75,
      "type": "hotspot_cell",
      "score": 110.689,
      "count": 163,
      "cell_deg": 0.5,
      "sources": {
        "GDELT": 27,
        "GDELT_DOC": 0,
        "DIRECT_FEED": 136,
        "USGS": 0,
        "GDACS": 0
      },
      "last7_score": 108.743,
      "prev7_score": 1.946,
      "trend": "up",
      "trend_arrow": "🔺",
      "change_pct": 5487.9,
      "place": "Ķekavas novads, Latvia"
    },
    {
      "lon": 25.25,
      "lat": 46.25,
      "type": "hotspot_cell",
      "score": 86.438,
      "count": 254,
      "cell_deg": 0.5,
      "sources": {
        "GDELT": 254,
        "GDELT_DOC": 0,
        "DIRECT_FEED": 0,
        "USGS": 0,
        "GDACS": 0
      },
      "last7_score": 68.42,
      "prev7_score": 18.019,
      "trend": "up",
      "trend_arrow": "🔺",
      "change_pct": 279.7,
      "place": "Harghita, Romania"
    },
    {
      "lon": 24.25,
      "lat": 56.25,
      "type": "hotspot_cell",
      "score": 56.731,
      "count": 115,
      "cell_deg": 0.5,
      "sources": {
        "GDELT": 115,
        "GDELT_DOC": 0,
        "DIRECT_FEED": 0,
        "USGS": 0,
        "GDACS": 0
      },
      "last7_score": 51.072,
      "prev7_score": 5.659,
      "trend": "up",
      "trend_arrow": "🔺",
      "change_pct": 802.5,
      "place": "Namišių seniūnija, Lithuania"
    },
    {
      "lon": 15.25,
      "lat": 49.75,
      "type": "hotspot_cell",
      "score": 48.128,
      "count": 120,
      "cell_deg": 0.5,
      "sources": {
        "GDELT": 120,
        "GDELT_DOC": 0,
        "DIRECT_FEED": 0,
        "USGS": 0,
        "GDACS": 0
      },
      "last7_score": 40.411,
      "prev7_score": 7.717,
      "trend": "up",
      "trend_arrow": "🔺",
      "change_pct": 423.6,
      "place": "Vysočina Region, Czechia"
    }
  ]
}