{
  "generated_utc": "2026-06-04T14:46:54Z",
  "top": [
    {
      "lon": 14.25,
      "lat": 50.25,
      "type": "hotspot_cell",
      "score": 689.254,
      "count": 1139,
      "cell_deg": 0.5,
      "sources": {
        "GDELT": 143,
        "GDELT_DOC": 990,
        "DIRECT_FEED": 6,
        "USGS": 0,
        "GDACS": 0
      },
      "last7_score": 678.566,
      "prev7_score": 10.688,
      "trend": "up",
      "trend_arrow": "🔺",
      "change_pct": 6249.0,
      "place": "SO ORP Kralupy nad Vltavou, Czechia"
    },
    {
      "lon": 26.25,
      "lat": 44.25,
      "type": "hotspot_cell",
      "score": 639.515,
      "count": 1081,
      "cell_deg": 0.5,
      "sources": {
        "GDELT": 231,
        "GDELT_DOC": 838,
        "DIRECT_FEED": 12,
        "USGS": 0,
        "GDACS": 0
      },
      "last7_score": 630.565,
      "prev7_score": 8.95,
      "trend": "up",
      "trend_arrow": "🔺",
      "change_pct": 6945.1,
      "place": "Giurgiu, Romania"
    },
    {
      "lon": 25.25,
      "lat": 54.75,
      "type": "hotspot_cell",
      "score": 628.302,
      "count": 1053,
      "cell_deg": 0.5,
      "sources": {
        "GDELT": 87,
        "GDELT_DOC": 964,
        "DIRECT_FEED": 2,
        "USGS": 0,
        "GDACS": 0
      },
      "last7_score": 621.822,
      "prev7_score": 6.48,
      "trend": "up",
      "trend_arrow": "🔺",
      "change_pct": 9495.8,
      "place": "Vilnius County, Lithuania"
    },
    {
      "lon": 19.25,
      "lat": 47.75,
      "type": "hotspot_cell",
      "score": 252.304,
      "count": 440,
      "cell_deg": 0.5,
      "sources": {
        "GDELT": 251,
        "GDELT_DOC": 0,
        "DIRECT_FEED": 189,
        "USGS": 0,
        "GDACS": 0
      },
      "last7_score": 238.873,
      "prev7_score": 13.431,
      "trend": "up",
      "trend_arrow": "🔺",
      "change_pct": 1678.5,
      "place": "Pest, Hungary"
    },
    {
      "lon": 20.25,
      "lat": 52.25,
      "type": "hotspot_cell",
      "score": 212.364,
      "count": 692,
      "cell_deg": 0.5,
      "sources": {
        "GDELT": 692,
        "GDELT_DOC": 0,
        "DIRECT_FEED": 0,
        "USGS": 0,
        "GDACS": 0
      },
      "last7_score": 162.989,
      "prev7_score": 49.375,
      "trend": "up",
      "trend_arrow": "🔺",
      "change_pct": 230.1,
      "place": "Sochaczew County, Poland"
    },
    {
      "lon": 25.25,
      "lat": 46.25,
      "type": "hotspot_cell",
      "score": 202.045,
      "count": 475,
      "cell_deg": 0.5,
      "sources": {
        "GDELT": 475,
        "GDELT_DOC": 0,
        "DIRECT_FEED": 0,
        "USGS": 0,
        "GDACS": 0
      },
      "last7_score": 180.259,
      "prev7_score": 21.785,
      "trend": "up",
      "trend_arrow": "🔺",
      "change_pct": 727.4,
      "place": "Harghita, Romania"
    },
    {
      "lon": 24.25,
      "lat": 56.75,
      "type": "hotspot_cell",
      "score": 132.092,
      "count": 195,
      "cell_deg": 0.5,
      "sources": {
        "GDELT": 45,
        "GDELT_DOC": 0,
        "DIRECT_FEED": 150,
        "USGS": 0,
        "GDACS": 0
      },
      "last7_score": 128.27,
      "prev7_score": 3.822,
      "trend": "up",
      "trend_arrow": "🔺",
      "change_pct": 3256.2,
      "place": "Ķekavas novads, Latvia"
    },
    {
      "lon": 20.25,
      "lat": 47.25,
      "type": "hotspot_cell",
      "score": 103.481,
      "count": 264,
      "cell_deg": 0.5,
      "sources": {
        "GDELT": 264,
        "GDELT_DOC": 0,
        "DIRECT_FEED": 0,
        "USGS": 0,
        "GDACS": 0
      },
      "last7_score": 85.321,
      "prev7_score": 18.16,
      "trend": "up",
      "trend_arrow": "🔺",
      "change_pct": 369.8,
      "place": "Jász-Nagykun-Szolnok, Hungary"
    },
    {
      "lon": 21.25,
      "lat": 52.25,
      "type": "hotspot_cell",
      "score": 92.429,
      "count": 253,
      "cell_deg": 0.5,
      "sources": {
        "GDELT": 253,
        "GDELT_DOC": 0,
        "DIRECT_FEED": 0,
        "USGS": 0,
        "GDACS": 0
      },
      "last7_score": 76.89,
      "prev7_score": 15.539,
      "trend": "up",
      "trend_arrow": "🔺",
      "change_pct": 394.8,
      "place": "Warsaw, Poland"
    },
    {
      "lon": 24.25,
      "lat": 56.25,
      "type": "hotspot_cell",
      "score": 58.566,
      "count": 145,
      "cell_deg": 0.5,
      "sources": {
        "GDELT": 145,
        "GDELT_DOC": 0,
        "DIRECT_FEED": 0,
        "USGS": 0,
        "GDACS": 0
      },
      "last7_score": 47.028,
      "prev7_score": 11.537,
      "trend": "up",
      "trend_arrow": "🔺",
      "change_pct": 307.6,
      "place": "Namišių seniūnija, Lithuania"
    }
  ]
}