{
  "generated_utc": "2026-05-07T08:39:37Z",
  "top": [
    {
      "lon": 14.25,
      "lat": 50.25,
      "type": "hotspot_cell",
      "score": 760.106,
      "count": 1342,
      "cell_deg": 0.5,
      "sources": {
        "GDELT": 162,
        "GDELT_DOC": 1175,
        "DIRECT_FEED": 5,
        "USGS": 0,
        "GDACS": 0
      },
      "last7_score": 746.566,
      "prev7_score": 13.541,
      "trend": "up",
      "trend_arrow": "🔺",
      "change_pct": 5413.4,
      "place": "SO ORP Kralupy nad Vltavou, Czechia"
    },
    {
      "lon": 26.25,
      "lat": 44.25,
      "type": "hotspot_cell",
      "score": 647.984,
      "count": 1131,
      "cell_deg": 0.5,
      "sources": {
        "GDELT": 137,
        "GDELT_DOC": 986,
        "DIRECT_FEED": 8,
        "USGS": 0,
        "GDACS": 0
      },
      "last7_score": 636.413,
      "prev7_score": 11.571,
      "trend": "up",
      "trend_arrow": "🔺",
      "change_pct": 5400.1,
      "place": "Giurgiu, Romania"
    },
    {
      "lon": 25.25,
      "lat": 54.75,
      "type": "hotspot_cell",
      "score": 504.546,
      "count": 925,
      "cell_deg": 0.5,
      "sources": {
        "GDELT": 58,
        "GDELT_DOC": 867,
        "DIRECT_FEED": 0,
        "USGS": 0,
        "GDACS": 0
      },
      "last7_score": 498.265,
      "prev7_score": 6.28,
      "trend": "up",
      "trend_arrow": "🔺",
      "change_pct": 7833.7,
      "place": "Vilnius County, Lithuania"
    },
    {
      "lon": 20.25,
      "lat": 52.25,
      "type": "hotspot_cell",
      "score": 204.654,
      "count": 489,
      "cell_deg": 0.5,
      "sources": {
        "GDELT": 489,
        "GDELT_DOC": 0,
        "DIRECT_FEED": 0,
        "USGS": 0,
        "GDACS": 0
      },
      "last7_score": 169.983,
      "prev7_score": 34.67,
      "trend": "up",
      "trend_arrow": "🔺",
      "change_pct": 390.3,
      "place": "Sochaczew County, Poland"
    },
    {
      "lon": 19.25,
      "lat": 47.75,
      "type": "hotspot_cell",
      "score": 195.242,
      "count": 358,
      "cell_deg": 0.5,
      "sources": {
        "GDELT": 199,
        "GDELT_DOC": 0,
        "DIRECT_FEED": 159,
        "USGS": 0,
        "GDACS": 0
      },
      "last7_score": 178.201,
      "prev7_score": 17.042,
      "trend": "up",
      "trend_arrow": "🔺",
      "change_pct": 945.7,
      "place": "Pest, Hungary"
    },
    {
      "lon": 25.25,
      "lat": 46.25,
      "type": "hotspot_cell",
      "score": 130.716,
      "count": 341,
      "cell_deg": 0.5,
      "sources": {
        "GDELT": 341,
        "GDELT_DOC": 0,
        "DIRECT_FEED": 0,
        "USGS": 0,
        "GDACS": 0
      },
      "last7_score": 101.08,
      "prev7_score": 29.636,
      "trend": "up",
      "trend_arrow": "🔺",
      "change_pct": 241.1,
      "place": "Harghita, Romania"
    },
    {
      "lon": 24.25,
      "lat": 56.75,
      "type": "hotspot_cell",
      "score": 109.785,
      "count": 158,
      "cell_deg": 0.5,
      "sources": {
        "GDELT": 35,
        "GDELT_DOC": 0,
        "DIRECT_FEED": 123,
        "USGS": 0,
        "GDACS": 0
      },
      "last7_score": 107.928,
      "prev7_score": 1.857,
      "trend": "up",
      "trend_arrow": "🔺",
      "change_pct": 5710.8,
      "place": "Ķekavas novads, Latvia"
    },
    {
      "lon": 20.25,
      "lat": 47.25,
      "type": "hotspot_cell",
      "score": 96.999,
      "count": 306,
      "cell_deg": 0.5,
      "sources": {
        "GDELT": 306,
        "GDELT_DOC": 0,
        "DIRECT_FEED": 0,
        "USGS": 0,
        "GDACS": 0
      },
      "last7_score": 68.829,
      "prev7_score": 28.17,
      "trend": "up",
      "trend_arrow": "🔺",
      "change_pct": 144.3,
      "place": "Jász-Nagykun-Szolnok, Hungary"
    },
    {
      "lon": 15.25,
      "lat": 49.75,
      "type": "hotspot_cell",
      "score": 58.199,
      "count": 187,
      "cell_deg": 0.5,
      "sources": {
        "GDELT": 187,
        "GDELT_DOC": 0,
        "DIRECT_FEED": 0,
        "USGS": 0,
        "GDACS": 0
      },
      "last7_score": 39.911,
      "prev7_score": 18.288,
      "trend": "up",
      "trend_arrow": "🔺",
      "change_pct": 118.2,
      "place": "Vysočina Region, Czechia"
    },
    {
      "lon": 21.25,
      "lat": 52.25,
      "type": "hotspot_cell",
      "score": 54.383,
      "count": 150,
      "cell_deg": 0.5,
      "sources": {
        "GDELT": 150,
        "GDELT_DOC": 0,
        "DIRECT_FEED": 0,
        "USGS": 0,
        "GDACS": 0
      },
      "last7_score": 42.134,
      "prev7_score": 12.249,
      "trend": "up",
      "trend_arrow": "🔺",
      "change_pct": 244.0,
      "place": "Warsaw, Poland"
    }
  ]
}