{
  "generated_utc": "2026-06-12T20:05:46Z",
  "top": [
    {
      "lon": 26.25,
      "lat": 44.25,
      "type": "hotspot_cell",
      "score": 555.165,
      "count": 976,
      "cell_deg": 0.5,
      "sources": {
        "GDELT": 197,
        "GDELT_DOC": 771,
        "DIRECT_FEED": 8,
        "USGS": 0,
        "GDACS": 0
      },
      "last7_score": 539.464,
      "prev7_score": 15.701,
      "trend": "up",
      "trend_arrow": "🔺",
      "change_pct": 3335.9,
      "place": "Giurgiu, Romania"
    },
    {
      "lon": 14.25,
      "lat": 50.25,
      "type": "hotspot_cell",
      "score": 529.422,
      "count": 817,
      "cell_deg": 0.5,
      "sources": {
        "GDELT": 103,
        "GDELT_DOC": 711,
        "DIRECT_FEED": 3,
        "USGS": 0,
        "GDACS": 0
      },
      "last7_score": 521.251,
      "prev7_score": 8.171,
      "trend": "up",
      "trend_arrow": "🔺",
      "change_pct": 6279.1,
      "place": "SO ORP Kralupy nad Vltavou, Czechia"
    },
    {
      "lon": 25.25,
      "lat": 54.75,
      "type": "hotspot_cell",
      "score": 445.797,
      "count": 750,
      "cell_deg": 0.5,
      "sources": {
        "GDELT": 75,
        "GDELT_DOC": 675,
        "DIRECT_FEED": 0,
        "USGS": 0,
        "GDACS": 0
      },
      "last7_score": 439.508,
      "prev7_score": 6.289,
      "trend": "up",
      "trend_arrow": "🔺",
      "change_pct": 6888.4,
      "place": "Vilnius County, Lithuania"
    },
    {
      "lon": 19.25,
      "lat": 47.75,
      "type": "hotspot_cell",
      "score": 186.583,
      "count": 379,
      "cell_deg": 0.5,
      "sources": {
        "GDELT": 218,
        "GDELT_DOC": 0,
        "DIRECT_FEED": 161,
        "USGS": 0,
        "GDACS": 0
      },
      "last7_score": 167.107,
      "prev7_score": 19.477,
      "trend": "up",
      "trend_arrow": "🔺",
      "change_pct": 758.0,
      "place": "Pest, Hungary"
    },
    {
      "lon": 20.25,
      "lat": 52.25,
      "type": "hotspot_cell",
      "score": 183.941,
      "count": 497,
      "cell_deg": 0.5,
      "sources": {
        "GDELT": 497,
        "GDELT_DOC": 0,
        "DIRECT_FEED": 0,
        "USGS": 0,
        "GDACS": 0
      },
      "last7_score": 146.967,
      "prev7_score": 36.974,
      "trend": "up",
      "trend_arrow": "🔺",
      "change_pct": 297.5,
      "place": "Sochaczew County, Poland"
    },
    {
      "lon": 25.25,
      "lat": 46.25,
      "type": "hotspot_cell",
      "score": 171.241,
      "count": 453,
      "cell_deg": 0.5,
      "sources": {
        "GDELT": 453,
        "GDELT_DOC": 0,
        "DIRECT_FEED": 0,
        "USGS": 0,
        "GDACS": 0
      },
      "last7_score": 135.446,
      "prev7_score": 35.795,
      "trend": "up",
      "trend_arrow": "🔺",
      "change_pct": 278.4,
      "place": "Harghita, Romania"
    },
    {
      "lon": 24.25,
      "lat": 56.75,
      "type": "hotspot_cell",
      "score": 120.694,
      "count": 175,
      "cell_deg": 0.5,
      "sources": {
        "GDELT": 47,
        "GDELT_DOC": 0,
        "DIRECT_FEED": 128,
        "USGS": 0,
        "GDACS": 0
      },
      "last7_score": 117.487,
      "prev7_score": 3.207,
      "trend": "up",
      "trend_arrow": "🔺",
      "change_pct": 3563.5,
      "place": "Ķekavas novads, Latvia"
    },
    {
      "lon": 20.25,
      "lat": 47.25,
      "type": "hotspot_cell",
      "score": 103.918,
      "count": 265,
      "cell_deg": 0.5,
      "sources": {
        "GDELT": 265,
        "GDELT_DOC": 0,
        "DIRECT_FEED": 0,
        "USGS": 0,
        "GDACS": 0
      },
      "last7_score": 87.027,
      "prev7_score": 16.89,
      "trend": "up",
      "trend_arrow": "🔺",
      "change_pct": 415.2,
      "place": "Jász-Nagykun-Szolnok, Hungary"
    },
    {
      "lon": 21.25,
      "lat": 52.25,
      "type": "hotspot_cell",
      "score": 66.643,
      "count": 194,
      "cell_deg": 0.5,
      "sources": {
        "GDELT": 194,
        "GDELT_DOC": 0,
        "DIRECT_FEED": 0,
        "USGS": 0,
        "GDACS": 0
      },
      "last7_score": 52.99,
      "prev7_score": 13.653,
      "trend": "up",
      "trend_arrow": "🔺",
      "change_pct": 288.1,
      "place": "Warsaw, Poland"
    },
    {
      "lon": 24.25,
      "lat": 56.25,
      "type": "hotspot_cell",
      "score": 53.881,
      "count": 126,
      "cell_deg": 0.5,
      "sources": {
        "GDELT": 126,
        "GDELT_DOC": 0,
        "DIRECT_FEED": 0,
        "USGS": 0,
        "GDACS": 0
      },
      "last7_score": 44.113,
      "prev7_score": 9.768,
      "trend": "up",
      "trend_arrow": "🔺",
      "change_pct": 351.6,
      "place": "Namišių seniūnija, Lithuania"
    }
  ]
}