{
  "generated_utc": "2026-05-20T20:22:53Z",
  "top": [
    {
      "lon": 26.25,
      "lat": 44.25,
      "type": "hotspot_cell",
      "score": 915.348,
      "count": 1433,
      "cell_deg": 0.5,
      "sources": {
        "GDELT": 203,
        "GDELT_DOC": 1226,
        "DIRECT_FEED": 4,
        "USGS": 0,
        "GDACS": 0
      },
      "last7_score": 897.282,
      "prev7_score": 18.066,
      "trend": "up",
      "trend_arrow": "🔺",
      "change_pct": 4866.7,
      "place": "Giurgiu, Romania"
    },
    {
      "lon": 14.25,
      "lat": 50.25,
      "type": "hotspot_cell",
      "score": 911.638,
      "count": 1536,
      "cell_deg": 0.5,
      "sources": {
        "GDELT": 110,
        "GDELT_DOC": 1419,
        "DIRECT_FEED": 7,
        "USGS": 0,
        "GDACS": 0
      },
      "last7_score": 904.525,
      "prev7_score": 7.113,
      "trend": "up",
      "trend_arrow": "🔺",
      "change_pct": 12616.3,
      "place": "SO ORP Kralupy nad Vltavou, Czechia"
    },
    {
      "lon": 25.25,
      "lat": 54.75,
      "type": "hotspot_cell",
      "score": 726.995,
      "count": 1131,
      "cell_deg": 0.5,
      "sources": {
        "GDELT": 100,
        "GDELT_DOC": 1030,
        "DIRECT_FEED": 1,
        "USGS": 0,
        "GDACS": 0
      },
      "last7_score": 721.985,
      "prev7_score": 5.011,
      "trend": "up",
      "trend_arrow": "🔺",
      "change_pct": 14308.5,
      "place": "Vilnius County, Lithuania"
    },
    {
      "lon": 19.25,
      "lat": 47.75,
      "type": "hotspot_cell",
      "score": 260.331,
      "count": 533,
      "cell_deg": 0.5,
      "sources": {
        "GDELT": 305,
        "GDELT_DOC": 0,
        "DIRECT_FEED": 228,
        "USGS": 0,
        "GDACS": 0
      },
      "last7_score": 239.034,
      "prev7_score": 21.297,
      "trend": "up",
      "trend_arrow": "🔺",
      "change_pct": 1022.4,
      "place": "Pest, Hungary"
    },
    {
      "lon": 20.25,
      "lat": 52.25,
      "type": "hotspot_cell",
      "score": 254.806,
      "count": 621,
      "cell_deg": 0.5,
      "sources": {
        "GDELT": 621,
        "GDELT_DOC": 0,
        "DIRECT_FEED": 0,
        "USGS": 0,
        "GDACS": 0
      },
      "last7_score": 220.285,
      "prev7_score": 34.521,
      "trend": "up",
      "trend_arrow": "🔺",
      "change_pct": 538.1,
      "place": "Sochaczew County, Poland"
    },
    {
      "lon": 25.25,
      "lat": 46.25,
      "type": "hotspot_cell",
      "score": 127.606,
      "count": 299,
      "cell_deg": 0.5,
      "sources": {
        "GDELT": 299,
        "GDELT_DOC": 0,
        "DIRECT_FEED": 0,
        "USGS": 0,
        "GDACS": 0
      },
      "last7_score": 108.746,
      "prev7_score": 18.86,
      "trend": "up",
      "trend_arrow": "🔺",
      "change_pct": 476.6,
      "place": "Harghita, Romania"
    },
    {
      "lon": 24.25,
      "lat": 56.75,
      "type": "hotspot_cell",
      "score": 117.175,
      "count": 177,
      "cell_deg": 0.5,
      "sources": {
        "GDELT": 42,
        "GDELT_DOC": 0,
        "DIRECT_FEED": 135,
        "USGS": 0,
        "GDACS": 0
      },
      "last7_score": 115.907,
      "prev7_score": 1.268,
      "trend": "up",
      "trend_arrow": "🔺",
      "change_pct": 9043.5,
      "place": "Ķekavas novads, Latvia"
    },
    {
      "lon": 20.25,
      "lat": 47.25,
      "type": "hotspot_cell",
      "score": 111.191,
      "count": 308,
      "cell_deg": 0.5,
      "sources": {
        "GDELT": 308,
        "GDELT_DOC": 0,
        "DIRECT_FEED": 0,
        "USGS": 0,
        "GDACS": 0
      },
      "last7_score": 89.643,
      "prev7_score": 21.547,
      "trend": "up",
      "trend_arrow": "🔺",
      "change_pct": 316.0,
      "place": "Jász-Nagykun-Szolnok, Hungary"
    },
    {
      "lon": 21.25,
      "lat": 52.25,
      "type": "hotspot_cell",
      "score": 96.969,
      "count": 241,
      "cell_deg": 0.5,
      "sources": {
        "GDELT": 241,
        "GDELT_DOC": 0,
        "DIRECT_FEED": 0,
        "USGS": 0,
        "GDACS": 0
      },
      "last7_score": 84.007,
      "prev7_score": 12.961,
      "trend": "up",
      "trend_arrow": "🔺",
      "change_pct": 548.1,
      "place": "Warsaw, Poland"
    },
    {
      "lon": 25.25,
      "lat": 57.25,
      "type": "hotspot_cell",
      "score": 75.153,
      "count": 197,
      "cell_deg": 0.5,
      "sources": {
        "GDELT": 197,
        "GDELT_DOC": 0,
        "DIRECT_FEED": 0,
        "USGS": 0,
        "GDACS": 0
      },
      "last7_score": 65.102,
      "prev7_score": 10.051,
      "trend": "up",
      "trend_arrow": "🔺",
      "change_pct": 547.7,
      "place": "Cēsu novads, Latvia"
    }
  ]
}