{
  "generated_utc": "2026-03-05T02:11:25Z",
  "top": [
    {
      "lon": 21.25,
      "lat": 52.25,
      "type": "hotspot_cell",
      "score": 19.644,
      "count": 47,
      "cell_deg": 0.5,
      "sources": {
        "GDELT": 47,
        "USGS": 0,
        "GDACS": 0
      },
      "last7_score": 16.083,
      "prev7_score": 3.56,
      "trend": "up",
      "trend_arrow": "🔺",
      "change_pct": 351.7,
      "place": "Warsaw, Poland"
    },
    {
      "lon": 19.25,
      "lat": 47.75,
      "type": "hotspot_cell",
      "score": 17.697,
      "count": 41,
      "cell_deg": 0.5,
      "sources": {
        "GDELT": 41,
        "USGS": 0,
        "GDACS": 0
      },
      "last7_score": 14.706,
      "prev7_score": 2.991,
      "trend": "up",
      "trend_arrow": "🔺",
      "change_pct": 391.7,
      "place": "Pest, Hungary"
    },
    {
      "lon": 20.25,
      "lat": 52.25,
      "type": "hotspot_cell",
      "score": 17.324,
      "count": 46,
      "cell_deg": 0.5,
      "sources": {
        "GDELT": 46,
        "USGS": 0,
        "GDACS": 0
      },
      "last7_score": 13.778,
      "prev7_score": 3.545,
      "trend": "up",
      "trend_arrow": "🔺",
      "change_pct": 288.6,
      "place": "Sochaczew County, Poland"
    },
    {
      "lon": 25.25,
      "lat": 46.25,
      "type": "hotspot_cell",
      "score": 15.937,
      "count": 36,
      "cell_deg": 0.5,
      "sources": {
        "GDELT": 36,
        "USGS": 0,
        "GDACS": 0
      },
      "last7_score": 13.494,
      "prev7_score": 2.443,
      "trend": "up",
      "trend_arrow": "🔺",
      "change_pct": 452.3,
      "place": "Harghita, Romania"
    },
    {
      "lon": 20.25,
      "lat": 47.25,
      "type": "hotspot_cell",
      "score": 14.375,
      "count": 39,
      "cell_deg": 0.5,
      "sources": {
        "GDELT": 39,
        "USGS": 0,
        "GDACS": 0
      },
      "last7_score": 11.42,
      "prev7_score": 2.955,
      "trend": "up",
      "trend_arrow": "🔺",
      "change_pct": 286.4,
      "place": "Jász-Nagykun-Szolnok, Hungary"
    },
    {
      "lon": 26.25,
      "lat": 59.25,
      "type": "hotspot_cell",
      "score": 13.623,
      "count": 32,
      "cell_deg": 0.5,
      "sources": {
        "GDELT": 32,
        "USGS": 0,
        "GDACS": 0
      },
      "last7_score": 11.502,
      "prev7_score": 2.12,
      "trend": "up",
      "trend_arrow": "🔺",
      "change_pct": 442.4,
      "place": "Lääne-Viru County, Estonia"
    },
    {
      "lon": 14.25,
      "lat": 50.25,
      "type": "hotspot_cell",
      "score": 13.334,
      "count": 36,
      "cell_deg": 0.5,
      "sources": {
        "GDELT": 36,
        "USGS": 0,
        "GDACS": 0
      },
      "last7_score": 10.321,
      "prev7_score": 3.013,
      "trend": "up",
      "trend_arrow": "🔺",
      "change_pct": 242.6,
      "place": "SO ORP Kralupy nad Vltavou, Czechia"
    },
    {
      "lon": 25.25,
      "lat": 57.25,
      "type": "hotspot_cell",
      "score": 11.995,
      "count": 32,
      "cell_deg": 0.5,
      "sources": {
        "GDELT": 32,
        "USGS": 0,
        "GDACS": 0
      },
      "last7_score": 9.58,
      "prev7_score": 2.414,
      "trend": "up",
      "trend_arrow": "🔺",
      "change_pct": 296.8,
      "place": "Cēsu novads, Latvia"
    },
    {
      "lon": 26.25,
      "lat": 44.25,
      "type": "hotspot_cell",
      "score": 10.979,
      "count": 28,
      "cell_deg": 0.5,
      "sources": {
        "GDELT": 28,
        "USGS": 0,
        "GDACS": 0
      },
      "last7_score": 8.557,
      "prev7_score": 2.421,
      "trend": "up",
      "trend_arrow": "🔺",
      "change_pct": 253.4,
      "place": "Giurgiu, Romania"
    },
    {
      "lon": 15.25,
      "lat": 49.75,
      "type": "hotspot_cell",
      "score": 10.739,
      "count": 32,
      "cell_deg": 0.5,
      "sources": {
        "GDELT": 32,
        "USGS": 0,
        "GDACS": 0
      },
      "last7_score": 7.747,
      "prev7_score": 2.992,
      "trend": "up",
      "trend_arrow": "🔺",
      "change_pct": 158.9,
      "place": "Vysočina Region, Czechia"
    }
  ]
}