{
  "generated_utc": "2026-07-11T01:59:00Z",
  "top": [
    {
      "lon": 14.25,
      "lat": 50.25,
      "type": "hotspot_cell",
      "score": 883.526,
      "count": 1194,
      "cell_deg": 0.5,
      "sources": {
        "GDELT": 107,
        "GDELT_DOC": 1082,
        "DIRECT_FEED": 5,
        "USGS": 0,
        "GDACS": 0
      },
      "last7_score": 874.955,
      "prev7_score": 8.571,
      "trend": "up",
      "trend_arrow": "🔺",
      "change_pct": 10108.5,
      "place": "SO ORP Kralupy nad Vltavou, Czechia"
    },
    {
      "lon": 26.25,
      "lat": 44.25,
      "type": "hotspot_cell",
      "score": 571.002,
      "count": 917,
      "cell_deg": 0.5,
      "sources": {
        "GDELT": 131,
        "GDELT_DOC": 783,
        "DIRECT_FEED": 3,
        "USGS": 0,
        "GDACS": 0
      },
      "last7_score": 561.004,
      "prev7_score": 9.997,
      "trend": "up",
      "trend_arrow": "🔺",
      "change_pct": 5511.5,
      "place": "Giurgiu, Romania"
    },
    {
      "lon": 25.25,
      "lat": 54.75,
      "type": "hotspot_cell",
      "score": 531.944,
      "count": 727,
      "cell_deg": 0.5,
      "sources": {
        "GDELT": 74,
        "GDELT_DOC": 651,
        "DIRECT_FEED": 2,
        "USGS": 0,
        "GDACS": 0
      },
      "last7_score": 526.209,
      "prev7_score": 5.734,
      "trend": "up",
      "trend_arrow": "🔺",
      "change_pct": 9076.8,
      "place": "Vilnius County, Lithuania"
    },
    {
      "lon": 20.25,
      "lat": 52.25,
      "type": "hotspot_cell",
      "score": 176.686,
      "count": 504,
      "cell_deg": 0.5,
      "sources": {
        "GDELT": 504,
        "GDELT_DOC": 0,
        "DIRECT_FEED": 0,
        "USGS": 0,
        "GDACS": 0
      },
      "last7_score": 135.993,
      "prev7_score": 40.694,
      "trend": "up",
      "trend_arrow": "🔺",
      "change_pct": 234.2,
      "place": "Sochaczew County, Poland"
    },
    {
      "lon": 19.25,
      "lat": 47.75,
      "type": "hotspot_cell",
      "score": 173.627,
      "count": 301,
      "cell_deg": 0.5,
      "sources": {
        "GDELT": 148,
        "GDELT_DOC": 0,
        "DIRECT_FEED": 153,
        "USGS": 0,
        "GDACS": 0
      },
      "last7_score": 163.066,
      "prev7_score": 10.561,
      "trend": "up",
      "trend_arrow": "🔺",
      "change_pct": 1444.0,
      "place": "Pest, Hungary"
    },
    {
      "lon": 25.25,
      "lat": 46.25,
      "type": "hotspot_cell",
      "score": 155.674,
      "count": 362,
      "cell_deg": 0.5,
      "sources": {
        "GDELT": 362,
        "GDELT_DOC": 0,
        "DIRECT_FEED": 0,
        "USGS": 0,
        "GDACS": 0
      },
      "last7_score": 129.972,
      "prev7_score": 25.702,
      "trend": "up",
      "trend_arrow": "🔺",
      "change_pct": 405.7,
      "place": "Harghita, Romania"
    },
    {
      "lon": 24.25,
      "lat": 56.75,
      "type": "hotspot_cell",
      "score": 102.244,
      "count": 151,
      "cell_deg": 0.5,
      "sources": {
        "GDELT": 20,
        "GDELT_DOC": 0,
        "DIRECT_FEED": 131,
        "USGS": 0,
        "GDACS": 0
      },
      "last7_score": 100.474,
      "prev7_score": 1.771,
      "trend": "up",
      "trend_arrow": "🔺",
      "change_pct": 5574.7,
      "place": "Ķekavas novads, Latvia"
    },
    {
      "lon": 21.25,
      "lat": 52.25,
      "type": "hotspot_cell",
      "score": 89.126,
      "count": 250,
      "cell_deg": 0.5,
      "sources": {
        "GDELT": 250,
        "GDELT_DOC": 0,
        "DIRECT_FEED": 0,
        "USGS": 0,
        "GDACS": 0
      },
      "last7_score": 64.228,
      "prev7_score": 24.899,
      "trend": "up",
      "trend_arrow": "🔺",
      "change_pct": 158.0,
      "place": "Warsaw, Poland"
    },
    {
      "lon": 20.25,
      "lat": 47.25,
      "type": "hotspot_cell",
      "score": 75.472,
      "count": 169,
      "cell_deg": 0.5,
      "sources": {
        "GDELT": 169,
        "GDELT_DOC": 0,
        "DIRECT_FEED": 0,
        "USGS": 0,
        "GDACS": 0
      },
      "last7_score": 64.776,
      "prev7_score": 10.697,
      "trend": "up",
      "trend_arrow": "🔺",
      "change_pct": 505.6,
      "place": "Jász-Nagykun-Szolnok, Hungary"
    },
    {
      "lon": 15.25,
      "lat": 49.75,
      "type": "hotspot_cell",
      "score": 70.514,
      "count": 175,
      "cell_deg": 0.5,
      "sources": {
        "GDELT": 175,
        "GDELT_DOC": 0,
        "DIRECT_FEED": 0,
        "USGS": 0,
        "GDACS": 0
      },
      "last7_score": 57.787,
      "prev7_score": 12.727,
      "trend": "up",
      "trend_arrow": "🔺",
      "change_pct": 354.0,
      "place": "Vysočina Region, Czechia"
    }
  ]
}