{
  "generated_utc": "2026-04-24T13:34:57Z",
  "top": [
    {
      "lon": 14.25,
      "lat": 50.25,
      "type": "hotspot_cell",
      "score": 1120.821,
      "count": 1582,
      "cell_deg": 0.5,
      "sources": {
        "GDELT": 174,
        "GDELT_DOC": 1404,
        "DIRECT_FEED": 4,
        "USGS": 0,
        "GDACS": 0
      },
      "last7_score": 1106.116,
      "prev7_score": 14.705,
      "trend": "up",
      "trend_arrow": "🔺",
      "change_pct": 7421.9,
      "place": "SO ORP Kralupy nad Vltavou, Czechia"
    },
    {
      "lon": 26.25,
      "lat": 44.25,
      "type": "hotspot_cell",
      "score": 920.004,
      "count": 1384,
      "cell_deg": 0.5,
      "sources": {
        "GDELT": 135,
        "GDELT_DOC": 1242,
        "DIRECT_FEED": 7,
        "USGS": 0,
        "GDACS": 0
      },
      "last7_score": 910.733,
      "prev7_score": 9.271,
      "trend": "up",
      "trend_arrow": "🔺",
      "change_pct": 9723.5,
      "place": "Giurgiu, Romania"
    },
    {
      "lon": 25.25,
      "lat": 54.75,
      "type": "hotspot_cell",
      "score": 774.174,
      "count": 1158,
      "cell_deg": 0.5,
      "sources": {
        "GDELT": 72,
        "GDELT_DOC": 1086,
        "DIRECT_FEED": 0,
        "USGS": 0,
        "GDACS": 0
      },
      "last7_score": 767.152,
      "prev7_score": 7.022,
      "trend": "up",
      "trend_arrow": "🔺",
      "change_pct": 10824.9,
      "place": "Vilnius County, Lithuania"
    },
    {
      "lon": 19.25,
      "lat": 47.75,
      "type": "hotspot_cell",
      "score": 432.549,
      "count": 1251,
      "cell_deg": 0.5,
      "sources": {
        "GDELT": 997,
        "GDELT_DOC": 0,
        "DIRECT_FEED": 254,
        "USGS": 0,
        "GDACS": 0
      },
      "last7_score": 351.823,
      "prev7_score": 80.726,
      "trend": "up",
      "trend_arrow": "🔺",
      "change_pct": 335.8,
      "place": "Pest, Hungary"
    },
    {
      "lon": 20.25,
      "lat": 47.25,
      "type": "hotspot_cell",
      "score": 288.003,
      "count": 860,
      "cell_deg": 0.5,
      "sources": {
        "GDELT": 860,
        "GDELT_DOC": 0,
        "DIRECT_FEED": 0,
        "USGS": 0,
        "GDACS": 0
      },
      "last7_score": 221.371,
      "prev7_score": 66.632,
      "trend": "up",
      "trend_arrow": "🔺",
      "change_pct": 232.2,
      "place": "Jász-Nagykun-Szolnok, Hungary"
    },
    {
      "lon": 20.25,
      "lat": 52.25,
      "type": "hotspot_cell",
      "score": 192.547,
      "count": 455,
      "cell_deg": 0.5,
      "sources": {
        "GDELT": 455,
        "GDELT_DOC": 0,
        "DIRECT_FEED": 0,
        "USGS": 0,
        "GDACS": 0
      },
      "last7_score": 160.538,
      "prev7_score": 32.009,
      "trend": "up",
      "trend_arrow": "🔺",
      "change_pct": 401.5,
      "place": "Sochaczew County, Poland"
    },
    {
      "lon": 24.25,
      "lat": 56.75,
      "type": "hotspot_cell",
      "score": 119.387,
      "count": 166,
      "cell_deg": 0.5,
      "sources": {
        "GDELT": 34,
        "GDELT_DOC": 0,
        "DIRECT_FEED": 132,
        "USGS": 0,
        "GDACS": 0
      },
      "last7_score": 116.181,
      "prev7_score": 3.206,
      "trend": "up",
      "trend_arrow": "🔺",
      "change_pct": 3524.0,
      "place": "Ķekavas novads, Latvia"
    },
    {
      "lon": 25.25,
      "lat": 46.25,
      "type": "hotspot_cell",
      "score": 103.289,
      "count": 256,
      "cell_deg": 0.5,
      "sources": {
        "GDELT": 256,
        "GDELT_DOC": 0,
        "DIRECT_FEED": 0,
        "USGS": 0,
        "GDACS": 0
      },
      "last7_score": 81.707,
      "prev7_score": 21.582,
      "trend": "up",
      "trend_arrow": "🔺",
      "change_pct": 278.6,
      "place": "Harghita, Romania"
    },
    {
      "lon": 27.75,
      "lat": 47.25,
      "type": "hotspot_cell",
      "score": 103.05,
      "count": 124,
      "cell_deg": 0.5,
      "sources": {
        "GDELT": 0,
        "GDELT_DOC": 124,
        "DIRECT_FEED": 0,
        "USGS": 0,
        "GDACS": 0
      },
      "last7_score": 103.05,
      "prev7_score": 0.0,
      "trend": "new",
      "trend_arrow": "🆕",
      "change_pct": null,
      "place": "Iași, Romania"
    },
    {
      "lon": 15.25,
      "lat": 49.75,
      "type": "hotspot_cell",
      "score": 77.886,
      "count": 205,
      "cell_deg": 0.5,
      "sources": {
        "GDELT": 205,
        "GDELT_DOC": 0,
        "DIRECT_FEED": 0,
        "USGS": 0,
        "GDACS": 0
      },
      "last7_score": 62.483,
      "prev7_score": 15.403,
      "trend": "up",
      "trend_arrow": "🔺",
      "change_pct": 305.7,
      "place": "Vysočina Region, Czechia"
    }
  ]
}