{
  "generated_utc": "2026-03-03T18:57:21Z",
  "top": [
    {
      "lon": 21.25,
      "lat": 52.25,
      "type": "hotspot_cell",
      "score": 17.987,
      "count": 47,
      "cell_deg": 0.5,
      "sources": {
        "GDELT": 47,
        "USGS": 0,
        "GDACS": 0
      },
      "last7_score": 15.887,
      "prev7_score": 2.1,
      "trend": "up",
      "trend_arrow": "🔺",
      "change_pct": 656.5,
      "place": "Warsaw, Poland"
    },
    {
      "lon": 20.25,
      "lat": 52.25,
      "type": "hotspot_cell",
      "score": 16.3,
      "count": 48,
      "cell_deg": 0.5,
      "sources": {
        "GDELT": 48,
        "USGS": 0,
        "GDACS": 0
      },
      "last7_score": 13.256,
      "prev7_score": 3.044,
      "trend": "up",
      "trend_arrow": "🔺",
      "change_pct": 335.5,
      "place": "Sochaczew County, Poland"
    },
    {
      "lon": 20.25,
      "lat": 47.25,
      "type": "hotspot_cell",
      "score": 15.673,
      "count": 42,
      "cell_deg": 0.5,
      "sources": {
        "GDELT": 42,
        "USGS": 0,
        "GDACS": 0
      },
      "last7_score": 13.097,
      "prev7_score": 2.577,
      "trend": "up",
      "trend_arrow": "🔺",
      "change_pct": 408.3,
      "place": "Jász-Nagykun-Szolnok, Hungary"
    },
    {
      "lon": 26.25,
      "lat": 59.25,
      "type": "hotspot_cell",
      "score": 14.686,
      "count": 35,
      "cell_deg": 0.5,
      "sources": {
        "GDELT": 35,
        "USGS": 0,
        "GDACS": 0
      },
      "last7_score": 12.737,
      "prev7_score": 1.948,
      "trend": "up",
      "trend_arrow": "🔺",
      "change_pct": 553.8,
      "place": "Lääne-Viru County, Estonia"
    },
    {
      "lon": 14.25,
      "lat": 50.25,
      "type": "hotspot_cell",
      "score": 14.16,
      "count": 37,
      "cell_deg": 0.5,
      "sources": {
        "GDELT": 37,
        "USGS": 0,
        "GDACS": 0
      },
      "last7_score": 12.225,
      "prev7_score": 1.935,
      "trend": "up",
      "trend_arrow": "🔺",
      "change_pct": 531.7,
      "place": "SO ORP Kralupy nad Vltavou, Czechia"
    },
    {
      "lon": 25.25,
      "lat": 46.25,
      "type": "hotspot_cell",
      "score": 13.617,
      "count": 36,
      "cell_deg": 0.5,
      "sources": {
        "GDELT": 36,
        "USGS": 0,
        "GDACS": 0
      },
      "last7_score": 11.732,
      "prev7_score": 1.885,
      "trend": "up",
      "trend_arrow": "🔺",
      "change_pct": 522.4,
      "place": "Harghita, Romania"
    },
    {
      "lon": 19.25,
      "lat": 47.75,
      "type": "hotspot_cell",
      "score": 13.598,
      "count": 39,
      "cell_deg": 0.5,
      "sources": {
        "GDELT": 39,
        "USGS": 0,
        "GDACS": 0
      },
      "last7_score": 11.084,
      "prev7_score": 2.515,
      "trend": "up",
      "trend_arrow": "🔺",
      "change_pct": 340.8,
      "place": "Pest, Hungary"
    },
    {
      "lon": 15.25,
      "lat": 49.75,
      "type": "hotspot_cell",
      "score": 12.073,
      "count": 35,
      "cell_deg": 0.5,
      "sources": {
        "GDELT": 35,
        "USGS": 0,
        "GDACS": 0
      },
      "last7_score": 9.641,
      "prev7_score": 2.432,
      "trend": "up",
      "trend_arrow": "🔺",
      "change_pct": 296.5,
      "place": "Vysočina Region, Czechia"
    },
    {
      "lon": 25.25,
      "lat": 57.25,
      "type": "hotspot_cell",
      "score": 11.054,
      "count": 33,
      "cell_deg": 0.5,
      "sources": {
        "GDELT": 33,
        "USGS": 0,
        "GDACS": 0
      },
      "last7_score": 9.389,
      "prev7_score": 1.666,
      "trend": "up",
      "trend_arrow": "🔺",
      "change_pct": 463.7,
      "place": "Cēsu novads, Latvia"
    },
    {
      "lon": 19.75,
      "lat": 48.75,
      "type": "hotspot_cell",
      "score": 9.788,
      "count": 31,
      "cell_deg": 0.5,
      "sources": {
        "GDELT": 31,
        "USGS": 0,
        "GDACS": 0
      },
      "last7_score": 7.675,
      "prev7_score": 2.113,
      "trend": "up",
      "trend_arrow": "🔺",
      "change_pct": 263.2,
      "place": "District of Brezno, Slovakia"
    }
  ]
}