{
  "generated_utc": "2026-03-04T02:09:58Z",
  "top": [
    {
      "lon": 20.25,
      "lat": 47.25,
      "type": "hotspot_cell",
      "score": 18.241,
      "count": 41,
      "cell_deg": 0.5,
      "sources": {
        "GDELT": 41,
        "USGS": 0,
        "GDACS": 0
      },
      "last7_score": 15.028,
      "prev7_score": 3.214,
      "trend": "up",
      "trend_arrow": "🔺",
      "change_pct": 367.6,
      "place": "Jász-Nagykun-Szolnok, Hungary"
    },
    {
      "lon": 20.25,
      "lat": 52.25,
      "type": "hotspot_cell",
      "score": 17.603,
      "count": 47,
      "cell_deg": 0.5,
      "sources": {
        "GDELT": 47,
        "USGS": 0,
        "GDACS": 0
      },
      "last7_score": 14.156,
      "prev7_score": 3.447,
      "trend": "up",
      "trend_arrow": "🔺",
      "change_pct": 310.6,
      "place": "Sochaczew County, Poland"
    },
    {
      "lon": 21.25,
      "lat": 52.25,
      "type": "hotspot_cell",
      "score": 16.58,
      "count": 43,
      "cell_deg": 0.5,
      "sources": {
        "GDELT": 43,
        "USGS": 0,
        "GDACS": 0
      },
      "last7_score": 13.559,
      "prev7_score": 3.022,
      "trend": "up",
      "trend_arrow": "🔺",
      "change_pct": 348.7,
      "place": "Warsaw, Poland"
    },
    {
      "lon": 14.25,
      "lat": 50.25,
      "type": "hotspot_cell",
      "score": 15.657,
      "count": 37,
      "cell_deg": 0.5,
      "sources": {
        "GDELT": 37,
        "USGS": 0,
        "GDACS": 0
      },
      "last7_score": 12.688,
      "prev7_score": 2.968,
      "trend": "up",
      "trend_arrow": "🔺",
      "change_pct": 327.5,
      "place": "SO ORP Kralupy nad Vltavou, Czechia"
    },
    {
      "lon": 26.25,
      "lat": 59.25,
      "type": "hotspot_cell",
      "score": 13.601,
      "count": 33,
      "cell_deg": 0.5,
      "sources": {
        "GDELT": 33,
        "USGS": 0,
        "GDACS": 0
      },
      "last7_score": 11.631,
      "prev7_score": 1.97,
      "trend": "up",
      "trend_arrow": "🔺",
      "change_pct": 490.4,
      "place": "Lääne-Viru County, Estonia"
    },
    {
      "lon": 25.25,
      "lat": 46.25,
      "type": "hotspot_cell",
      "score": 13.514,
      "count": 33,
      "cell_deg": 0.5,
      "sources": {
        "GDELT": 33,
        "USGS": 0,
        "GDACS": 0
      },
      "last7_score": 10.945,
      "prev7_score": 2.569,
      "trend": "up",
      "trend_arrow": "🔺",
      "change_pct": 326.1,
      "place": "Harghita, Romania"
    },
    {
      "lon": 19.25,
      "lat": 47.75,
      "type": "hotspot_cell",
      "score": 12.586,
      "count": 37,
      "cell_deg": 0.5,
      "sources": {
        "GDELT": 37,
        "USGS": 0,
        "GDACS": 0
      },
      "last7_score": 9.583,
      "prev7_score": 3.004,
      "trend": "up",
      "trend_arrow": "🔺",
      "change_pct": 219.0,
      "place": "Pest, Hungary"
    },
    {
      "lon": 15.25,
      "lat": 49.75,
      "type": "hotspot_cell",
      "score": 11.113,
      "count": 32,
      "cell_deg": 0.5,
      "sources": {
        "GDELT": 32,
        "USGS": 0,
        "GDACS": 0
      },
      "last7_score": 8.489,
      "prev7_score": 2.624,
      "trend": "up",
      "trend_arrow": "🔺",
      "change_pct": 223.6,
      "place": "Vysočina Region, Czechia"
    },
    {
      "lon": 25.25,
      "lat": 57.25,
      "type": "hotspot_cell",
      "score": 10.213,
      "count": 31,
      "cell_deg": 0.5,
      "sources": {
        "GDELT": 31,
        "USGS": 0,
        "GDACS": 0
      },
      "last7_score": 8.254,
      "prev7_score": 1.959,
      "trend": "up",
      "trend_arrow": "🔺",
      "change_pct": 321.3,
      "place": "Cēsu novads, Latvia"
    },
    {
      "lon": 26.25,
      "lat": 44.25,
      "type": "hotspot_cell",
      "score": 9.811,
      "count": 27,
      "cell_deg": 0.5,
      "sources": {
        "GDELT": 27,
        "USGS": 0,
        "GDACS": 0
      },
      "last7_score": 7.589,
      "prev7_score": 2.223,
      "trend": "up",
      "trend_arrow": "🔺",
      "change_pct": 241.4,
      "place": "Giurgiu, Romania"
    }
  ]
}