{
  "generated_utc": "2026-06-24T08:59:35Z",
  "top": [
    {
      "lon": 14.25,
      "lat": 50.25,
      "type": "hotspot_cell",
      "score": 609.769,
      "count": 895,
      "cell_deg": 0.5,
      "sources": {
        "GDELT": 126,
        "GDELT_DOC": 758,
        "DIRECT_FEED": 11,
        "USGS": 0,
        "GDACS": 0
      },
      "last7_score": 601.742,
      "prev7_score": 8.027,
      "trend": "up",
      "trend_arrow": "🔺",
      "change_pct": 7396.0,
      "place": "SO ORP Kralupy nad Vltavou, Czechia"
    },
    {
      "lon": 26.25,
      "lat": 44.25,
      "type": "hotspot_cell",
      "score": 587.301,
      "count": 981,
      "cell_deg": 0.5,
      "sources": {
        "GDELT": 137,
        "GDELT_DOC": 838,
        "DIRECT_FEED": 6,
        "USGS": 0,
        "GDACS": 0
      },
      "last7_score": 575.839,
      "prev7_score": 11.463,
      "trend": "up",
      "trend_arrow": "🔺",
      "change_pct": 4923.6,
      "place": "Giurgiu, Romania"
    },
    {
      "lon": 25.25,
      "lat": 54.75,
      "type": "hotspot_cell",
      "score": 452.779,
      "count": 832,
      "cell_deg": 0.5,
      "sources": {
        "GDELT": 55,
        "GDELT_DOC": 777,
        "DIRECT_FEED": 0,
        "USGS": 0,
        "GDACS": 0
      },
      "last7_score": 448.12,
      "prev7_score": 4.659,
      "trend": "up",
      "trend_arrow": "🔺",
      "change_pct": 9517.7,
      "place": "Vilnius County, Lithuania"
    },
    {
      "lon": 19.25,
      "lat": 47.75,
      "type": "hotspot_cell",
      "score": 187.903,
      "count": 348,
      "cell_deg": 0.5,
      "sources": {
        "GDELT": 177,
        "GDELT_DOC": 0,
        "DIRECT_FEED": 171,
        "USGS": 0,
        "GDACS": 0
      },
      "last7_score": 175.975,
      "prev7_score": 11.928,
      "trend": "up",
      "trend_arrow": "🔺",
      "change_pct": 1375.4,
      "place": "Pest, Hungary"
    },
    {
      "lon": 20.25,
      "lat": 52.25,
      "type": "hotspot_cell",
      "score": 166.843,
      "count": 466,
      "cell_deg": 0.5,
      "sources": {
        "GDELT": 466,
        "GDELT_DOC": 0,
        "DIRECT_FEED": 0,
        "USGS": 0,
        "GDACS": 0
      },
      "last7_score": 131.892,
      "prev7_score": 34.95,
      "trend": "up",
      "trend_arrow": "🔺",
      "change_pct": 277.4,
      "place": "Sochaczew County, Poland"
    },
    {
      "lon": 21.25,
      "lat": 52.25,
      "type": "hotspot_cell",
      "score": 136.769,
      "count": 295,
      "cell_deg": 0.5,
      "sources": {
        "GDELT": 295,
        "GDELT_DOC": 0,
        "DIRECT_FEED": 0,
        "USGS": 0,
        "GDACS": 0
      },
      "last7_score": 119.059,
      "prev7_score": 17.71,
      "trend": "up",
      "trend_arrow": "🔺",
      "change_pct": 572.3,
      "place": "Warsaw, Poland"
    },
    {
      "lon": 25.25,
      "lat": 46.25,
      "type": "hotspot_cell",
      "score": 134.591,
      "count": 380,
      "cell_deg": 0.5,
      "sources": {
        "GDELT": 380,
        "GDELT_DOC": 0,
        "DIRECT_FEED": 0,
        "USGS": 0,
        "GDACS": 0
      },
      "last7_score": 103.702,
      "prev7_score": 30.889,
      "trend": "up",
      "trend_arrow": "🔺",
      "change_pct": 235.7,
      "place": "Harghita, Romania"
    },
    {
      "lon": 24.25,
      "lat": 56.75,
      "type": "hotspot_cell",
      "score": 113.066,
      "count": 177,
      "cell_deg": 0.5,
      "sources": {
        "GDELT": 36,
        "GDELT_DOC": 0,
        "DIRECT_FEED": 141,
        "USGS": 0,
        "GDACS": 0
      },
      "last7_score": 110.835,
      "prev7_score": 2.231,
      "trend": "up",
      "trend_arrow": "🔺",
      "change_pct": 4868.3,
      "place": "Ķekavas novads, Latvia"
    },
    {
      "lon": 20.25,
      "lat": 47.25,
      "type": "hotspot_cell",
      "score": 90.549,
      "count": 243,
      "cell_deg": 0.5,
      "sources": {
        "GDELT": 242,
        "GDELT_DOC": 0,
        "DIRECT_FEED": 0,
        "USGS": 0,
        "GDACS": 1
      },
      "last7_score": 71.603,
      "prev7_score": 18.946,
      "trend": "up",
      "trend_arrow": "🔺",
      "change_pct": 277.9,
      "place": "Jász-Nagykun-Szolnok, Hungary"
    },
    {
      "lon": 15.25,
      "lat": 49.75,
      "type": "hotspot_cell",
      "score": 52.703,
      "count": 143,
      "cell_deg": 0.5,
      "sources": {
        "GDELT": 143,
        "GDELT_DOC": 0,
        "DIRECT_FEED": 0,
        "USGS": 0,
        "GDACS": 0
      },
      "last7_score": 42.089,
      "prev7_score": 10.614,
      "trend": "up",
      "trend_arrow": "🔺",
      "change_pct": 296.5,
      "place": "Vysočina Region, Czechia"
    }
  ]
}