{
  "generated_utc": "2026-03-31T02:38:08Z",
  "top": [
    {
      "lon": 14.25,
      "lat": 50.25,
      "type": "hotspot_cell",
      "score": 849.511,
      "count": 1478,
      "cell_deg": 0.5,
      "sources": {
        "GDELT": 117,
        "GDELT_DOC": 1358,
        "DIRECT_FEED": 3,
        "USGS": 0,
        "GDACS": 0
      },
      "last7_score": 841.262,
      "prev7_score": 8.249,
      "trend": "up",
      "trend_arrow": "🔺",
      "change_pct": 10098.7,
      "place": "SO ORP Kralupy nad Vltavou, Czechia"
    },
    {
      "lon": 26.25,
      "lat": 44.25,
      "type": "hotspot_cell",
      "score": 705.898,
      "count": 1206,
      "cell_deg": 0.5,
      "sources": {
        "GDELT": 124,
        "GDELT_DOC": 1080,
        "DIRECT_FEED": 2,
        "USGS": 0,
        "GDACS": 0
      },
      "last7_score": 695.098,
      "prev7_score": 10.8,
      "trend": "up",
      "trend_arrow": "🔺",
      "change_pct": 6335.9,
      "place": "Giurgiu, Romania"
    },
    {
      "lon": 25.25,
      "lat": 54.75,
      "type": "hotspot_cell",
      "score": 687.19,
      "count": 1123,
      "cell_deg": 0.5,
      "sources": {
        "GDELT": 90,
        "GDELT_DOC": 1033,
        "DIRECT_FEED": 0,
        "USGS": 0,
        "GDACS": 0
      },
      "last7_score": 679.117,
      "prev7_score": 8.073,
      "trend": "up",
      "trend_arrow": "🔺",
      "change_pct": 8311.7,
      "place": "Vilnius County, Lithuania"
    },
    {
      "lon": 19.25,
      "lat": 47.75,
      "type": "hotspot_cell",
      "score": 224.93,
      "count": 502,
      "cell_deg": 0.5,
      "sources": {
        "GDELT": 292,
        "GDELT_DOC": 0,
        "DIRECT_FEED": 210,
        "USGS": 0,
        "GDACS": 0
      },
      "last7_score": 200.655,
      "prev7_score": 24.276,
      "trend": "up",
      "trend_arrow": "🔺",
      "change_pct": 726.6,
      "place": "Pest, Hungary"
    },
    {
      "lon": 20.25,
      "lat": 52.25,
      "type": "hotspot_cell",
      "score": 173.047,
      "count": 436,
      "cell_deg": 0.5,
      "sources": {
        "GDELT": 436,
        "GDELT_DOC": 0,
        "DIRECT_FEED": 0,
        "USGS": 0,
        "GDACS": 0
      },
      "last7_score": 142.397,
      "prev7_score": 30.649,
      "trend": "up",
      "trend_arrow": "🔺",
      "change_pct": 364.6,
      "place": "Sochaczew County, Poland"
    },
    {
      "lon": 24.25,
      "lat": 56.75,
      "type": "hotspot_cell",
      "score": 116.125,
      "count": 195,
      "cell_deg": 0.5,
      "sources": {
        "GDELT": 43,
        "GDELT_DOC": 0,
        "DIRECT_FEED": 152,
        "USGS": 0,
        "GDACS": 0
      },
      "last7_score": 113.387,
      "prev7_score": 2.739,
      "trend": "up",
      "trend_arrow": "🔺",
      "change_pct": 4040.0,
      "place": "Ķekavas novads, Latvia"
    },
    {
      "lon": 20.25,
      "lat": 47.25,
      "type": "hotspot_cell",
      "score": 103.204,
      "count": 335,
      "cell_deg": 0.5,
      "sources": {
        "GDELT": 335,
        "GDELT_DOC": 0,
        "DIRECT_FEED": 0,
        "USGS": 0,
        "GDACS": 0
      },
      "last7_score": 73.863,
      "prev7_score": 29.341,
      "trend": "up",
      "trend_arrow": "🔺",
      "change_pct": 151.7,
      "place": "Jász-Nagykun-Szolnok, Hungary"
    },
    {
      "lon": 25.25,
      "lat": 46.25,
      "type": "hotspot_cell",
      "score": 96.168,
      "count": 298,
      "cell_deg": 0.5,
      "sources": {
        "GDELT": 298,
        "GDELT_DOC": 0,
        "DIRECT_FEED": 0,
        "USGS": 0,
        "GDACS": 0
      },
      "last7_score": 70.49,
      "prev7_score": 25.677,
      "trend": "up",
      "trend_arrow": "🔺",
      "change_pct": 174.5,
      "place": "Harghita, Romania"
    },
    {
      "lon": 27.75,
      "lat": 47.25,
      "type": "hotspot_cell",
      "score": 51.531,
      "count": 99,
      "cell_deg": 0.5,
      "sources": {
        "GDELT": 0,
        "GDELT_DOC": 99,
        "DIRECT_FEED": 0,
        "USGS": 0,
        "GDACS": 0
      },
      "last7_score": 51.531,
      "prev7_score": 0.0,
      "trend": "new",
      "trend_arrow": "🆕",
      "change_pct": null,
      "place": "Iași, Romania"
    },
    {
      "lon": 15.25,
      "lat": 49.75,
      "type": "hotspot_cell",
      "score": 49.347,
      "count": 168,
      "cell_deg": 0.5,
      "sources": {
        "GDELT": 168,
        "GDELT_DOC": 0,
        "DIRECT_FEED": 0,
        "USGS": 0,
        "GDACS": 0
      },
      "last7_score": 34.448,
      "prev7_score": 14.899,
      "trend": "up",
      "trend_arrow": "🔺",
      "change_pct": 131.2,
      "place": "Vysočina Region, Czechia"
    }
  ]
}