{
  "generated_utc": "2026-04-26T02:52:12Z",
  "top": [
    {
      "lon": 14.25,
      "lat": 50.25,
      "type": "hotspot_cell",
      "score": 1034.378,
      "count": 1684,
      "cell_deg": 0.5,
      "sources": {
        "GDELT": 182,
        "GDELT_DOC": 1498,
        "DIRECT_FEED": 4,
        "USGS": 0,
        "GDACS": 0
      },
      "last7_score": 1019.611,
      "prev7_score": 14.767,
      "trend": "up",
      "trend_arrow": "🔺",
      "change_pct": 6804.4,
      "place": "SO ORP Kralupy nad Vltavou, Czechia"
    },
    {
      "lon": 26.25,
      "lat": 44.25,
      "type": "hotspot_cell",
      "score": 969.974,
      "count": 1512,
      "cell_deg": 0.5,
      "sources": {
        "GDELT": 138,
        "GDELT_DOC": 1367,
        "DIRECT_FEED": 7,
        "USGS": 0,
        "GDACS": 0
      },
      "last7_score": 962.676,
      "prev7_score": 7.298,
      "trend": "up",
      "trend_arrow": "🔺",
      "change_pct": 13091.1,
      "place": "Giurgiu, Romania"
    },
    {
      "lon": 25.25,
      "lat": 54.75,
      "type": "hotspot_cell",
      "score": 721.168,
      "count": 1207,
      "cell_deg": 0.5,
      "sources": {
        "GDELT": 74,
        "GDELT_DOC": 1133,
        "DIRECT_FEED": 0,
        "USGS": 0,
        "GDACS": 0
      },
      "last7_score": 716.216,
      "prev7_score": 4.952,
      "trend": "up",
      "trend_arrow": "🔺",
      "change_pct": 14362.3,
      "place": "Vilnius County, Lithuania"
    },
    {
      "lon": 19.25,
      "lat": 47.75,
      "type": "hotspot_cell",
      "score": 337.53,
      "count": 1071,
      "cell_deg": 0.5,
      "sources": {
        "GDELT": 822,
        "GDELT_DOC": 0,
        "DIRECT_FEED": 249,
        "USGS": 0,
        "GDACS": 0
      },
      "last7_score": 281.405,
      "prev7_score": 56.125,
      "trend": "up",
      "trend_arrow": "🔺",
      "change_pct": 401.4,
      "place": "Pest, Hungary"
    },
    {
      "lon": 20.25,
      "lat": 47.25,
      "type": "hotspot_cell",
      "score": 236.347,
      "count": 791,
      "cell_deg": 0.5,
      "sources": {
        "GDELT": 791,
        "GDELT_DOC": 0,
        "DIRECT_FEED": 0,
        "USGS": 0,
        "GDACS": 0
      },
      "last7_score": 183.581,
      "prev7_score": 52.766,
      "trend": "up",
      "trend_arrow": "🔺",
      "change_pct": 247.9,
      "place": "Jász-Nagykun-Szolnok, Hungary"
    },
    {
      "lon": 20.25,
      "lat": 52.25,
      "type": "hotspot_cell",
      "score": 181.352,
      "count": 471,
      "cell_deg": 0.5,
      "sources": {
        "GDELT": 471,
        "GDELT_DOC": 0,
        "DIRECT_FEED": 0,
        "USGS": 0,
        "GDACS": 0
      },
      "last7_score": 150.274,
      "prev7_score": 31.078,
      "trend": "up",
      "trend_arrow": "🔺",
      "change_pct": 383.5,
      "place": "Sochaczew County, Poland"
    },
    {
      "lon": 26.75,
      "lat": 47.75,
      "type": "hotspot_cell",
      "score": 141.599,
      "count": 139,
      "cell_deg": 0.5,
      "sources": {
        "GDELT": 2,
        "GDELT_DOC": 135,
        "DIRECT_FEED": 2,
        "USGS": 0,
        "GDACS": 0
      },
      "last7_score": 141.425,
      "prev7_score": 0.174,
      "trend": "up",
      "trend_arrow": "🔺",
      "change_pct": 81235.7,
      "place": "Botoșani, Romania"
    },
    {
      "lon": 24.25,
      "lat": 56.75,
      "type": "hotspot_cell",
      "score": 109.612,
      "count": 175,
      "cell_deg": 0.5,
      "sources": {
        "GDELT": 33,
        "GDELT_DOC": 0,
        "DIRECT_FEED": 142,
        "USGS": 0,
        "GDACS": 0
      },
      "last7_score": 107.272,
      "prev7_score": 2.34,
      "trend": "up",
      "trend_arrow": "🔺",
      "change_pct": 4484.5,
      "place": "Ķekavas novads, Latvia"
    },
    {
      "lon": 22.25,
      "lat": 55.25,
      "type": "hotspot_cell",
      "score": 101.142,
      "count": 109,
      "cell_deg": 0.5,
      "sources": {
        "GDELT": 0,
        "GDELT_DOC": 108,
        "DIRECT_FEED": 1,
        "USGS": 0,
        "GDACS": 0
      },
      "last7_score": 101.142,
      "prev7_score": 0.0,
      "trend": "new",
      "trend_arrow": "🆕",
      "change_pct": null,
      "place": "Tauragės seniūnija, Lithuania"
    },
    {
      "lon": 25.25,
      "lat": 46.25,
      "type": "hotspot_cell",
      "score": 95.182,
      "count": 273,
      "cell_deg": 0.5,
      "sources": {
        "GDELT": 273,
        "GDELT_DOC": 0,
        "DIRECT_FEED": 0,
        "USGS": 0,
        "GDACS": 0
      },
      "last7_score": 77.909,
      "prev7_score": 17.273,
      "trend": "up",
      "trend_arrow": "🔺",
      "change_pct": 351.0,
      "place": "Harghita, Romania"
    }
  ]
}