{
  "generated_utc": "2026-03-29T02:36:46Z",
  "top": [
    {
      "lon": 14.25,
      "lat": 50.25,
      "type": "hotspot_cell",
      "score": 871.45,
      "count": 1442,
      "cell_deg": 0.5,
      "sources": {
        "GDELT": 125,
        "GDELT_DOC": 1315,
        "DIRECT_FEED": 2,
        "USGS": 0,
        "GDACS": 0
      },
      "last7_score": 862.071,
      "prev7_score": 9.379,
      "trend": "up",
      "trend_arrow": "🔺",
      "change_pct": 9091.0,
      "place": "SO ORP Kralupy nad Vltavou, Czechia"
    },
    {
      "lon": 26.25,
      "lat": 44.25,
      "type": "hotspot_cell",
      "score": 662.973,
      "count": 1156,
      "cell_deg": 0.5,
      "sources": {
        "GDELT": 140,
        "GDELT_DOC": 1014,
        "DIRECT_FEED": 2,
        "USGS": 0,
        "GDACS": 0
      },
      "last7_score": 653.262,
      "prev7_score": 9.711,
      "trend": "up",
      "trend_arrow": "🔺",
      "change_pct": 6626.9,
      "place": "Giurgiu, Romania"
    },
    {
      "lon": 25.25,
      "lat": 54.75,
      "type": "hotspot_cell",
      "score": 592.64,
      "count": 946,
      "cell_deg": 0.5,
      "sources": {
        "GDELT": 91,
        "GDELT_DOC": 855,
        "DIRECT_FEED": 0,
        "USGS": 0,
        "GDACS": 0
      },
      "last7_score": 586.552,
      "prev7_score": 6.089,
      "trend": "up",
      "trend_arrow": "🔺",
      "change_pct": 9533.7,
      "place": "Vilnius County, Lithuania"
    },
    {
      "lon": 19.25,
      "lat": 47.75,
      "type": "hotspot_cell",
      "score": 251.57,
      "count": 544,
      "cell_deg": 0.5,
      "sources": {
        "GDELT": 331,
        "GDELT_DOC": 0,
        "DIRECT_FEED": 213,
        "USGS": 0,
        "GDACS": 0
      },
      "last7_score": 230.523,
      "prev7_score": 21.047,
      "trend": "up",
      "trend_arrow": "🔺",
      "change_pct": 995.3,
      "place": "Pest, Hungary"
    },
    {
      "lon": 20.25,
      "lat": 52.25,
      "type": "hotspot_cell",
      "score": 175.277,
      "count": 452,
      "cell_deg": 0.5,
      "sources": {
        "GDELT": 452,
        "GDELT_DOC": 0,
        "DIRECT_FEED": 0,
        "USGS": 0,
        "GDACS": 0
      },
      "last7_score": 146.981,
      "prev7_score": 28.296,
      "trend": "up",
      "trend_arrow": "🔺",
      "change_pct": 419.4,
      "place": "Sochaczew County, Poland"
    },
    {
      "lon": 24.25,
      "lat": 56.75,
      "type": "hotspot_cell",
      "score": 122.327,
      "count": 192,
      "cell_deg": 0.5,
      "sources": {
        "GDELT": 42,
        "GDELT_DOC": 0,
        "DIRECT_FEED": 150,
        "USGS": 0,
        "GDACS": 0
      },
      "last7_score": 120.079,
      "prev7_score": 2.248,
      "trend": "up",
      "trend_arrow": "🔺",
      "change_pct": 5241.8,
      "place": "Ķekavas novads, Latvia"
    },
    {
      "lon": 20.25,
      "lat": 47.25,
      "type": "hotspot_cell",
      "score": 114.838,
      "count": 365,
      "cell_deg": 0.5,
      "sources": {
        "GDELT": 365,
        "GDELT_DOC": 0,
        "DIRECT_FEED": 0,
        "USGS": 0,
        "GDACS": 0
      },
      "last7_score": 86.406,
      "prev7_score": 28.432,
      "trend": "up",
      "trend_arrow": "🔺",
      "change_pct": 203.9,
      "place": "Jász-Nagykun-Szolnok, Hungary"
    },
    {
      "lon": 25.25,
      "lat": 46.25,
      "type": "hotspot_cell",
      "score": 108.788,
      "count": 325,
      "cell_deg": 0.5,
      "sources": {
        "GDELT": 325,
        "GDELT_DOC": 0,
        "DIRECT_FEED": 0,
        "USGS": 0,
        "GDACS": 0
      },
      "last7_score": 89.116,
      "prev7_score": 19.672,
      "trend": "up",
      "trend_arrow": "🔺",
      "change_pct": 353.0,
      "place": "Harghita, Romania"
    },
    {
      "lon": 27.75,
      "lat": 47.25,
      "type": "hotspot_cell",
      "score": 56.547,
      "count": 98,
      "cell_deg": 0.5,
      "sources": {
        "GDELT": 0,
        "GDELT_DOC": 98,
        "DIRECT_FEED": 0,
        "USGS": 0,
        "GDACS": 0
      },
      "last7_score": 56.547,
      "prev7_score": 0.0,
      "trend": "new",
      "trend_arrow": "🆕",
      "change_pct": null,
      "place": "Iași, Romania"
    },
    {
      "lon": 15.25,
      "lat": 49.75,
      "type": "hotspot_cell",
      "score": 54.224,
      "count": 175,
      "cell_deg": 0.5,
      "sources": {
        "GDELT": 175,
        "GDELT_DOC": 0,
        "DIRECT_FEED": 0,
        "USGS": 0,
        "GDACS": 0
      },
      "last7_score": 39.975,
      "prev7_score": 14.25,
      "trend": "up",
      "trend_arrow": "🔺",
      "change_pct": 180.5,
      "place": "Vysočina Region, Czechia"
    }
  ]
}