{
  "generated_utc": "2026-07-01T19:50:26Z",
  "top": [
    {
      "lon": 26.25,
      "lat": 44.25,
      "type": "hotspot_cell",
      "score": 430.925,
      "count": 829,
      "cell_deg": 0.5,
      "sources": {
        "GDELT": 145,
        "GDELT_DOC": 678,
        "DIRECT_FEED": 6,
        "USGS": 0,
        "GDACS": 0
      },
      "last7_score": 423.266,
      "prev7_score": 7.659,
      "trend": "up",
      "trend_arrow": "🔺",
      "change_pct": 5426.7,
      "place": "Giurgiu, Romania"
    },
    {
      "lon": 14.25,
      "lat": 50.25,
      "type": "hotspot_cell",
      "score": 399.024,
      "count": 814,
      "cell_deg": 0.5,
      "sources": {
        "GDELT": 134,
        "GDELT_DOC": 675,
        "DIRECT_FEED": 5,
        "USGS": 0,
        "GDACS": 0
      },
      "last7_score": 389.731,
      "prev7_score": 9.293,
      "trend": "up",
      "trend_arrow": "🔺",
      "change_pct": 4094.0,
      "place": "SO ORP Kralupy nad Vltavou, Czechia"
    },
    {
      "lon": 25.25,
      "lat": 54.75,
      "type": "hotspot_cell",
      "score": 338.063,
      "count": 588,
      "cell_deg": 0.5,
      "sources": {
        "GDELT": 60,
        "GDELT_DOC": 528,
        "DIRECT_FEED": 0,
        "USGS": 0,
        "GDACS": 0
      },
      "last7_score": 333.909,
      "prev7_score": 4.154,
      "trend": "up",
      "trend_arrow": "🔺",
      "change_pct": 7939.0,
      "place": "Vilnius County, Lithuania"
    },
    {
      "lon": 20.25,
      "lat": 52.25,
      "type": "hotspot_cell",
      "score": 213.432,
      "count": 549,
      "cell_deg": 0.5,
      "sources": {
        "GDELT": 549,
        "GDELT_DOC": 0,
        "DIRECT_FEED": 0,
        "USGS": 0,
        "GDACS": 0
      },
      "last7_score": 181.099,
      "prev7_score": 32.333,
      "trend": "up",
      "trend_arrow": "🔺",
      "change_pct": 460.1,
      "place": "Sochaczew County, Poland"
    },
    {
      "lon": 19.25,
      "lat": 47.75,
      "type": "hotspot_cell",
      "score": 196.835,
      "count": 366,
      "cell_deg": 0.5,
      "sources": {
        "GDELT": 194,
        "GDELT_DOC": 0,
        "DIRECT_FEED": 172,
        "USGS": 0,
        "GDACS": 0
      },
      "last7_score": 183.337,
      "prev7_score": 13.498,
      "trend": "up",
      "trend_arrow": "🔺",
      "change_pct": 1258.3,
      "place": "Pest, Hungary"
    },
    {
      "lon": 24.25,
      "lat": 56.75,
      "type": "hotspot_cell",
      "score": 124.379,
      "count": 184,
      "cell_deg": 0.5,
      "sources": {
        "GDELT": 32,
        "GDELT_DOC": 0,
        "DIRECT_FEED": 152,
        "USGS": 0,
        "GDACS": 0
      },
      "last7_score": 122.21,
      "prev7_score": 2.169,
      "trend": "up",
      "trend_arrow": "🔺",
      "change_pct": 5533.7,
      "place": "Ķekavas novads, Latvia"
    },
    {
      "lon": 25.25,
      "lat": 46.25,
      "type": "hotspot_cell",
      "score": 121.27,
      "count": 360,
      "cell_deg": 0.5,
      "sources": {
        "GDELT": 360,
        "GDELT_DOC": 0,
        "DIRECT_FEED": 0,
        "USGS": 0,
        "GDACS": 0
      },
      "last7_score": 97.193,
      "prev7_score": 24.077,
      "trend": "up",
      "trend_arrow": "🔺",
      "change_pct": 303.7,
      "place": "Harghita, Romania"
    },
    {
      "lon": 21.25,
      "lat": 52.25,
      "type": "hotspot_cell",
      "score": 104.214,
      "count": 347,
      "cell_deg": 0.5,
      "sources": {
        "GDELT": 347,
        "GDELT_DOC": 0,
        "DIRECT_FEED": 0,
        "USGS": 0,
        "GDACS": 0
      },
      "last7_score": 79.181,
      "prev7_score": 25.032,
      "trend": "up",
      "trend_arrow": "🔺",
      "change_pct": 216.3,
      "place": "Warsaw, Poland"
    },
    {
      "lon": 15.25,
      "lat": 49.75,
      "type": "hotspot_cell",
      "score": 68.199,
      "count": 168,
      "cell_deg": 0.5,
      "sources": {
        "GDELT": 168,
        "GDELT_DOC": 0,
        "DIRECT_FEED": 0,
        "USGS": 0,
        "GDACS": 0
      },
      "last7_score": 58.587,
      "prev7_score": 9.612,
      "trend": "up",
      "trend_arrow": "🔺",
      "change_pct": 509.5,
      "place": "Vysočina Region, Czechia"
    },
    {
      "lon": 20.25,
      "lat": 47.25,
      "type": "hotspot_cell",
      "score": 60.194,
      "count": 196,
      "cell_deg": 0.5,
      "sources": {
        "GDELT": 196,
        "GDELT_DOC": 0,
        "DIRECT_FEED": 0,
        "USGS": 0,
        "GDACS": 0
      },
      "last7_score": 44.583,
      "prev7_score": 15.611,
      "trend": "up",
      "trend_arrow": "🔺",
      "change_pct": 185.6,
      "place": "Jász-Nagykun-Szolnok, Hungary"
    }
  ]
}