{
  "generated_utc": "2026-06-06T13:18:30Z",
  "top": [
    {
      "lon": 26.25,
      "lat": 44.25,
      "type": "hotspot_cell",
      "score": 693.713,
      "count": 1102,
      "cell_deg": 0.5,
      "sources": {
        "GDELT": 252,
        "GDELT_DOC": 842,
        "DIRECT_FEED": 8,
        "USGS": 0,
        "GDACS": 0
      },
      "last7_score": 665.556,
      "prev7_score": 28.157,
      "trend": "up",
      "trend_arrow": "🔺",
      "change_pct": 2263.7,
      "place": "Giurgiu, Romania"
    },
    {
      "lon": 25.25,
      "lat": 54.75,
      "type": "hotspot_cell",
      "score": 618.836,
      "count": 1009,
      "cell_deg": 0.5,
      "sources": {
        "GDELT": 86,
        "GDELT_DOC": 920,
        "DIRECT_FEED": 3,
        "USGS": 0,
        "GDACS": 0
      },
      "last7_score": 613.904,
      "prev7_score": 4.932,
      "trend": "up",
      "trend_arrow": "🔺",
      "change_pct": 12346.5,
      "place": "Vilnius County, Lithuania"
    },
    {
      "lon": 14.25,
      "lat": 50.25,
      "type": "hotspot_cell",
      "score": 612.636,
      "count": 1021,
      "cell_deg": 0.5,
      "sources": {
        "GDELT": 128,
        "GDELT_DOC": 889,
        "DIRECT_FEED": 4,
        "USGS": 0,
        "GDACS": 0
      },
      "last7_score": 604.008,
      "prev7_score": 8.628,
      "trend": "up",
      "trend_arrow": "🔺",
      "change_pct": 6900.5,
      "place": "SO ORP Kralupy nad Vltavou, Czechia"
    },
    {
      "lon": 19.25,
      "lat": 47.75,
      "type": "hotspot_cell",
      "score": 226.236,
      "count": 437,
      "cell_deg": 0.5,
      "sources": {
        "GDELT": 256,
        "GDELT_DOC": 0,
        "DIRECT_FEED": 181,
        "USGS": 0,
        "GDACS": 0
      },
      "last7_score": 207.747,
      "prev7_score": 18.489,
      "trend": "up",
      "trend_arrow": "🔺",
      "change_pct": 1023.6,
      "place": "Pest, Hungary"
    },
    {
      "lon": 25.25,
      "lat": 46.25,
      "type": "hotspot_cell",
      "score": 201.5,
      "count": 509,
      "cell_deg": 0.5,
      "sources": {
        "GDELT": 509,
        "GDELT_DOC": 0,
        "DIRECT_FEED": 0,
        "USGS": 0,
        "GDACS": 0
      },
      "last7_score": 156.441,
      "prev7_score": 45.059,
      "trend": "up",
      "trend_arrow": "🔺",
      "change_pct": 247.2,
      "place": "Harghita, Romania"
    },
    {
      "lon": 20.25,
      "lat": 52.25,
      "type": "hotspot_cell",
      "score": 201.307,
      "count": 563,
      "cell_deg": 0.5,
      "sources": {
        "GDELT": 563,
        "GDELT_DOC": 0,
        "DIRECT_FEED": 0,
        "USGS": 0,
        "GDACS": 0
      },
      "last7_score": 162.179,
      "prev7_score": 39.128,
      "trend": "up",
      "trend_arrow": "🔺",
      "change_pct": 314.5,
      "place": "Sochaczew County, Poland"
    },
    {
      "lon": 24.25,
      "lat": 56.75,
      "type": "hotspot_cell",
      "score": 120.553,
      "count": 192,
      "cell_deg": 0.5,
      "sources": {
        "GDELT": 46,
        "GDELT_DOC": 0,
        "DIRECT_FEED": 146,
        "USGS": 0,
        "GDACS": 0
      },
      "last7_score": 116.936,
      "prev7_score": 3.617,
      "trend": "up",
      "trend_arrow": "🔺",
      "change_pct": 3133.3,
      "place": "Ķekavas novads, Latvia"
    },
    {
      "lon": 20.25,
      "lat": 47.25,
      "type": "hotspot_cell",
      "score": 95.497,
      "count": 256,
      "cell_deg": 0.5,
      "sources": {
        "GDELT": 256,
        "GDELT_DOC": 0,
        "DIRECT_FEED": 0,
        "USGS": 0,
        "GDACS": 0
      },
      "last7_score": 77.039,
      "prev7_score": 18.458,
      "trend": "up",
      "trend_arrow": "🔺",
      "change_pct": 317.4,
      "place": "Jász-Nagykun-Szolnok, Hungary"
    },
    {
      "lon": 21.25,
      "lat": 52.25,
      "type": "hotspot_cell",
      "score": 75.23,
      "count": 214,
      "cell_deg": 0.5,
      "sources": {
        "GDELT": 214,
        "GDELT_DOC": 0,
        "DIRECT_FEED": 0,
        "USGS": 0,
        "GDACS": 0
      },
      "last7_score": 58.262,
      "prev7_score": 16.968,
      "trend": "up",
      "trend_arrow": "🔺",
      "change_pct": 243.4,
      "place": "Warsaw, Poland"
    },
    {
      "lon": 15.25,
      "lat": 49.75,
      "type": "hotspot_cell",
      "score": 53.737,
      "count": 152,
      "cell_deg": 0.5,
      "sources": {
        "GDELT": 152,
        "GDELT_DOC": 0,
        "DIRECT_FEED": 0,
        "USGS": 0,
        "GDACS": 0
      },
      "last7_score": 41.69,
      "prev7_score": 12.047,
      "trend": "up",
      "trend_arrow": "🔺",
      "change_pct": 246.1,
      "place": "Vysočina Region, Czechia"
    }
  ]
}