{
  "generated_utc": "2026-05-16T02:59:52Z",
  "top": [
    {
      "lon": 14.25,
      "lat": 50.25,
      "type": "hotspot_cell",
      "score": 1077.193,
      "count": 1658,
      "cell_deg": 0.5,
      "sources": {
        "GDELT": 119,
        "GDELT_DOC": 1535,
        "DIRECT_FEED": 4,
        "USGS": 0,
        "GDACS": 0
      },
      "last7_score": 1068.443,
      "prev7_score": 8.75,
      "trend": "up",
      "trend_arrow": "🔺",
      "change_pct": 12110.4,
      "place": "SO ORP Kralupy nad Vltavou, Czechia"
    },
    {
      "lon": 26.25,
      "lat": 44.25,
      "type": "hotspot_cell",
      "score": 787.032,
      "count": 1370,
      "cell_deg": 0.5,
      "sources": {
        "GDELT": 228,
        "GDELT_DOC": 1136,
        "DIRECT_FEED": 6,
        "USGS": 0,
        "GDACS": 0
      },
      "last7_score": 774.629,
      "prev7_score": 12.404,
      "trend": "up",
      "trend_arrow": "🔺",
      "change_pct": 6145.2,
      "place": "Giurgiu, Romania"
    },
    {
      "lon": 25.25,
      "lat": 54.75,
      "type": "hotspot_cell",
      "score": 682.806,
      "count": 1085,
      "cell_deg": 0.5,
      "sources": {
        "GDELT": 73,
        "GDELT_DOC": 1012,
        "DIRECT_FEED": 0,
        "USGS": 0,
        "GDACS": 0
      },
      "last7_score": 676.621,
      "prev7_score": 6.185,
      "trend": "up",
      "trend_arrow": "🔺",
      "change_pct": 10840.1,
      "place": "Vilnius County, Lithuania"
    },
    {
      "lon": 19.25,
      "lat": 47.75,
      "type": "hotspot_cell",
      "score": 276.043,
      "count": 520,
      "cell_deg": 0.5,
      "sources": {
        "GDELT": 294,
        "GDELT_DOC": 0,
        "DIRECT_FEED": 226,
        "USGS": 0,
        "GDACS": 0
      },
      "last7_score": 250.542,
      "prev7_score": 25.501,
      "trend": "up",
      "trend_arrow": "🔺",
      "change_pct": 882.5,
      "place": "Pest, Hungary"
    },
    {
      "lon": 20.25,
      "lat": 52.25,
      "type": "hotspot_cell",
      "score": 251.599,
      "count": 591,
      "cell_deg": 0.5,
      "sources": {
        "GDELT": 591,
        "GDELT_DOC": 0,
        "DIRECT_FEED": 0,
        "USGS": 0,
        "GDACS": 0
      },
      "last7_score": 209.935,
      "prev7_score": 41.664,
      "trend": "up",
      "trend_arrow": "🔺",
      "change_pct": 403.9,
      "place": "Sochaczew County, Poland"
    },
    {
      "lon": 24.25,
      "lat": 56.75,
      "type": "hotspot_cell",
      "score": 129.882,
      "count": 189,
      "cell_deg": 0.5,
      "sources": {
        "GDELT": 39,
        "GDELT_DOC": 0,
        "DIRECT_FEED": 150,
        "USGS": 0,
        "GDACS": 0
      },
      "last7_score": 127.105,
      "prev7_score": 2.777,
      "trend": "up",
      "trend_arrow": "🔺",
      "change_pct": 4476.8,
      "place": "Ķekavas novads, Latvia"
    },
    {
      "lon": 20.25,
      "lat": 47.25,
      "type": "hotspot_cell",
      "score": 117.632,
      "count": 287,
      "cell_deg": 0.5,
      "sources": {
        "GDELT": 287,
        "GDELT_DOC": 0,
        "DIRECT_FEED": 0,
        "USGS": 0,
        "GDACS": 0
      },
      "last7_score": 96.421,
      "prev7_score": 21.211,
      "trend": "up",
      "trend_arrow": "🔺",
      "change_pct": 354.6,
      "place": "Jász-Nagykun-Szolnok, Hungary"
    },
    {
      "lon": 25.25,
      "lat": 46.25,
      "type": "hotspot_cell",
      "score": 115.453,
      "count": 300,
      "cell_deg": 0.5,
      "sources": {
        "GDELT": 300,
        "GDELT_DOC": 0,
        "DIRECT_FEED": 0,
        "USGS": 0,
        "GDACS": 0
      },
      "last7_score": 95.078,
      "prev7_score": 20.375,
      "trend": "up",
      "trend_arrow": "🔺",
      "change_pct": 366.6,
      "place": "Harghita, Romania"
    },
    {
      "lon": 21.25,
      "lat": 52.25,
      "type": "hotspot_cell",
      "score": 102.954,
      "count": 211,
      "cell_deg": 0.5,
      "sources": {
        "GDELT": 211,
        "GDELT_DOC": 0,
        "DIRECT_FEED": 0,
        "USGS": 0,
        "GDACS": 0
      },
      "last7_score": 86.866,
      "prev7_score": 16.088,
      "trend": "up",
      "trend_arrow": "🔺",
      "change_pct": 439.9,
      "place": "Warsaw, Poland"
    },
    {
      "lon": 25.25,
      "lat": 57.25,
      "type": "hotspot_cell",
      "score": 99.534,
      "count": 162,
      "cell_deg": 0.5,
      "sources": {
        "GDELT": 162,
        "GDELT_DOC": 0,
        "DIRECT_FEED": 0,
        "USGS": 0,
        "GDACS": 0
      },
      "last7_score": 92.647,
      "prev7_score": 6.888,
      "trend": "up",
      "trend_arrow": "🔺",
      "change_pct": 1245.1,
      "place": "Cēsu novads, Latvia"
    }
  ]
}