{
  "generated_utc": "2026-04-25T02:36:39Z",
  "top": [
    {
      "lon": 14.25,
      "lat": 50.25,
      "type": "hotspot_cell",
      "score": 1108.33,
      "count": 1647,
      "cell_deg": 0.5,
      "sources": {
        "GDELT": 179,
        "GDELT_DOC": 1464,
        "DIRECT_FEED": 4,
        "USGS": 0,
        "GDACS": 0
      },
      "last7_score": 1092.307,
      "prev7_score": 16.023,
      "trend": "up",
      "trend_arrow": "🔺",
      "change_pct": 6717.0,
      "place": "SO ORP Kralupy nad Vltavou, Czechia"
    },
    {
      "lon": 26.25,
      "lat": 44.25,
      "type": "hotspot_cell",
      "score": 905.624,
      "count": 1372,
      "cell_deg": 0.5,
      "sources": {
        "GDELT": 135,
        "GDELT_DOC": 1230,
        "DIRECT_FEED": 7,
        "USGS": 0,
        "GDACS": 0
      },
      "last7_score": 897.294,
      "prev7_score": 8.33,
      "trend": "up",
      "trend_arrow": "🔺",
      "change_pct": 10672.0,
      "place": "Giurgiu, Romania"
    },
    {
      "lon": 25.25,
      "lat": 54.75,
      "type": "hotspot_cell",
      "score": 761.926,
      "count": 1182,
      "cell_deg": 0.5,
      "sources": {
        "GDELT": 73,
        "GDELT_DOC": 1109,
        "DIRECT_FEED": 0,
        "USGS": 0,
        "GDACS": 0
      },
      "last7_score": 755.787,
      "prev7_score": 6.139,
      "trend": "up",
      "trend_arrow": "🔺",
      "change_pct": 12210.5,
      "place": "Vilnius County, Lithuania"
    },
    {
      "lon": 19.25,
      "lat": 47.75,
      "type": "hotspot_cell",
      "score": 397.331,
      "count": 1215,
      "cell_deg": 0.5,
      "sources": {
        "GDELT": 961,
        "GDELT_DOC": 0,
        "DIRECT_FEED": 254,
        "USGS": 0,
        "GDACS": 0
      },
      "last7_score": 322.328,
      "prev7_score": 75.004,
      "trend": "up",
      "trend_arrow": "🔺",
      "change_pct": 329.7,
      "place": "Pest, Hungary"
    },
    {
      "lon": 20.25,
      "lat": 47.25,
      "type": "hotspot_cell",
      "score": 283.297,
      "count": 857,
      "cell_deg": 0.5,
      "sources": {
        "GDELT": 857,
        "GDELT_DOC": 0,
        "DIRECT_FEED": 0,
        "USGS": 0,
        "GDACS": 0
      },
      "last7_score": 220.242,
      "prev7_score": 63.056,
      "trend": "up",
      "trend_arrow": "🔺",
      "change_pct": 249.3,
      "place": "Jász-Nagykun-Szolnok, Hungary"
    },
    {
      "lon": 20.25,
      "lat": 52.25,
      "type": "hotspot_cell",
      "score": 199.008,
      "count": 463,
      "cell_deg": 0.5,
      "sources": {
        "GDELT": 463,
        "GDELT_DOC": 0,
        "DIRECT_FEED": 0,
        "USGS": 0,
        "GDACS": 0
      },
      "last7_score": 166.244,
      "prev7_score": 32.763,
      "trend": "up",
      "trend_arrow": "🔺",
      "change_pct": 407.4,
      "place": "Sochaczew County, Poland"
    },
    {
      "lon": 24.25,
      "lat": 56.75,
      "type": "hotspot_cell",
      "score": 117.088,
      "count": 168,
      "cell_deg": 0.5,
      "sources": {
        "GDELT": 33,
        "GDELT_DOC": 0,
        "DIRECT_FEED": 135,
        "USGS": 0,
        "GDACS": 0
      },
      "last7_score": 114.063,
      "prev7_score": 3.025,
      "trend": "up",
      "trend_arrow": "🔺",
      "change_pct": 3671.2,
      "place": "Ķekavas novads, Latvia"
    },
    {
      "lon": 25.25,
      "lat": 46.25,
      "type": "hotspot_cell",
      "score": 104.281,
      "count": 265,
      "cell_deg": 0.5,
      "sources": {
        "GDELT": 265,
        "GDELT_DOC": 0,
        "DIRECT_FEED": 0,
        "USGS": 0,
        "GDACS": 0
      },
      "last7_score": 83.848,
      "prev7_score": 20.433,
      "trend": "up",
      "trend_arrow": "🔺",
      "change_pct": 310.4,
      "place": "Harghita, Romania"
    },
    {
      "lon": 27.75,
      "lat": 47.25,
      "type": "hotspot_cell",
      "score": 101.76,
      "count": 131,
      "cell_deg": 0.5,
      "sources": {
        "GDELT": 0,
        "GDELT_DOC": 131,
        "DIRECT_FEED": 0,
        "USGS": 0,
        "GDACS": 0
      },
      "last7_score": 101.76,
      "prev7_score": 0.0,
      "trend": "new",
      "trend_arrow": "🆕",
      "change_pct": null,
      "place": "Iași, Romania"
    },
    {
      "lon": 15.25,
      "lat": 49.75,
      "type": "hotspot_cell",
      "score": 71.408,
      "count": 200,
      "cell_deg": 0.5,
      "sources": {
        "GDELT": 200,
        "GDELT_DOC": 0,
        "DIRECT_FEED": 0,
        "USGS": 0,
        "GDACS": 0
      },
      "last7_score": 55.814,
      "prev7_score": 15.594,
      "trend": "up",
      "trend_arrow": "🔺",
      "change_pct": 257.9,
      "place": "Vysočina Region, Czechia"
    }
  ]
}