{
  "generated_utc": "2026-07-08T08:16:31Z",
  "top": [
    {
      "lon": 14.25,
      "lat": 50.25,
      "type": "hotspot_cell",
      "score": 491.836,
      "count": 546,
      "cell_deg": 0.5,
      "sources": {
        "GDELT": 110,
        "GDELT_DOC": 434,
        "DIRECT_FEED": 2,
        "USGS": 0,
        "GDACS": 0
      },
      "last7_score": 483.004,
      "prev7_score": 8.832,
      "trend": "up",
      "trend_arrow": "🔺",
      "change_pct": 5368.8,
      "place": "SO ORP Kralupy nad Vltavou, Czechia"
    },
    {
      "lon": 26.25,
      "lat": 44.25,
      "type": "hotspot_cell",
      "score": 448.406,
      "count": 591,
      "cell_deg": 0.5,
      "sources": {
        "GDELT": 131,
        "GDELT_DOC": 454,
        "DIRECT_FEED": 6,
        "USGS": 0,
        "GDACS": 0
      },
      "last7_score": 436.295,
      "prev7_score": 12.111,
      "trend": "up",
      "trend_arrow": "🔺",
      "change_pct": 3502.4,
      "place": "Giurgiu, Romania"
    },
    {
      "lon": 25.25,
      "lat": 54.75,
      "type": "hotspot_cell",
      "score": 240.217,
      "count": 284,
      "cell_deg": 0.5,
      "sources": {
        "GDELT": 70,
        "GDELT_DOC": 213,
        "DIRECT_FEED": 1,
        "USGS": 0,
        "GDACS": 0
      },
      "last7_score": 235.641,
      "prev7_score": 4.576,
      "trend": "up",
      "trend_arrow": "🔺",
      "change_pct": 5049.3,
      "place": "Vilnius County, Lithuania"
    },
    {
      "lon": 20.25,
      "lat": 52.25,
      "type": "hotspot_cell",
      "score": 198.727,
      "count": 540,
      "cell_deg": 0.5,
      "sources": {
        "GDELT": 540,
        "GDELT_DOC": 0,
        "DIRECT_FEED": 0,
        "USGS": 0,
        "GDACS": 0
      },
      "last7_score": 157.322,
      "prev7_score": 41.406,
      "trend": "up",
      "trend_arrow": "🔺",
      "change_pct": 280.0,
      "place": "Sochaczew County, Poland"
    },
    {
      "lon": 19.25,
      "lat": 47.75,
      "type": "hotspot_cell",
      "score": 149.964,
      "count": 310,
      "cell_deg": 0.5,
      "sources": {
        "GDELT": 150,
        "GDELT_DOC": 0,
        "DIRECT_FEED": 160,
        "USGS": 0,
        "GDACS": 0
      },
      "last7_score": 137.966,
      "prev7_score": 11.998,
      "trend": "up",
      "trend_arrow": "🔺",
      "change_pct": 1049.9,
      "place": "Pest, Hungary"
    },
    {
      "lon": 25.25,
      "lat": 46.25,
      "type": "hotspot_cell",
      "score": 134.517,
      "count": 340,
      "cell_deg": 0.5,
      "sources": {
        "GDELT": 340,
        "GDELT_DOC": 0,
        "DIRECT_FEED": 0,
        "USGS": 0,
        "GDACS": 0
      },
      "last7_score": 112.147,
      "prev7_score": 22.37,
      "trend": "up",
      "trend_arrow": "🔺",
      "change_pct": 401.3,
      "place": "Harghita, Romania"
    },
    {
      "lon": 24.25,
      "lat": 56.75,
      "type": "hotspot_cell",
      "score": 103.677,
      "count": 154,
      "cell_deg": 0.5,
      "sources": {
        "GDELT": 22,
        "GDELT_DOC": 0,
        "DIRECT_FEED": 132,
        "USGS": 0,
        "GDACS": 0
      },
      "last7_score": 101.479,
      "prev7_score": 2.197,
      "trend": "up",
      "trend_arrow": "🔺",
      "change_pct": 4518.7,
      "place": "Ķekavas novads, Latvia"
    },
    {
      "lon": 21.25,
      "lat": 52.25,
      "type": "hotspot_cell",
      "score": 95.838,
      "count": 275,
      "cell_deg": 0.5,
      "sources": {
        "GDELT": 275,
        "GDELT_DOC": 0,
        "DIRECT_FEED": 0,
        "USGS": 0,
        "GDACS": 0
      },
      "last7_score": 76.653,
      "prev7_score": 19.185,
      "trend": "up",
      "trend_arrow": "🔺",
      "change_pct": 299.5,
      "place": "Warsaw, Poland"
    },
    {
      "lon": 20.25,
      "lat": 47.25,
      "type": "hotspot_cell",
      "score": 66.333,
      "count": 157,
      "cell_deg": 0.5,
      "sources": {
        "GDELT": 157,
        "GDELT_DOC": 0,
        "DIRECT_FEED": 0,
        "USGS": 0,
        "GDACS": 0
      },
      "last7_score": 56.206,
      "prev7_score": 10.127,
      "trend": "up",
      "trend_arrow": "🔺",
      "change_pct": 455.0,
      "place": "Jász-Nagykun-Szolnok, Hungary"
    },
    {
      "lon": 15.25,
      "lat": 49.75,
      "type": "hotspot_cell",
      "score": 62.544,
      "count": 170,
      "cell_deg": 0.5,
      "sources": {
        "GDELT": 170,
        "GDELT_DOC": 0,
        "DIRECT_FEED": 0,
        "USGS": 0,
        "GDACS": 0
      },
      "last7_score": 49.487,
      "prev7_score": 13.057,
      "trend": "up",
      "trend_arrow": "🔺",
      "change_pct": 279.0,
      "place": "Vysočina Region, Czechia"
    }
  ]
}