{
  "generated_utc": "2026-07-04T02:10:20Z",
  "top": [
    {
      "lon": 20.25,
      "lat": 52.25,
      "type": "hotspot_cell",
      "score": 226.913,
      "count": 544,
      "cell_deg": 0.5,
      "sources": {
        "GDELT": 544,
        "GDELT_DOC": 0,
        "DIRECT_FEED": 0,
        "USGS": 0,
        "GDACS": 0
      },
      "last7_score": 186.488,
      "prev7_score": 40.424,
      "trend": "up",
      "trend_arrow": "🔺",
      "change_pct": 361.3,
      "place": "Sochaczew County, Poland"
    },
    {
      "lon": 26.25,
      "lat": 44.25,
      "type": "hotspot_cell",
      "score": 225.97,
      "count": 571,
      "cell_deg": 0.5,
      "sources": {
        "GDELT": 144,
        "GDELT_DOC": 422,
        "DIRECT_FEED": 5,
        "USGS": 0,
        "GDACS": 0
      },
      "last7_score": 216.41,
      "prev7_score": 9.56,
      "trend": "up",
      "trend_arrow": "🔺",
      "change_pct": 2163.8,
      "place": "Giurgiu, Romania"
    },
    {
      "lon": 19.25,
      "lat": 47.75,
      "type": "hotspot_cell",
      "score": 196.546,
      "count": 367,
      "cell_deg": 0.5,
      "sources": {
        "GDELT": 179,
        "GDELT_DOC": 0,
        "DIRECT_FEED": 188,
        "USGS": 0,
        "GDACS": 0
      },
      "last7_score": 180.543,
      "prev7_score": 16.004,
      "trend": "up",
      "trend_arrow": "🔺",
      "change_pct": 1028.1,
      "place": "Pest, Hungary"
    },
    {
      "lon": 25.25,
      "lat": 54.75,
      "type": "hotspot_cell",
      "score": 196.336,
      "count": 471,
      "cell_deg": 0.5,
      "sources": {
        "GDELT": 70,
        "GDELT_DOC": 401,
        "DIRECT_FEED": 0,
        "USGS": 0,
        "GDACS": 0
      },
      "last7_score": 192.375,
      "prev7_score": 3.961,
      "trend": "up",
      "trend_arrow": "🔺",
      "change_pct": 4756.8,
      "place": "Vilnius County, Lithuania"
    },
    {
      "lon": 14.25,
      "lat": 50.25,
      "type": "hotspot_cell",
      "score": 194.616,
      "count": 508,
      "cell_deg": 0.5,
      "sources": {
        "GDELT": 132,
        "GDELT_DOC": 375,
        "DIRECT_FEED": 1,
        "USGS": 0,
        "GDACS": 0
      },
      "last7_score": 184.94,
      "prev7_score": 9.677,
      "trend": "up",
      "trend_arrow": "🔺",
      "change_pct": 1811.1,
      "place": "SO ORP Kralupy nad Vltavou, Czechia"
    },
    {
      "lon": 25.25,
      "lat": 46.25,
      "type": "hotspot_cell",
      "score": 136.963,
      "count": 347,
      "cell_deg": 0.5,
      "sources": {
        "GDELT": 347,
        "GDELT_DOC": 0,
        "DIRECT_FEED": 0,
        "USGS": 0,
        "GDACS": 0
      },
      "last7_score": 111.265,
      "prev7_score": 25.698,
      "trend": "up",
      "trend_arrow": "🔺",
      "change_pct": 333.0,
      "place": "Harghita, Romania"
    },
    {
      "lon": 21.25,
      "lat": 52.25,
      "type": "hotspot_cell",
      "score": 114.163,
      "count": 308,
      "cell_deg": 0.5,
      "sources": {
        "GDELT": 308,
        "GDELT_DOC": 0,
        "DIRECT_FEED": 0,
        "USGS": 0,
        "GDACS": 0
      },
      "last7_score": 89.797,
      "prev7_score": 24.366,
      "trend": "up",
      "trend_arrow": "🔺",
      "change_pct": 268.5,
      "place": "Warsaw, Poland"
    },
    {
      "lon": 24.25,
      "lat": 56.75,
      "type": "hotspot_cell",
      "score": 112.669,
      "count": 171,
      "cell_deg": 0.5,
      "sources": {
        "GDELT": 25,
        "GDELT_DOC": 0,
        "DIRECT_FEED": 146,
        "USGS": 0,
        "GDACS": 0
      },
      "last7_score": 110.879,
      "prev7_score": 1.79,
      "trend": "up",
      "trend_arrow": "🔺",
      "change_pct": 6092.8,
      "place": "Ķekavas novads, Latvia"
    },
    {
      "lon": 15.25,
      "lat": 49.75,
      "type": "hotspot_cell",
      "score": 64.025,
      "count": 160,
      "cell_deg": 0.5,
      "sources": {
        "GDELT": 160,
        "GDELT_DOC": 0,
        "DIRECT_FEED": 0,
        "USGS": 0,
        "GDACS": 0
      },
      "last7_score": 51.962,
      "prev7_score": 12.063,
      "trend": "up",
      "trend_arrow": "🔺",
      "change_pct": 330.7,
      "place": "Vysočina Region, Czechia"
    },
    {
      "lon": 20.25,
      "lat": 47.25,
      "type": "hotspot_cell",
      "score": 62.911,
      "count": 179,
      "cell_deg": 0.5,
      "sources": {
        "GDELT": 179,
        "GDELT_DOC": 0,
        "DIRECT_FEED": 0,
        "USGS": 0,
        "GDACS": 0
      },
      "last7_score": 48.464,
      "prev7_score": 14.447,
      "trend": "up",
      "trend_arrow": "🔺",
      "change_pct": 235.5,
      "place": "Jász-Nagykun-Szolnok, Hungary"
    }
  ]
}