{
  "generated_utc": "2026-05-22T20:09:35Z",
  "top": [
    {
      "lon": 26.25,
      "lat": 44.25,
      "type": "hotspot_cell",
      "score": 958.48,
      "count": 1568,
      "cell_deg": 0.5,
      "sources": {
        "GDELT": 193,
        "GDELT_DOC": 1373,
        "DIRECT_FEED": 2,
        "USGS": 0,
        "GDACS": 0
      },
      "last7_score": 938.37,
      "prev7_score": 20.11,
      "trend": "up",
      "trend_arrow": "🔺",
      "change_pct": 4566.2,
      "place": "Giurgiu, Romania"
    },
    {
      "lon": 14.25,
      "lat": 50.25,
      "type": "hotspot_cell",
      "score": 899.761,
      "count": 1374,
      "cell_deg": 0.5,
      "sources": {
        "GDELT": 128,
        "GDELT_DOC": 1232,
        "DIRECT_FEED": 14,
        "USGS": 0,
        "GDACS": 0
      },
      "last7_score": 892.014,
      "prev7_score": 7.748,
      "trend": "up",
      "trend_arrow": "🔺",
      "change_pct": 11413.3,
      "place": "SO ORP Kralupy nad Vltavou, Czechia"
    },
    {
      "lon": 25.25,
      "lat": 54.75,
      "type": "hotspot_cell",
      "score": 703.746,
      "count": 1063,
      "cell_deg": 0.5,
      "sources": {
        "GDELT": 103,
        "GDELT_DOC": 959,
        "DIRECT_FEED": 1,
        "USGS": 0,
        "GDACS": 0
      },
      "last7_score": 698.259,
      "prev7_score": 5.487,
      "trend": "up",
      "trend_arrow": "🔺",
      "change_pct": 12625.7,
      "place": "Vilnius County, Lithuania"
    },
    {
      "lon": 20.25,
      "lat": 52.25,
      "type": "hotspot_cell",
      "score": 421.155,
      "count": 787,
      "cell_deg": 0.5,
      "sources": {
        "GDELT": 787,
        "GDELT_DOC": 0,
        "DIRECT_FEED": 0,
        "USGS": 0,
        "GDACS": 0
      },
      "last7_score": 375.397,
      "prev7_score": 45.758,
      "trend": "up",
      "trend_arrow": "🔺",
      "change_pct": 720.4,
      "place": "Sochaczew County, Poland"
    },
    {
      "lon": 19.25,
      "lat": 47.75,
      "type": "hotspot_cell",
      "score": 269.322,
      "count": 525,
      "cell_deg": 0.5,
      "sources": {
        "GDELT": 286,
        "GDELT_DOC": 0,
        "DIRECT_FEED": 239,
        "USGS": 0,
        "GDACS": 0
      },
      "last7_score": 246.755,
      "prev7_score": 22.567,
      "trend": "up",
      "trend_arrow": "🔺",
      "change_pct": 993.4,
      "place": "Pest, Hungary"
    },
    {
      "lon": 25.25,
      "lat": 46.25,
      "type": "hotspot_cell",
      "score": 135.231,
      "count": 311,
      "cell_deg": 0.5,
      "sources": {
        "GDELT": 311,
        "GDELT_DOC": 0,
        "DIRECT_FEED": 0,
        "USGS": 0,
        "GDACS": 0
      },
      "last7_score": 114.805,
      "prev7_score": 20.426,
      "trend": "up",
      "trend_arrow": "🔺",
      "change_pct": 462.1,
      "place": "Harghita, Romania"
    },
    {
      "lon": 21.25,
      "lat": 52.25,
      "type": "hotspot_cell",
      "score": 134.237,
      "count": 273,
      "cell_deg": 0.5,
      "sources": {
        "GDELT": 273,
        "GDELT_DOC": 0,
        "DIRECT_FEED": 0,
        "USGS": 0,
        "GDACS": 0
      },
      "last7_score": 116.197,
      "prev7_score": 18.039,
      "trend": "up",
      "trend_arrow": "🔺",
      "change_pct": 544.1,
      "place": "Warsaw, Poland"
    },
    {
      "lon": 24.25,
      "lat": 56.75,
      "type": "hotspot_cell",
      "score": 124.516,
      "count": 178,
      "cell_deg": 0.5,
      "sources": {
        "GDELT": 52,
        "GDELT_DOC": 0,
        "DIRECT_FEED": 126,
        "USGS": 0,
        "GDACS": 0
      },
      "last7_score": 121.734,
      "prev7_score": 2.782,
      "trend": "up",
      "trend_arrow": "🔺",
      "change_pct": 4275.0,
      "place": "Ķekavas novads, Latvia"
    },
    {
      "lon": 20.25,
      "lat": 47.25,
      "type": "hotspot_cell",
      "score": 107.319,
      "count": 296,
      "cell_deg": 0.5,
      "sources": {
        "GDELT": 296,
        "GDELT_DOC": 0,
        "DIRECT_FEED": 0,
        "USGS": 0,
        "GDACS": 0
      },
      "last7_score": 86.342,
      "prev7_score": 20.977,
      "trend": "up",
      "trend_arrow": "🔺",
      "change_pct": 311.6,
      "place": "Jász-Nagykun-Szolnok, Hungary"
    },
    {
      "lon": 24.25,
      "lat": 56.25,
      "type": "hotspot_cell",
      "score": 82.693,
      "count": 176,
      "cell_deg": 0.5,
      "sources": {
        "GDELT": 176,
        "GDELT_DOC": 0,
        "DIRECT_FEED": 0,
        "USGS": 0,
        "GDACS": 0
      },
      "last7_score": 71.802,
      "prev7_score": 10.89,
      "trend": "up",
      "trend_arrow": "🔺",
      "change_pct": 559.3,
      "place": "Namišių seniūnija, Lithuania"
    }
  ]
}