{
  "generated_utc": "2026-05-19T09:50:40Z",
  "top": [
    {
      "lon": 26.25,
      "lat": 44.25,
      "type": "hotspot_cell",
      "score": 886.627,
      "count": 1481,
      "cell_deg": 0.5,
      "sources": {
        "GDELT": 201,
        "GDELT_DOC": 1276,
        "DIRECT_FEED": 4,
        "USGS": 0,
        "GDACS": 0
      },
      "last7_score": 873.353,
      "prev7_score": 13.274,
      "trend": "up",
      "trend_arrow": "🔺",
      "change_pct": 6479.3,
      "place": "Giurgiu, Romania"
    },
    {
      "lon": 14.25,
      "lat": 50.25,
      "type": "hotspot_cell",
      "score": 842.404,
      "count": 1509,
      "cell_deg": 0.5,
      "sources": {
        "GDELT": 104,
        "GDELT_DOC": 1400,
        "DIRECT_FEED": 5,
        "USGS": 0,
        "GDACS": 0
      },
      "last7_score": 835.044,
      "prev7_score": 7.36,
      "trend": "up",
      "trend_arrow": "🔺",
      "change_pct": 11245.9,
      "place": "SO ORP Kralupy nad Vltavou, Czechia"
    },
    {
      "lon": 25.25,
      "lat": 54.75,
      "type": "hotspot_cell",
      "score": 634.483,
      "count": 1084,
      "cell_deg": 0.5,
      "sources": {
        "GDELT": 74,
        "GDELT_DOC": 1010,
        "DIRECT_FEED": 0,
        "USGS": 0,
        "GDACS": 0
      },
      "last7_score": 629.97,
      "prev7_score": 4.514,
      "trend": "up",
      "trend_arrow": "🔺",
      "change_pct": 13857.4,
      "place": "Vilnius County, Lithuania"
    },
    {
      "lon": 19.25,
      "lat": 47.75,
      "type": "hotspot_cell",
      "score": 231.212,
      "count": 524,
      "cell_deg": 0.5,
      "sources": {
        "GDELT": 306,
        "GDELT_DOC": 0,
        "DIRECT_FEED": 218,
        "USGS": 0,
        "GDACS": 0
      },
      "last7_score": 206.226,
      "prev7_score": 24.986,
      "trend": "up",
      "trend_arrow": "🔺",
      "change_pct": 725.4,
      "place": "Pest, Hungary"
    },
    {
      "lon": 20.25,
      "lat": 52.25,
      "type": "hotspot_cell",
      "score": 195.995,
      "count": 558,
      "cell_deg": 0.5,
      "sources": {
        "GDELT": 558,
        "GDELT_DOC": 0,
        "DIRECT_FEED": 0,
        "USGS": 0,
        "GDACS": 0
      },
      "last7_score": 162.205,
      "prev7_score": 33.79,
      "trend": "up",
      "trend_arrow": "🔺",
      "change_pct": 380.0,
      "place": "Sochaczew County, Poland"
    },
    {
      "lon": 24.25,
      "lat": 56.75,
      "type": "hotspot_cell",
      "score": 108.236,
      "count": 178,
      "cell_deg": 0.5,
      "sources": {
        "GDELT": 36,
        "GDELT_DOC": 0,
        "DIRECT_FEED": 142,
        "USGS": 0,
        "GDACS": 0
      },
      "last7_score": 107.369,
      "prev7_score": 0.867,
      "trend": "up",
      "trend_arrow": "🔺",
      "change_pct": 12290.9,
      "place": "Ķekavas novads, Latvia"
    },
    {
      "lon": 20.25,
      "lat": 47.25,
      "type": "hotspot_cell",
      "score": 95.492,
      "count": 289,
      "cell_deg": 0.5,
      "sources": {
        "GDELT": 289,
        "GDELT_DOC": 0,
        "DIRECT_FEED": 0,
        "USGS": 0,
        "GDACS": 0
      },
      "last7_score": 71.092,
      "prev7_score": 24.4,
      "trend": "up",
      "trend_arrow": "🔺",
      "change_pct": 191.4,
      "place": "Jász-Nagykun-Szolnok, Hungary"
    },
    {
      "lon": 25.25,
      "lat": 46.25,
      "type": "hotspot_cell",
      "score": 87.08,
      "count": 260,
      "cell_deg": 0.5,
      "sources": {
        "GDELT": 260,
        "GDELT_DOC": 0,
        "DIRECT_FEED": 0,
        "USGS": 0,
        "GDACS": 0
      },
      "last7_score": 66.093,
      "prev7_score": 20.987,
      "trend": "up",
      "trend_arrow": "🔺",
      "change_pct": 214.9,
      "place": "Harghita, Romania"
    },
    {
      "lon": 21.25,
      "lat": 52.25,
      "type": "hotspot_cell",
      "score": 74.891,
      "count": 213,
      "cell_deg": 0.5,
      "sources": {
        "GDELT": 213,
        "GDELT_DOC": 0,
        "DIRECT_FEED": 0,
        "USGS": 0,
        "GDACS": 0
      },
      "last7_score": 62.117,
      "prev7_score": 12.774,
      "trend": "up",
      "trend_arrow": "🔺",
      "change_pct": 386.3,
      "place": "Warsaw, Poland"
    },
    {
      "lon": 25.25,
      "lat": 57.25,
      "type": "hotspot_cell",
      "score": 69.65,
      "count": 179,
      "cell_deg": 0.5,
      "sources": {
        "GDELT": 179,
        "GDELT_DOC": 0,
        "DIRECT_FEED": 0,
        "USGS": 0,
        "GDACS": 0
      },
      "last7_score": 57.701,
      "prev7_score": 11.949,
      "trend": "up",
      "trend_arrow": "🔺",
      "change_pct": 382.9,
      "place": "Cēsu novads, Latvia"
    }
  ]
}