{
  "generated_utc": "2026-03-23T02:28:43Z",
  "top": [
    {
      "lon": 14.25,
      "lat": 50.25,
      "type": "hotspot_cell",
      "score": 780.613,
      "count": 1405,
      "cell_deg": 0.5,
      "sources": {
        "GDELT": 116,
        "GDELT_DOC": 1286,
        "DIRECT_FEED": 3,
        "USGS": 0,
        "GDACS": 0
      },
      "last7_score": 772.181,
      "prev7_score": 8.432,
      "trend": "up",
      "trend_arrow": "🔺",
      "change_pct": 9057.6,
      "place": "SO ORP Kralupy nad Vltavou, Czechia"
    },
    {
      "lon": 26.25,
      "lat": 44.25,
      "type": "hotspot_cell",
      "score": 660.771,
      "count": 1271,
      "cell_deg": 0.5,
      "sources": {
        "GDELT": 181,
        "GDELT_DOC": 1090,
        "DIRECT_FEED": 0,
        "USGS": 0,
        "GDACS": 0
      },
      "last7_score": 645.714,
      "prev7_score": 15.057,
      "trend": "up",
      "trend_arrow": "🔺",
      "change_pct": 4188.4,
      "place": "Giurgiu, Romania"
    },
    {
      "lon": 25.25,
      "lat": 54.75,
      "type": "hotspot_cell",
      "score": 566.17,
      "count": 952,
      "cell_deg": 0.5,
      "sources": {
        "GDELT": 81,
        "GDELT_DOC": 871,
        "DIRECT_FEED": 0,
        "USGS": 0,
        "GDACS": 0
      },
      "last7_score": 560.852,
      "prev7_score": 5.317,
      "trend": "up",
      "trend_arrow": "🔺",
      "change_pct": 10447.8,
      "place": "Vilnius County, Lithuania"
    },
    {
      "lon": 19.25,
      "lat": 47.75,
      "type": "hotspot_cell",
      "score": 244.901,
      "count": 559,
      "cell_deg": 0.5,
      "sources": {
        "GDELT": 342,
        "GDELT_DOC": 0,
        "DIRECT_FEED": 217,
        "USGS": 0,
        "GDACS": 0
      },
      "last7_score": 216.567,
      "prev7_score": 28.333,
      "trend": "up",
      "trend_arrow": "🔺",
      "change_pct": 664.4,
      "place": "Pest, Hungary"
    },
    {
      "lon": 20.25,
      "lat": 47.25,
      "type": "hotspot_cell",
      "score": 142.029,
      "count": 388,
      "cell_deg": 0.5,
      "sources": {
        "GDELT": 388,
        "GDELT_DOC": 0,
        "DIRECT_FEED": 0,
        "USGS": 0,
        "GDACS": 0
      },
      "last7_score": 111.002,
      "prev7_score": 31.027,
      "trend": "up",
      "trend_arrow": "🔺",
      "change_pct": 257.8,
      "place": "Jász-Nagykun-Szolnok, Hungary"
    },
    {
      "lon": 20.25,
      "lat": 52.25,
      "type": "hotspot_cell",
      "score": 130.635,
      "count": 391,
      "cell_deg": 0.5,
      "sources": {
        "GDELT": 391,
        "GDELT_DOC": 0,
        "DIRECT_FEED": 0,
        "USGS": 0,
        "GDACS": 0
      },
      "last7_score": 100.954,
      "prev7_score": 29.681,
      "trend": "up",
      "trend_arrow": "🔺",
      "change_pct": 240.1,
      "place": "Sochaczew County, Poland"
    },
    {
      "lon": 24.25,
      "lat": 56.75,
      "type": "hotspot_cell",
      "score": 94.67,
      "count": 165,
      "cell_deg": 0.5,
      "sources": {
        "GDELT": 34,
        "GDELT_DOC": 0,
        "DIRECT_FEED": 131,
        "USGS": 0,
        "GDACS": 0
      },
      "last7_score": 91.801,
      "prev7_score": 2.869,
      "trend": "up",
      "trend_arrow": "🔺",
      "change_pct": 3099.7,
      "place": "Ķekavas novads, Latvia"
    },
    {
      "lon": 25.25,
      "lat": 46.25,
      "type": "hotspot_cell",
      "score": 94.512,
      "count": 305,
      "cell_deg": 0.5,
      "sources": {
        "GDELT": 305,
        "GDELT_DOC": 0,
        "DIRECT_FEED": 0,
        "USGS": 0,
        "GDACS": 0
      },
      "last7_score": 71.086,
      "prev7_score": 23.426,
      "trend": "up",
      "trend_arrow": "🔺",
      "change_pct": 203.5,
      "place": "Harghita, Romania"
    },
    {
      "lon": 15.25,
      "lat": 49.75,
      "type": "hotspot_cell",
      "score": 65.716,
      "count": 167,
      "cell_deg": 0.5,
      "sources": {
        "GDELT": 167,
        "GDELT_DOC": 0,
        "DIRECT_FEED": 0,
        "USGS": 0,
        "GDACS": 0
      },
      "last7_score": 56.111,
      "prev7_score": 9.606,
      "trend": "up",
      "trend_arrow": "🔺",
      "change_pct": 484.1,
      "place": "Vysočina Region, Czechia"
    },
    {
      "lon": 21.25,
      "lat": 52.25,
      "type": "hotspot_cell",
      "score": 51.538,
      "count": 174,
      "cell_deg": 0.5,
      "sources": {
        "GDELT": 174,
        "GDELT_DOC": 0,
        "DIRECT_FEED": 0,
        "USGS": 0,
        "GDACS": 0
      },
      "last7_score": 37.845,
      "prev7_score": 13.692,
      "trend": "up",
      "trend_arrow": "🔺",
      "change_pct": 176.4,
      "place": "Warsaw, Poland"
    }
  ]
}