{
  "generated_utc": "2026-05-20T09:40:56Z",
  "top": [
    {
      "lon": 14.25,
      "lat": 50.25,
      "type": "hotspot_cell",
      "score": 897.399,
      "count": 1538,
      "cell_deg": 0.5,
      "sources": {
        "GDELT": 105,
        "GDELT_DOC": 1427,
        "DIRECT_FEED": 6,
        "USGS": 0,
        "GDACS": 0
      },
      "last7_score": 889.514,
      "prev7_score": 7.885,
      "trend": "up",
      "trend_arrow": "🔺",
      "change_pct": 11181.3,
      "place": "SO ORP Kralupy nad Vltavou, Czechia"
    },
    {
      "lon": 26.25,
      "lat": 44.25,
      "type": "hotspot_cell",
      "score": 885.597,
      "count": 1425,
      "cell_deg": 0.5,
      "sources": {
        "GDELT": 194,
        "GDELT_DOC": 1227,
        "DIRECT_FEED": 4,
        "USGS": 0,
        "GDACS": 0
      },
      "last7_score": 865.571,
      "prev7_score": 20.026,
      "trend": "up",
      "trend_arrow": "🔺",
      "change_pct": 4222.2,
      "place": "Giurgiu, Romania"
    },
    {
      "lon": 25.25,
      "lat": 54.75,
      "type": "hotspot_cell",
      "score": 619.933,
      "count": 1044,
      "cell_deg": 0.5,
      "sources": {
        "GDELT": 75,
        "GDELT_DOC": 969,
        "DIRECT_FEED": 0,
        "USGS": 0,
        "GDACS": 0
      },
      "last7_score": 614.379,
      "prev7_score": 5.554,
      "trend": "up",
      "trend_arrow": "🔺",
      "change_pct": 10961.0,
      "place": "Vilnius County, Lithuania"
    },
    {
      "lon": 19.25,
      "lat": 47.75,
      "type": "hotspot_cell",
      "score": 243.81,
      "count": 522,
      "cell_deg": 0.5,
      "sources": {
        "GDELT": 295,
        "GDELT_DOC": 0,
        "DIRECT_FEED": 227,
        "USGS": 0,
        "GDACS": 0
      },
      "last7_score": 220.203,
      "prev7_score": 23.607,
      "trend": "up",
      "trend_arrow": "🔺",
      "change_pct": 832.8,
      "place": "Pest, Hungary"
    },
    {
      "lon": 20.25,
      "lat": 52.25,
      "type": "hotspot_cell",
      "score": 227.397,
      "count": 577,
      "cell_deg": 0.5,
      "sources": {
        "GDELT": 577,
        "GDELT_DOC": 0,
        "DIRECT_FEED": 0,
        "USGS": 0,
        "GDACS": 0
      },
      "last7_score": 189.389,
      "prev7_score": 38.008,
      "trend": "up",
      "trend_arrow": "🔺",
      "change_pct": 398.3,
      "place": "Sochaczew County, Poland"
    },
    {
      "lon": 24.25,
      "lat": 56.75,
      "type": "hotspot_cell",
      "score": 116.156,
      "count": 178,
      "cell_deg": 0.5,
      "sources": {
        "GDELT": 38,
        "GDELT_DOC": 0,
        "DIRECT_FEED": 140,
        "USGS": 0,
        "GDACS": 0
      },
      "last7_score": 114.751,
      "prev7_score": 1.405,
      "trend": "up",
      "trend_arrow": "🔺",
      "change_pct": 8066.3,
      "place": "Ķekavas novads, Latvia"
    },
    {
      "lon": 25.25,
      "lat": 46.25,
      "type": "hotspot_cell",
      "score": 108.124,
      "count": 272,
      "cell_deg": 0.5,
      "sources": {
        "GDELT": 272,
        "GDELT_DOC": 0,
        "DIRECT_FEED": 0,
        "USGS": 0,
        "GDACS": 0
      },
      "last7_score": 87.218,
      "prev7_score": 20.906,
      "trend": "up",
      "trend_arrow": "🔺",
      "change_pct": 317.2,
      "place": "Harghita, Romania"
    },
    {
      "lon": 20.25,
      "lat": 47.25,
      "type": "hotspot_cell",
      "score": 100.279,
      "count": 289,
      "cell_deg": 0.5,
      "sources": {
        "GDELT": 289,
        "GDELT_DOC": 0,
        "DIRECT_FEED": 0,
        "USGS": 0,
        "GDACS": 0
      },
      "last7_score": 76.394,
      "prev7_score": 23.885,
      "trend": "up",
      "trend_arrow": "🔺",
      "change_pct": 219.8,
      "place": "Jász-Nagykun-Szolnok, Hungary"
    },
    {
      "lon": 21.25,
      "lat": 52.25,
      "type": "hotspot_cell",
      "score": 85.305,
      "count": 223,
      "cell_deg": 0.5,
      "sources": {
        "GDELT": 223,
        "GDELT_DOC": 0,
        "DIRECT_FEED": 0,
        "USGS": 0,
        "GDACS": 0
      },
      "last7_score": 70.937,
      "prev7_score": 14.367,
      "trend": "up",
      "trend_arrow": "🔺",
      "change_pct": 393.7,
      "place": "Warsaw, Poland"
    },
    {
      "lon": 25.25,
      "lat": 57.25,
      "type": "hotspot_cell",
      "score": 76.873,
      "count": 192,
      "cell_deg": 0.5,
      "sources": {
        "GDELT": 192,
        "GDELT_DOC": 0,
        "DIRECT_FEED": 0,
        "USGS": 0,
        "GDACS": 0
      },
      "last7_score": 65.732,
      "prev7_score": 11.142,
      "trend": "up",
      "trend_arrow": "🔺",
      "change_pct": 490.0,
      "place": "Cēsu novads, Latvia"
    }
  ]
}