{
  "generated_utc": "2026-04-30T19:27:44Z",
  "top": [
    {
      "lon": 14.25,
      "lat": 50.25,
      "type": "hotspot_cell",
      "score": 946.547,
      "count": 1592,
      "cell_deg": 0.5,
      "sources": {
        "GDELT": 203,
        "GDELT_DOC": 1388,
        "DIRECT_FEED": 1,
        "USGS": 0,
        "GDACS": 0
      },
      "last7_score": 933.056,
      "prev7_score": 13.491,
      "trend": "up",
      "trend_arrow": "🔺",
      "change_pct": 6816.1,
      "place": "SO ORP Kralupy nad Vltavou, Czechia"
    },
    {
      "lon": 26.25,
      "lat": 44.25,
      "type": "hotspot_cell",
      "score": 906.986,
      "count": 1548,
      "cell_deg": 0.5,
      "sources": {
        "GDELT": 162,
        "GDELT_DOC": 1380,
        "DIRECT_FEED": 6,
        "USGS": 0,
        "GDACS": 0
      },
      "last7_score": 894.816,
      "prev7_score": 12.17,
      "trend": "up",
      "trend_arrow": "🔺",
      "change_pct": 7252.5,
      "place": "Giurgiu, Romania"
    },
    {
      "lon": 25.25,
      "lat": 54.75,
      "type": "hotspot_cell",
      "score": 671.132,
      "count": 1087,
      "cell_deg": 0.5,
      "sources": {
        "GDELT": 72,
        "GDELT_DOC": 1015,
        "DIRECT_FEED": 0,
        "USGS": 0,
        "GDACS": 0
      },
      "last7_score": 666.953,
      "prev7_score": 4.179,
      "trend": "up",
      "trend_arrow": "🔺",
      "change_pct": 15860.6,
      "place": "Vilnius County, Lithuania"
    },
    {
      "lon": 19.25,
      "lat": 47.75,
      "type": "hotspot_cell",
      "score": 271.059,
      "count": 608,
      "cell_deg": 0.5,
      "sources": {
        "GDELT": 390,
        "GDELT_DOC": 0,
        "DIRECT_FEED": 218,
        "USGS": 0,
        "GDACS": 0
      },
      "last7_score": 233.387,
      "prev7_score": 37.672,
      "trend": "up",
      "trend_arrow": "🔺",
      "change_pct": 519.5,
      "place": "Pest, Hungary"
    },
    {
      "lon": 20.25,
      "lat": 52.25,
      "type": "hotspot_cell",
      "score": 184.312,
      "count": 488,
      "cell_deg": 0.5,
      "sources": {
        "GDELT": 488,
        "GDELT_DOC": 0,
        "DIRECT_FEED": 0,
        "USGS": 0,
        "GDACS": 0
      },
      "last7_score": 149.709,
      "prev7_score": 34.603,
      "trend": "up",
      "trend_arrow": "🔺",
      "change_pct": 332.6,
      "place": "Sochaczew County, Poland"
    },
    {
      "lon": 20.25,
      "lat": 47.25,
      "type": "hotspot_cell",
      "score": 173.745,
      "count": 561,
      "cell_deg": 0.5,
      "sources": {
        "GDELT": 561,
        "GDELT_DOC": 0,
        "DIRECT_FEED": 0,
        "USGS": 0,
        "GDACS": 0
      },
      "last7_score": 123.525,
      "prev7_score": 50.22,
      "trend": "up",
      "trend_arrow": "🔺",
      "change_pct": 146.0,
      "place": "Jász-Nagykun-Szolnok, Hungary"
    },
    {
      "lon": 25.25,
      "lat": 46.25,
      "type": "hotspot_cell",
      "score": 147.097,
      "count": 310,
      "cell_deg": 0.5,
      "sources": {
        "GDELT": 310,
        "GDELT_DOC": 0,
        "DIRECT_FEED": 0,
        "USGS": 0,
        "GDACS": 0
      },
      "last7_score": 129.972,
      "prev7_score": 17.125,
      "trend": "up",
      "trend_arrow": "🔺",
      "change_pct": 658.9,
      "place": "Harghita, Romania"
    },
    {
      "lon": 24.25,
      "lat": 56.75,
      "type": "hotspot_cell",
      "score": 118.398,
      "count": 165,
      "cell_deg": 0.5,
      "sources": {
        "GDELT": 27,
        "GDELT_DOC": 0,
        "DIRECT_FEED": 138,
        "USGS": 0,
        "GDACS": 0
      },
      "last7_score": 117.037,
      "prev7_score": 1.361,
      "trend": "up",
      "trend_arrow": "🔺",
      "change_pct": 8501.8,
      "place": "Ķekavas novads, Latvia"
    },
    {
      "lon": 15.25,
      "lat": 49.75,
      "type": "hotspot_cell",
      "score": 90.356,
      "count": 221,
      "cell_deg": 0.5,
      "sources": {
        "GDELT": 221,
        "GDELT_DOC": 0,
        "DIRECT_FEED": 0,
        "USGS": 0,
        "GDACS": 0
      },
      "last7_score": 77.189,
      "prev7_score": 13.167,
      "trend": "up",
      "trend_arrow": "🔺",
      "change_pct": 486.2,
      "place": "Vysočina Region, Czechia"
    },
    {
      "lon": 26.75,
      "lat": 47.75,
      "type": "hotspot_cell",
      "score": 69.1,
      "count": 156,
      "cell_deg": 0.5,
      "sources": {
        "GDELT": 2,
        "GDELT_DOC": 150,
        "DIRECT_FEED": 4,
        "USGS": 0,
        "GDACS": 0
      },
      "last7_score": 68.934,
      "prev7_score": 0.166,
      "trend": "up",
      "trend_arrow": "🔺",
      "change_pct": 41487.3,
      "place": "Botoșani, Romania"
    }
  ]
}