{
  "generated_utc": "2026-04-09T19:11:59Z",
  "top": [
    {
      "lon": 26.25,
      "lat": 44.25,
      "type": "hotspot_cell",
      "score": 899.676,
      "count": 1372,
      "cell_deg": 0.5,
      "sources": {
        "GDELT": 157,
        "GDELT_DOC": 1209,
        "DIRECT_FEED": 6,
        "USGS": 0,
        "GDACS": 0
      },
      "last7_score": 885.98,
      "prev7_score": 13.696,
      "trend": "up",
      "trend_arrow": "🔺",
      "change_pct": 6369.0,
      "place": "Giurgiu, Romania"
    },
    {
      "lon": 14.25,
      "lat": 50.25,
      "type": "hotspot_cell",
      "score": 709.386,
      "count": 1064,
      "cell_deg": 0.5,
      "sources": {
        "GDELT": 101,
        "GDELT_DOC": 962,
        "DIRECT_FEED": 1,
        "USGS": 0,
        "GDACS": 0
      },
      "last7_score": 701.936,
      "prev7_score": 7.45,
      "trend": "up",
      "trend_arrow": "🔺",
      "change_pct": 9322.2,
      "place": "SO ORP Kralupy nad Vltavou, Czechia"
    },
    {
      "lon": 25.25,
      "lat": 54.75,
      "type": "hotspot_cell",
      "score": 524.672,
      "count": 800,
      "cell_deg": 0.5,
      "sources": {
        "GDELT": 82,
        "GDELT_DOC": 718,
        "DIRECT_FEED": 0,
        "USGS": 0,
        "GDACS": 0
      },
      "last7_score": 518.003,
      "prev7_score": 6.67,
      "trend": "up",
      "trend_arrow": "🔺",
      "change_pct": 7666.7,
      "place": "Vilnius County, Lithuania"
    },
    {
      "lon": 19.25,
      "lat": 47.75,
      "type": "hotspot_cell",
      "score": 510.349,
      "count": 741,
      "cell_deg": 0.5,
      "sources": {
        "GDELT": 510,
        "GDELT_DOC": 0,
        "DIRECT_FEED": 231,
        "USGS": 0,
        "GDACS": 0
      },
      "last7_score": 495.231,
      "prev7_score": 15.118,
      "trend": "up",
      "trend_arrow": "🔺",
      "change_pct": 3175.8,
      "place": "Pest, Hungary"
    },
    {
      "lon": 20.25,
      "lat": 47.25,
      "type": "hotspot_cell",
      "score": 197.458,
      "count": 389,
      "cell_deg": 0.5,
      "sources": {
        "GDELT": 389,
        "GDELT_DOC": 0,
        "DIRECT_FEED": 0,
        "USGS": 0,
        "GDACS": 0
      },
      "last7_score": 176.821,
      "prev7_score": 20.637,
      "trend": "up",
      "trend_arrow": "🔺",
      "change_pct": 756.8,
      "place": "Jász-Nagykun-Szolnok, Hungary"
    },
    {
      "lon": 20.25,
      "lat": 52.25,
      "type": "hotspot_cell",
      "score": 154.296,
      "count": 452,
      "cell_deg": 0.5,
      "sources": {
        "GDELT": 452,
        "GDELT_DOC": 0,
        "DIRECT_FEED": 0,
        "USGS": 0,
        "GDACS": 0
      },
      "last7_score": 119.582,
      "prev7_score": 34.714,
      "trend": "up",
      "trend_arrow": "🔺",
      "change_pct": 244.5,
      "place": "Sochaczew County, Poland"
    },
    {
      "lon": 24.25,
      "lat": 56.75,
      "type": "hotspot_cell",
      "score": 108.742,
      "count": 149,
      "cell_deg": 0.5,
      "sources": {
        "GDELT": 27,
        "GDELT_DOC": 0,
        "DIRECT_FEED": 122,
        "USGS": 0,
        "GDACS": 0
      },
      "last7_score": 106.102,
      "prev7_score": 2.64,
      "trend": "up",
      "trend_arrow": "🔺",
      "change_pct": 3919.6,
      "place": "Ķekavas novads, Latvia"
    },
    {
      "lon": 25.25,
      "lat": 46.25,
      "type": "hotspot_cell",
      "score": 107.985,
      "count": 269,
      "cell_deg": 0.5,
      "sources": {
        "GDELT": 269,
        "GDELT_DOC": 0,
        "DIRECT_FEED": 0,
        "USGS": 0,
        "GDACS": 0
      },
      "last7_score": 88.504,
      "prev7_score": 19.481,
      "trend": "up",
      "trend_arrow": "🔺",
      "change_pct": 354.3,
      "place": "Harghita, Romania"
    },
    {
      "lon": 24.25,
      "lat": 56.25,
      "type": "hotspot_cell",
      "score": 57.847,
      "count": 111,
      "cell_deg": 0.5,
      "sources": {
        "GDELT": 111,
        "GDELT_DOC": 0,
        "DIRECT_FEED": 0,
        "USGS": 0,
        "GDACS": 0
      },
      "last7_score": 51.237,
      "prev7_score": 6.61,
      "trend": "up",
      "trend_arrow": "🔺",
      "change_pct": 675.2,
      "place": "Namišių seniūnija, Lithuania"
    },
    {
      "lon": 15.25,
      "lat": 49.75,
      "type": "hotspot_cell",
      "score": 49.747,
      "count": 125,
      "cell_deg": 0.5,
      "sources": {
        "GDELT": 125,
        "GDELT_DOC": 0,
        "DIRECT_FEED": 0,
        "USGS": 0,
        "GDACS": 0
      },
      "last7_score": 40.968,
      "prev7_score": 8.779,
      "trend": "up",
      "trend_arrow": "🔺",
      "change_pct": 366.6,
      "place": "Vysočina Region, Czechia"
    }
  ]
}