{
  "generated_utc": "2026-05-15T03:42:07Z",
  "top": [
    {
      "lon": 14.25,
      "lat": 50.25,
      "type": "hotspot_cell",
      "score": 994.985,
      "count": 1530,
      "cell_deg": 0.5,
      "sources": {
        "GDELT": 118,
        "GDELT_DOC": 1410,
        "DIRECT_FEED": 2,
        "USGS": 0,
        "GDACS": 0
      },
      "last7_score": 984.503,
      "prev7_score": 10.482,
      "trend": "up",
      "trend_arrow": "🔺",
      "change_pct": 9292.4,
      "place": "SO ORP Kralupy nad Vltavou, Czechia"
    },
    {
      "lon": 26.25,
      "lat": 44.25,
      "type": "hotspot_cell",
      "score": 881.261,
      "count": 1447,
      "cell_deg": 0.5,
      "sources": {
        "GDELT": 216,
        "GDELT_DOC": 1226,
        "DIRECT_FEED": 5,
        "USGS": 0,
        "GDACS": 0
      },
      "last7_score": 866.586,
      "prev7_score": 14.674,
      "trend": "up",
      "trend_arrow": "🔺",
      "change_pct": 5805.5,
      "place": "Giurgiu, Romania"
    },
    {
      "lon": 25.25,
      "lat": 54.75,
      "type": "hotspot_cell",
      "score": 658.347,
      "count": 1080,
      "cell_deg": 0.5,
      "sources": {
        "GDELT": 68,
        "GDELT_DOC": 1012,
        "DIRECT_FEED": 0,
        "USGS": 0,
        "GDACS": 0
      },
      "last7_score": 651.172,
      "prev7_score": 7.175,
      "trend": "up",
      "trend_arrow": "🔺",
      "change_pct": 8976.0,
      "place": "Vilnius County, Lithuania"
    },
    {
      "lon": 19.25,
      "lat": 47.75,
      "type": "hotspot_cell",
      "score": 291.782,
      "count": 515,
      "cell_deg": 0.5,
      "sources": {
        "GDELT": 281,
        "GDELT_DOC": 0,
        "DIRECT_FEED": 234,
        "USGS": 0,
        "GDACS": 0
      },
      "last7_score": 271.0,
      "prev7_score": 20.782,
      "trend": "up",
      "trend_arrow": "🔺",
      "change_pct": 1204.0,
      "place": "Pest, Hungary"
    },
    {
      "lon": 20.25,
      "lat": 52.25,
      "type": "hotspot_cell",
      "score": 215.586,
      "count": 545,
      "cell_deg": 0.5,
      "sources": {
        "GDELT": 545,
        "GDELT_DOC": 0,
        "DIRECT_FEED": 0,
        "USGS": 0,
        "GDACS": 0
      },
      "last7_score": 171.903,
      "prev7_score": 43.683,
      "trend": "up",
      "trend_arrow": "🔺",
      "change_pct": 293.5,
      "place": "Sochaczew County, Poland"
    },
    {
      "lon": 24.25,
      "lat": 56.75,
      "type": "hotspot_cell",
      "score": 133.39,
      "count": 185,
      "cell_deg": 0.5,
      "sources": {
        "GDELT": 37,
        "GDELT_DOC": 0,
        "DIRECT_FEED": 148,
        "USGS": 0,
        "GDACS": 0
      },
      "last7_score": 130.197,
      "prev7_score": 3.193,
      "trend": "up",
      "trend_arrow": "🔺",
      "change_pct": 3978.1,
      "place": "Ķekavas novads, Latvia"
    },
    {
      "lon": 20.25,
      "lat": 47.25,
      "type": "hotspot_cell",
      "score": 127.996,
      "count": 280,
      "cell_deg": 0.5,
      "sources": {
        "GDELT": 280,
        "GDELT_DOC": 0,
        "DIRECT_FEED": 0,
        "USGS": 0,
        "GDACS": 0
      },
      "last7_score": 107.308,
      "prev7_score": 20.687,
      "trend": "up",
      "trend_arrow": "🔺",
      "change_pct": 418.7,
      "place": "Jász-Nagykun-Szolnok, Hungary"
    },
    {
      "lon": 25.25,
      "lat": 46.25,
      "type": "hotspot_cell",
      "score": 114.665,
      "count": 296,
      "cell_deg": 0.5,
      "sources": {
        "GDELT": 296,
        "GDELT_DOC": 0,
        "DIRECT_FEED": 0,
        "USGS": 0,
        "GDACS": 0
      },
      "last7_score": 89.501,
      "prev7_score": 25.163,
      "trend": "up",
      "trend_arrow": "🔺",
      "change_pct": 255.7,
      "place": "Harghita, Romania"
    },
    {
      "lon": 25.25,
      "lat": 57.25,
      "type": "hotspot_cell",
      "score": 100.368,
      "count": 148,
      "cell_deg": 0.5,
      "sources": {
        "GDELT": 148,
        "GDELT_DOC": 0,
        "DIRECT_FEED": 0,
        "USGS": 0,
        "GDACS": 0
      },
      "last7_score": 92.879,
      "prev7_score": 7.489,
      "trend": "up",
      "trend_arrow": "🔺",
      "change_pct": 1140.2,
      "place": "Cēsu novads, Latvia"
    },
    {
      "lon": 21.25,
      "lat": 52.25,
      "type": "hotspot_cell",
      "score": 74.877,
      "count": 175,
      "cell_deg": 0.5,
      "sources": {
        "GDELT": 175,
        "GDELT_DOC": 0,
        "DIRECT_FEED": 0,
        "USGS": 0,
        "GDACS": 0
      },
      "last7_score": 59.1,
      "prev7_score": 15.778,
      "trend": "up",
      "trend_arrow": "🔺",
      "change_pct": 274.6,
      "place": "Warsaw, Poland"
    }
  ]
}