{
  "generated_utc": "2026-06-03T02:59:46Z",
  "top": [
    {
      "lon": 14.25,
      "lat": 50.25,
      "type": "hotspot_cell",
      "score": 744.584,
      "count": 1281,
      "cell_deg": 0.5,
      "sources": {
        "GDELT": 144,
        "GDELT_DOC": 1131,
        "DIRECT_FEED": 6,
        "USGS": 0,
        "GDACS": 0
      },
      "last7_score": 732.374,
      "prev7_score": 12.21,
      "trend": "up",
      "trend_arrow": "🔺",
      "change_pct": 5898.3,
      "place": "SO ORP Kralupy nad Vltavou, Czechia"
    },
    {
      "lon": 25.25,
      "lat": 54.75,
      "type": "hotspot_cell",
      "score": 667.933,
      "count": 1211,
      "cell_deg": 0.5,
      "sources": {
        "GDELT": 92,
        "GDELT_DOC": 1118,
        "DIRECT_FEED": 1,
        "USGS": 0,
        "GDACS": 0
      },
      "last7_score": 659.947,
      "prev7_score": 7.986,
      "trend": "up",
      "trend_arrow": "🔺",
      "change_pct": 8163.7,
      "place": "Vilnius County, Lithuania"
    },
    {
      "lon": 26.25,
      "lat": 44.25,
      "type": "hotspot_cell",
      "score": 616.983,
      "count": 1084,
      "cell_deg": 0.5,
      "sources": {
        "GDELT": 215,
        "GDELT_DOC": 858,
        "DIRECT_FEED": 11,
        "USGS": 0,
        "GDACS": 0
      },
      "last7_score": 607.171,
      "prev7_score": 9.812,
      "trend": "up",
      "trend_arrow": "🔺",
      "change_pct": 6087.9,
      "place": "Giurgiu, Romania"
    },
    {
      "lon": 20.25,
      "lat": 52.25,
      "type": "hotspot_cell",
      "score": 226.156,
      "count": 728,
      "cell_deg": 0.5,
      "sources": {
        "GDELT": 728,
        "GDELT_DOC": 0,
        "DIRECT_FEED": 0,
        "USGS": 0,
        "GDACS": 0
      },
      "last7_score": 165.386,
      "prev7_score": 60.77,
      "trend": "up",
      "trend_arrow": "🔺",
      "change_pct": 172.1,
      "place": "Sochaczew County, Poland"
    },
    {
      "lon": 19.25,
      "lat": 47.75,
      "type": "hotspot_cell",
      "score": 212.285,
      "count": 412,
      "cell_deg": 0.5,
      "sources": {
        "GDELT": 222,
        "GDELT_DOC": 0,
        "DIRECT_FEED": 190,
        "USGS": 0,
        "GDACS": 0
      },
      "last7_score": 198.475,
      "prev7_score": 13.81,
      "trend": "up",
      "trend_arrow": "🔺",
      "change_pct": 1337.2,
      "place": "Pest, Hungary"
    },
    {
      "lon": 25.25,
      "lat": 46.25,
      "type": "hotspot_cell",
      "score": 190.198,
      "count": 435,
      "cell_deg": 0.5,
      "sources": {
        "GDELT": 435,
        "GDELT_DOC": 0,
        "DIRECT_FEED": 0,
        "USGS": 0,
        "GDACS": 0
      },
      "last7_score": 165.229,
      "prev7_score": 24.969,
      "trend": "up",
      "trend_arrow": "🔺",
      "change_pct": 561.7,
      "place": "Harghita, Romania"
    },
    {
      "lon": 24.25,
      "lat": 56.75,
      "type": "hotspot_cell",
      "score": 118.916,
      "count": 188,
      "cell_deg": 0.5,
      "sources": {
        "GDELT": 46,
        "GDELT_DOC": 0,
        "DIRECT_FEED": 142,
        "USGS": 0,
        "GDACS": 0
      },
      "last7_score": 116.171,
      "prev7_score": 2.745,
      "trend": "up",
      "trend_arrow": "🔺",
      "change_pct": 4132.5,
      "place": "Ķekavas novads, Latvia"
    },
    {
      "lon": 20.25,
      "lat": 47.25,
      "type": "hotspot_cell",
      "score": 99.84,
      "count": 248,
      "cell_deg": 0.5,
      "sources": {
        "GDELT": 248,
        "GDELT_DOC": 0,
        "DIRECT_FEED": 0,
        "USGS": 0,
        "GDACS": 0
      },
      "last7_score": 83.526,
      "prev7_score": 16.314,
      "trend": "up",
      "trend_arrow": "🔺",
      "change_pct": 412.0,
      "place": "Jász-Nagykun-Szolnok, Hungary"
    },
    {
      "lon": 21.25,
      "lat": 52.25,
      "type": "hotspot_cell",
      "score": 90.388,
      "count": 254,
      "cell_deg": 0.5,
      "sources": {
        "GDELT": 254,
        "GDELT_DOC": 0,
        "DIRECT_FEED": 0,
        "USGS": 0,
        "GDACS": 0
      },
      "last7_score": 73.968,
      "prev7_score": 16.42,
      "trend": "up",
      "trend_arrow": "🔺",
      "change_pct": 350.5,
      "place": "Warsaw, Poland"
    },
    {
      "lon": 15.25,
      "lat": 49.75,
      "type": "hotspot_cell",
      "score": 61.387,
      "count": 158,
      "cell_deg": 0.5,
      "sources": {
        "GDELT": 158,
        "GDELT_DOC": 0,
        "DIRECT_FEED": 0,
        "USGS": 0,
        "GDACS": 0
      },
      "last7_score": 49.256,
      "prev7_score": 12.132,
      "trend": "up",
      "trend_arrow": "🔺",
      "change_pct": 306.0,
      "place": "Vysočina Region, Czechia"
    }
  ]
}