{
  "generated_utc": "2026-06-18T14:56:06Z",
  "top": [
    {
      "lon": 25.25,
      "lat": 54.75,
      "type": "hotspot_cell",
      "score": 613.367,
      "count": 861,
      "cell_deg": 0.5,
      "sources": {
        "GDELT": 58,
        "GDELT_DOC": 802,
        "DIRECT_FEED": 1,
        "USGS": 0,
        "GDACS": 0
      },
      "last7_score": 608.99,
      "prev7_score": 4.378,
      "trend": "up",
      "trend_arrow": "🔺",
      "change_pct": 13811.0,
      "place": "Vilnius County, Lithuania"
    },
    {
      "lon": 26.25,
      "lat": 44.25,
      "type": "hotspot_cell",
      "score": 595.471,
      "count": 1015,
      "cell_deg": 0.5,
      "sources": {
        "GDELT": 159,
        "GDELT_DOC": 847,
        "DIRECT_FEED": 9,
        "USGS": 0,
        "GDACS": 0
      },
      "last7_score": 583.366,
      "prev7_score": 12.106,
      "trend": "up",
      "trend_arrow": "🔺",
      "change_pct": 4719.0,
      "place": "Giurgiu, Romania"
    },
    {
      "lon": 14.25,
      "lat": 50.25,
      "type": "hotspot_cell",
      "score": 353.653,
      "count": 652,
      "cell_deg": 0.5,
      "sources": {
        "GDELT": 93,
        "GDELT_DOC": 550,
        "DIRECT_FEED": 9,
        "USGS": 0,
        "GDACS": 0
      },
      "last7_score": 347.287,
      "prev7_score": 6.367,
      "trend": "up",
      "trend_arrow": "🔺",
      "change_pct": 5354.6,
      "place": "SO ORP Kralupy nad Vltavou, Czechia"
    },
    {
      "lon": 19.25,
      "lat": 47.75,
      "type": "hotspot_cell",
      "score": 188.263,
      "count": 335,
      "cell_deg": 0.5,
      "sources": {
        "GDELT": 163,
        "GDELT_DOC": 0,
        "DIRECT_FEED": 172,
        "USGS": 0,
        "GDACS": 0
      },
      "last7_score": 178.564,
      "prev7_score": 9.699,
      "trend": "up",
      "trend_arrow": "🔺",
      "change_pct": 1741.0,
      "place": "Pest, Hungary"
    },
    {
      "lon": 20.25,
      "lat": 52.25,
      "type": "hotspot_cell",
      "score": 177.849,
      "count": 451,
      "cell_deg": 0.5,
      "sources": {
        "GDELT": 451,
        "GDELT_DOC": 0,
        "DIRECT_FEED": 0,
        "USGS": 0,
        "GDACS": 0
      },
      "last7_score": 145.361,
      "prev7_score": 32.488,
      "trend": "up",
      "trend_arrow": "🔺",
      "change_pct": 347.4,
      "place": "Sochaczew County, Poland"
    },
    {
      "lon": 25.25,
      "lat": 46.25,
      "type": "hotspot_cell",
      "score": 163.124,
      "count": 429,
      "cell_deg": 0.5,
      "sources": {
        "GDELT": 429,
        "GDELT_DOC": 0,
        "DIRECT_FEED": 0,
        "USGS": 0,
        "GDACS": 0
      },
      "last7_score": 133.351,
      "prev7_score": 29.773,
      "trend": "up",
      "trend_arrow": "🔺",
      "change_pct": 347.9,
      "place": "Harghita, Romania"
    },
    {
      "lon": 24.25,
      "lat": 56.75,
      "type": "hotspot_cell",
      "score": 115.48,
      "count": 179,
      "cell_deg": 0.5,
      "sources": {
        "GDELT": 38,
        "GDELT_DOC": 0,
        "DIRECT_FEED": 141,
        "USGS": 0,
        "GDACS": 0
      },
      "last7_score": 112.365,
      "prev7_score": 3.115,
      "trend": "up",
      "trend_arrow": "🔺",
      "change_pct": 3506.8,
      "place": "Ķekavas novads, Latvia"
    },
    {
      "lon": 20.25,
      "lat": 47.25,
      "type": "hotspot_cell",
      "score": 96.926,
      "count": 247,
      "cell_deg": 0.5,
      "sources": {
        "GDELT": 247,
        "GDELT_DOC": 0,
        "DIRECT_FEED": 0,
        "USGS": 0,
        "GDACS": 0
      },
      "last7_score": 80.192,
      "prev7_score": 16.734,
      "trend": "up",
      "trend_arrow": "🔺",
      "change_pct": 379.2,
      "place": "Jász-Nagykun-Szolnok, Hungary"
    },
    {
      "lon": 21.25,
      "lat": 52.25,
      "type": "hotspot_cell",
      "score": 96.427,
      "count": 190,
      "cell_deg": 0.5,
      "sources": {
        "GDELT": 190,
        "GDELT_DOC": 0,
        "DIRECT_FEED": 0,
        "USGS": 0,
        "GDACS": 0
      },
      "last7_score": 86.794,
      "prev7_score": 9.633,
      "trend": "up",
      "trend_arrow": "🔺",
      "change_pct": 801.0,
      "place": "Warsaw, Poland"
    },
    {
      "lon": 17.25,
      "lat": 48.25,
      "type": "hotspot_cell",
      "score": 89.986,
      "count": 163,
      "cell_deg": 0.5,
      "sources": {
        "GDELT": 162,
        "GDELT_DOC": 0,
        "DIRECT_FEED": 1,
        "USGS": 0,
        "GDACS": 0
      },
      "last7_score": 87.385,
      "prev7_score": 2.6,
      "trend": "up",
      "trend_arrow": "🔺",
      "change_pct": 3260.3,
      "place": "District of Pezinok, Slovakia"
    }
  ]
}