{
  "generated_utc": "2026-06-17T20:10:02Z",
  "top": [
    {
      "lon": 26.25,
      "lat": 44.25,
      "type": "hotspot_cell",
      "score": 666.077,
      "count": 1051,
      "cell_deg": 0.5,
      "sources": {
        "GDELT": 176,
        "GDELT_DOC": 866,
        "DIRECT_FEED": 9,
        "USGS": 0,
        "GDACS": 0
      },
      "last7_score": 655.376,
      "prev7_score": 10.702,
      "trend": "up",
      "trend_arrow": "🔺",
      "change_pct": 6024.0,
      "place": "Giurgiu, Romania"
    },
    {
      "lon": 25.25,
      "lat": 54.75,
      "type": "hotspot_cell",
      "score": 541.89,
      "count": 775,
      "cell_deg": 0.5,
      "sources": {
        "GDELT": 59,
        "GDELT_DOC": 715,
        "DIRECT_FEED": 1,
        "USGS": 0,
        "GDACS": 0
      },
      "last7_score": 537.6,
      "prev7_score": 4.29,
      "trend": "up",
      "trend_arrow": "🔺",
      "change_pct": 12431.2,
      "place": "Vilnius County, Lithuania"
    },
    {
      "lon": 14.25,
      "lat": 50.25,
      "type": "hotspot_cell",
      "score": 366.394,
      "count": 756,
      "cell_deg": 0.5,
      "sources": {
        "GDELT": 100,
        "GDELT_DOC": 648,
        "DIRECT_FEED": 8,
        "USGS": 0,
        "GDACS": 0
      },
      "last7_score": 362.253,
      "prev7_score": 4.141,
      "trend": "up",
      "trend_arrow": "🔺",
      "change_pct": 8647.6,
      "place": "SO ORP Kralupy nad Vltavou, Czechia"
    },
    {
      "lon": 19.25,
      "lat": 47.75,
      "type": "hotspot_cell",
      "score": 183.283,
      "count": 354,
      "cell_deg": 0.5,
      "sources": {
        "GDELT": 185,
        "GDELT_DOC": 0,
        "DIRECT_FEED": 169,
        "USGS": 0,
        "GDACS": 0
      },
      "last7_score": 173.485,
      "prev7_score": 9.798,
      "trend": "up",
      "trend_arrow": "🔺",
      "change_pct": 1670.6,
      "place": "Pest, Hungary"
    },
    {
      "lon": 20.25,
      "lat": 52.25,
      "type": "hotspot_cell",
      "score": 176.614,
      "count": 461,
      "cell_deg": 0.5,
      "sources": {
        "GDELT": 461,
        "GDELT_DOC": 0,
        "DIRECT_FEED": 0,
        "USGS": 0,
        "GDACS": 0
      },
      "last7_score": 149.684,
      "prev7_score": 26.93,
      "trend": "up",
      "trend_arrow": "🔺",
      "change_pct": 455.8,
      "place": "Sochaczew County, Poland"
    },
    {
      "lon": 25.25,
      "lat": 46.25,
      "type": "hotspot_cell",
      "score": 164.57,
      "count": 436,
      "cell_deg": 0.5,
      "sources": {
        "GDELT": 436,
        "GDELT_DOC": 0,
        "DIRECT_FEED": 0,
        "USGS": 0,
        "GDACS": 0
      },
      "last7_score": 135.297,
      "prev7_score": 29.273,
      "trend": "up",
      "trend_arrow": "🔺",
      "change_pct": 362.2,
      "place": "Harghita, Romania"
    },
    {
      "lon": 24.25,
      "lat": 56.75,
      "type": "hotspot_cell",
      "score": 115.287,
      "count": 185,
      "cell_deg": 0.5,
      "sources": {
        "GDELT": 42,
        "GDELT_DOC": 0,
        "DIRECT_FEED": 143,
        "USGS": 0,
        "GDACS": 0
      },
      "last7_score": 112.318,
      "prev7_score": 2.969,
      "trend": "up",
      "trend_arrow": "🔺",
      "change_pct": 3682.4,
      "place": "Ķekavas novads, Latvia"
    },
    {
      "lon": 17.25,
      "lat": 48.25,
      "type": "hotspot_cell",
      "score": 103.865,
      "count": 162,
      "cell_deg": 0.5,
      "sources": {
        "GDELT": 161,
        "GDELT_DOC": 0,
        "DIRECT_FEED": 1,
        "USGS": 0,
        "GDACS": 0
      },
      "last7_score": 103.32,
      "prev7_score": 0.545,
      "trend": "up",
      "trend_arrow": "🔺",
      "change_pct": 18850.6,
      "place": "District of Pezinok, Slovakia"
    },
    {
      "lon": 20.25,
      "lat": 47.25,
      "type": "hotspot_cell",
      "score": 100.495,
      "count": 257,
      "cell_deg": 0.5,
      "sources": {
        "GDELT": 257,
        "GDELT_DOC": 0,
        "DIRECT_FEED": 0,
        "USGS": 0,
        "GDACS": 0
      },
      "last7_score": 84.674,
      "prev7_score": 15.821,
      "trend": "up",
      "trend_arrow": "🔺",
      "change_pct": 435.2,
      "place": "Jász-Nagykun-Szolnok, Hungary"
    },
    {
      "lon": 21.25,
      "lat": 52.25,
      "type": "hotspot_cell",
      "score": 86.16,
      "count": 186,
      "cell_deg": 0.5,
      "sources": {
        "GDELT": 186,
        "GDELT_DOC": 0,
        "DIRECT_FEED": 0,
        "USGS": 0,
        "GDACS": 0
      },
      "last7_score": 75.575,
      "prev7_score": 10.586,
      "trend": "up",
      "trend_arrow": "🔺",
      "change_pct": 613.9,
      "place": "Warsaw, Poland"
    }
  ]
}