{
  "generated_utc": "2026-05-29T20:16:02Z",
  "top": [
    {
      "lon": 14.25,
      "lat": 50.25,
      "type": "hotspot_cell",
      "score": 976.225,
      "count": 1581,
      "cell_deg": 0.5,
      "sources": {
        "GDELT": 148,
        "GDELT_DOC": 1418,
        "DIRECT_FEED": 15,
        "USGS": 0,
        "GDACS": 0
      },
      "last7_score": 964.966,
      "prev7_score": 11.258,
      "trend": "up",
      "trend_arrow": "🔺",
      "change_pct": 8471.1,
      "place": "SO ORP Kralupy nad Vltavou, Czechia"
    },
    {
      "lon": 26.25,
      "lat": 44.25,
      "type": "hotspot_cell",
      "score": 880.613,
      "count": 1279,
      "cell_deg": 0.5,
      "sources": {
        "GDELT": 178,
        "GDELT_DOC": 1092,
        "DIRECT_FEED": 9,
        "USGS": 0,
        "GDACS": 0
      },
      "last7_score": 872.876,
      "prev7_score": 7.737,
      "trend": "up",
      "trend_arrow": "🔺",
      "change_pct": 11182.0,
      "place": "Giurgiu, Romania"
    },
    {
      "lon": 25.25,
      "lat": 54.75,
      "type": "hotspot_cell",
      "score": 782.457,
      "count": 1204,
      "cell_deg": 0.5,
      "sources": {
        "GDELT": 104,
        "GDELT_DOC": 1098,
        "DIRECT_FEED": 2,
        "USGS": 0,
        "GDACS": 0
      },
      "last7_score": 771.391,
      "prev7_score": 11.066,
      "trend": "up",
      "trend_arrow": "🔺",
      "change_pct": 6870.6,
      "place": "Vilnius County, Lithuania"
    },
    {
      "lon": 20.25,
      "lat": 52.25,
      "type": "hotspot_cell",
      "score": 278.456,
      "count": 791,
      "cell_deg": 0.5,
      "sources": {
        "GDELT": 791,
        "GDELT_DOC": 0,
        "DIRECT_FEED": 0,
        "USGS": 0,
        "GDACS": 0
      },
      "last7_score": 202.792,
      "prev7_score": 75.663,
      "trend": "up",
      "trend_arrow": "🔺",
      "change_pct": 168.0,
      "place": "Sochaczew County, Poland"
    },
    {
      "lon": 19.25,
      "lat": 47.75,
      "type": "hotspot_cell",
      "score": 251.298,
      "count": 416,
      "cell_deg": 0.5,
      "sources": {
        "GDELT": 216,
        "GDELT_DOC": 0,
        "DIRECT_FEED": 200,
        "USGS": 0,
        "GDACS": 0
      },
      "last7_score": 236.941,
      "prev7_score": 14.357,
      "trend": "up",
      "trend_arrow": "🔺",
      "change_pct": 1550.4,
      "place": "Pest, Hungary"
    },
    {
      "lon": 25.25,
      "lat": 46.25,
      "type": "hotspot_cell",
      "score": 237.105,
      "count": 418,
      "cell_deg": 0.5,
      "sources": {
        "GDELT": 418,
        "GDELT_DOC": 0,
        "DIRECT_FEED": 0,
        "USGS": 0,
        "GDACS": 0
      },
      "last7_score": 214.137,
      "prev7_score": 22.969,
      "trend": "up",
      "trend_arrow": "🔺",
      "change_pct": 832.3,
      "place": "Harghita, Romania"
    },
    {
      "lon": 24.25,
      "lat": 56.75,
      "type": "hotspot_cell",
      "score": 126.948,
      "count": 187,
      "cell_deg": 0.5,
      "sources": {
        "GDELT": 57,
        "GDELT_DOC": 0,
        "DIRECT_FEED": 130,
        "USGS": 0,
        "GDACS": 0
      },
      "last7_score": 122.155,
      "prev7_score": 4.794,
      "trend": "up",
      "trend_arrow": "🔺",
      "change_pct": 2448.2,
      "place": "Ķekavas novads, Latvia"
    },
    {
      "lon": 20.25,
      "lat": 47.25,
      "type": "hotspot_cell",
      "score": 109.327,
      "count": 261,
      "cell_deg": 0.5,
      "sources": {
        "GDELT": 261,
        "GDELT_DOC": 0,
        "DIRECT_FEED": 0,
        "USGS": 0,
        "GDACS": 0
      },
      "last7_score": 91.364,
      "prev7_score": 17.964,
      "trend": "up",
      "trend_arrow": "🔺",
      "change_pct": 408.6,
      "place": "Jász-Nagykun-Szolnok, Hungary"
    },
    {
      "lon": 21.25,
      "lat": 52.25,
      "type": "hotspot_cell",
      "score": 104.709,
      "count": 266,
      "cell_deg": 0.5,
      "sources": {
        "GDELT": 266,
        "GDELT_DOC": 0,
        "DIRECT_FEED": 0,
        "USGS": 0,
        "GDACS": 0
      },
      "last7_score": 81.039,
      "prev7_score": 23.669,
      "trend": "up",
      "trend_arrow": "🔺",
      "change_pct": 242.4,
      "place": "Warsaw, Poland"
    },
    {
      "lon": 15.25,
      "lat": 49.75,
      "type": "hotspot_cell",
      "score": 76.569,
      "count": 174,
      "cell_deg": 0.5,
      "sources": {
        "GDELT": 174,
        "GDELT_DOC": 0,
        "DIRECT_FEED": 0,
        "USGS": 0,
        "GDACS": 0
      },
      "last7_score": 66.114,
      "prev7_score": 10.455,
      "trend": "up",
      "trend_arrow": "🔺",
      "change_pct": 532.4,
      "place": "Vysočina Region, Czechia"
    }
  ]
}