{
  "generated_utc": "2026-06-23T02:36:11Z",
  "top": [
    {
      "lon": 26.25,
      "lat": 44.25,
      "type": "hotspot_cell",
      "score": 584.606,
      "count": 1031,
      "cell_deg": 0.5,
      "sources": {
        "GDELT": 140,
        "GDELT_DOC": 887,
        "DIRECT_FEED": 4,
        "USGS": 0,
        "GDACS": 0
      },
      "last7_score": 572.978,
      "prev7_score": 11.629,
      "trend": "up",
      "trend_arrow": "🔺",
      "change_pct": 4827.3,
      "place": "Giurgiu, Romania"
    },
    {
      "lon": 14.25,
      "lat": 50.25,
      "type": "hotspot_cell",
      "score": 431.626,
      "count": 727,
      "cell_deg": 0.5,
      "sources": {
        "GDELT": 115,
        "GDELT_DOC": 601,
        "DIRECT_FEED": 11,
        "USGS": 0,
        "GDACS": 0
      },
      "last7_score": 422.888,
      "prev7_score": 8.738,
      "trend": "up",
      "trend_arrow": "🔺",
      "change_pct": 4739.8,
      "place": "SO ORP Kralupy nad Vltavou, Czechia"
    },
    {
      "lon": 25.25,
      "lat": 54.75,
      "type": "hotspot_cell",
      "score": 370.814,
      "count": 772,
      "cell_deg": 0.5,
      "sources": {
        "GDELT": 50,
        "GDELT_DOC": 721,
        "DIRECT_FEED": 1,
        "USGS": 0,
        "GDACS": 0
      },
      "last7_score": 367.473,
      "prev7_score": 3.341,
      "trend": "up",
      "trend_arrow": "🔺",
      "change_pct": 10899.4,
      "place": "Vilnius County, Lithuania"
    },
    {
      "lon": 20.25,
      "lat": 52.25,
      "type": "hotspot_cell",
      "score": 171.308,
      "count": 466,
      "cell_deg": 0.5,
      "sources": {
        "GDELT": 466,
        "GDELT_DOC": 0,
        "DIRECT_FEED": 0,
        "USGS": 0,
        "GDACS": 0
      },
      "last7_score": 136.674,
      "prev7_score": 34.634,
      "trend": "up",
      "trend_arrow": "🔺",
      "change_pct": 294.6,
      "place": "Sochaczew County, Poland"
    },
    {
      "lon": 19.25,
      "lat": 47.75,
      "type": "hotspot_cell",
      "score": 165.656,
      "count": 326,
      "cell_deg": 0.5,
      "sources": {
        "GDELT": 160,
        "GDELT_DOC": 0,
        "DIRECT_FEED": 166,
        "USGS": 0,
        "GDACS": 0
      },
      "last7_score": 152.291,
      "prev7_score": 13.364,
      "trend": "up",
      "trend_arrow": "🔺",
      "change_pct": 1039.6,
      "place": "Pest, Hungary"
    },
    {
      "lon": 25.25,
      "lat": 46.25,
      "type": "hotspot_cell",
      "score": 132.787,
      "count": 381,
      "cell_deg": 0.5,
      "sources": {
        "GDELT": 381,
        "GDELT_DOC": 0,
        "DIRECT_FEED": 0,
        "USGS": 0,
        "GDACS": 0
      },
      "last7_score": 99.122,
      "prev7_score": 33.665,
      "trend": "up",
      "trend_arrow": "🔺",
      "change_pct": 194.4,
      "place": "Harghita, Romania"
    },
    {
      "lon": 21.25,
      "lat": 52.25,
      "type": "hotspot_cell",
      "score": 129.815,
      "count": 271,
      "cell_deg": 0.5,
      "sources": {
        "GDELT": 271,
        "GDELT_DOC": 0,
        "DIRECT_FEED": 0,
        "USGS": 0,
        "GDACS": 0
      },
      "last7_score": 116.907,
      "prev7_score": 12.909,
      "trend": "up",
      "trend_arrow": "🔺",
      "change_pct": 805.7,
      "place": "Warsaw, Poland"
    },
    {
      "lon": 24.25,
      "lat": 56.75,
      "type": "hotspot_cell",
      "score": 100.636,
      "count": 169,
      "cell_deg": 0.5,
      "sources": {
        "GDELT": 36,
        "GDELT_DOC": 0,
        "DIRECT_FEED": 133,
        "USGS": 0,
        "GDACS": 0
      },
      "last7_score": 98.635,
      "prev7_score": 2.001,
      "trend": "up",
      "trend_arrow": "🔺",
      "change_pct": 4828.9,
      "place": "Ķekavas novads, Latvia"
    },
    {
      "lon": 20.25,
      "lat": 47.25,
      "type": "hotspot_cell",
      "score": 85.341,
      "count": 239,
      "cell_deg": 0.5,
      "sources": {
        "GDELT": 239,
        "GDELT_DOC": 0,
        "DIRECT_FEED": 0,
        "USGS": 0,
        "GDACS": 0
      },
      "last7_score": 65.018,
      "prev7_score": 20.323,
      "trend": "up",
      "trend_arrow": "🔺",
      "change_pct": 219.9,
      "place": "Jász-Nagykun-Szolnok, Hungary"
    },
    {
      "lon": 15.25,
      "lat": 49.75,
      "type": "hotspot_cell",
      "score": 48.98,
      "count": 135,
      "cell_deg": 0.5,
      "sources": {
        "GDELT": 135,
        "GDELT_DOC": 0,
        "DIRECT_FEED": 0,
        "USGS": 0,
        "GDACS": 0
      },
      "last7_score": 38.555,
      "prev7_score": 10.425,
      "trend": "up",
      "trend_arrow": "🔺",
      "change_pct": 269.8,
      "place": "Vysočina Region, Czechia"
    }
  ]
}