{
  "generated_utc": "2026-07-02T02:37:38Z",
  "top": [
    {
      "lon": 26.25,
      "lat": 44.25,
      "type": "hotspot_cell",
      "score": 408.751,
      "count": 823,
      "cell_deg": 0.5,
      "sources": {
        "GDELT": 139,
        "GDELT_DOC": 678,
        "DIRECT_FEED": 6,
        "USGS": 0,
        "GDACS": 0
      },
      "last7_score": 395.989,
      "prev7_score": 12.762,
      "trend": "up",
      "trend_arrow": "🔺",
      "change_pct": 3002.8,
      "place": "Giurgiu, Romania"
    },
    {
      "lon": 14.25,
      "lat": 50.25,
      "type": "hotspot_cell",
      "score": 374.064,
      "count": 802,
      "cell_deg": 0.5,
      "sources": {
        "GDELT": 124,
        "GDELT_DOC": 675,
        "DIRECT_FEED": 3,
        "USGS": 0,
        "GDACS": 0
      },
      "last7_score": 363.861,
      "prev7_score": 10.203,
      "trend": "up",
      "trend_arrow": "🔺",
      "change_pct": 3466.1,
      "place": "SO ORP Kralupy nad Vltavou, Czechia"
    },
    {
      "lon": 25.25,
      "lat": 54.75,
      "type": "hotspot_cell",
      "score": 316.428,
      "count": 583,
      "cell_deg": 0.5,
      "sources": {
        "GDELT": 55,
        "GDELT_DOC": 528,
        "DIRECT_FEED": 0,
        "USGS": 0,
        "GDACS": 0
      },
      "last7_score": 311.785,
      "prev7_score": 4.642,
      "trend": "up",
      "trend_arrow": "🔺",
      "change_pct": 6616.0,
      "place": "Vilnius County, Lithuania"
    },
    {
      "lon": 20.25,
      "lat": 52.25,
      "type": "hotspot_cell",
      "score": 204.094,
      "count": 510,
      "cell_deg": 0.5,
      "sources": {
        "GDELT": 510,
        "GDELT_DOC": 0,
        "DIRECT_FEED": 0,
        "USGS": 0,
        "GDACS": 0
      },
      "last7_score": 159.985,
      "prev7_score": 44.11,
      "trend": "up",
      "trend_arrow": "🔺",
      "change_pct": 262.7,
      "place": "Sochaczew County, Poland"
    },
    {
      "lon": 19.25,
      "lat": 47.75,
      "type": "hotspot_cell",
      "score": 191.245,
      "count": 354,
      "cell_deg": 0.5,
      "sources": {
        "GDELT": 178,
        "GDELT_DOC": 0,
        "DIRECT_FEED": 176,
        "USGS": 0,
        "GDACS": 0
      },
      "last7_score": 173.7,
      "prev7_score": 17.545,
      "trend": "up",
      "trend_arrow": "🔺",
      "change_pct": 890.0,
      "place": "Pest, Hungary"
    },
    {
      "lon": 24.25,
      "lat": 56.75,
      "type": "hotspot_cell",
      "score": 120.024,
      "count": 180,
      "cell_deg": 0.5,
      "sources": {
        "GDELT": 29,
        "GDELT_DOC": 0,
        "DIRECT_FEED": 151,
        "USGS": 0,
        "GDACS": 0
      },
      "last7_score": 117.865,
      "prev7_score": 2.159,
      "trend": "up",
      "trend_arrow": "🔺",
      "change_pct": 5359.2,
      "place": "Ķekavas novads, Latvia"
    },
    {
      "lon": 25.25,
      "lat": 46.25,
      "type": "hotspot_cell",
      "score": 115.951,
      "count": 325,
      "cell_deg": 0.5,
      "sources": {
        "GDELT": 325,
        "GDELT_DOC": 0,
        "DIRECT_FEED": 0,
        "USGS": 0,
        "GDACS": 0
      },
      "last7_score": 86.881,
      "prev7_score": 29.07,
      "trend": "up",
      "trend_arrow": "🔺",
      "change_pct": 198.9,
      "place": "Harghita, Romania"
    },
    {
      "lon": 21.25,
      "lat": 52.25,
      "type": "hotspot_cell",
      "score": 107.673,
      "count": 332,
      "cell_deg": 0.5,
      "sources": {
        "GDELT": 332,
        "GDELT_DOC": 0,
        "DIRECT_FEED": 0,
        "USGS": 0,
        "GDACS": 0
      },
      "last7_score": 75.348,
      "prev7_score": 32.325,
      "trend": "up",
      "trend_arrow": "🔺",
      "change_pct": 133.1,
      "place": "Warsaw, Poland"
    },
    {
      "lon": 15.25,
      "lat": 49.75,
      "type": "hotspot_cell",
      "score": 63.626,
      "count": 158,
      "cell_deg": 0.5,
      "sources": {
        "GDELT": 158,
        "GDELT_DOC": 0,
        "DIRECT_FEED": 0,
        "USGS": 0,
        "GDACS": 0
      },
      "last7_score": 52.779,
      "prev7_score": 10.847,
      "trend": "up",
      "trend_arrow": "🔺",
      "change_pct": 386.6,
      "place": "Vysočina Region, Czechia"
    },
    {
      "lon": 20.25,
      "lat": 47.25,
      "type": "hotspot_cell",
      "score": 57.321,
      "count": 173,
      "cell_deg": 0.5,
      "sources": {
        "GDELT": 173,
        "GDELT_DOC": 0,
        "DIRECT_FEED": 0,
        "USGS": 0,
        "GDACS": 0
      },
      "last7_score": 39.812,
      "prev7_score": 17.509,
      "trend": "up",
      "trend_arrow": "🔺",
      "change_pct": 127.4,
      "place": "Jász-Nagykun-Szolnok, Hungary"
    }
  ]
}