{
  "generated_utc": "2026-06-13T02:39:14Z",
  "top": [
    {
      "lon": 14.25,
      "lat": 50.25,
      "type": "hotspot_cell",
      "score": 575.707,
      "count": 839,
      "cell_deg": 0.5,
      "sources": {
        "GDELT": 96,
        "GDELT_DOC": 740,
        "DIRECT_FEED": 3,
        "USGS": 0,
        "GDACS": 0
      },
      "last7_score": 567.69,
      "prev7_score": 8.017,
      "trend": "up",
      "trend_arrow": "🔺",
      "change_pct": 6981.5,
      "place": "SO ORP Kralupy nad Vltavou, Czechia"
    },
    {
      "lon": 26.25,
      "lat": 44.25,
      "type": "hotspot_cell",
      "score": 549.038,
      "count": 928,
      "cell_deg": 0.5,
      "sources": {
        "GDELT": 176,
        "GDELT_DOC": 742,
        "DIRECT_FEED": 10,
        "USGS": 0,
        "GDACS": 0
      },
      "last7_score": 534.979,
      "prev7_score": 14.058,
      "trend": "up",
      "trend_arrow": "🔺",
      "change_pct": 3705.4,
      "place": "Giurgiu, Romania"
    },
    {
      "lon": 25.25,
      "lat": 54.75,
      "type": "hotspot_cell",
      "score": 451.428,
      "count": 763,
      "cell_deg": 0.5,
      "sources": {
        "GDELT": 74,
        "GDELT_DOC": 689,
        "DIRECT_FEED": 0,
        "USGS": 0,
        "GDACS": 0
      },
      "last7_score": 445.347,
      "prev7_score": 6.081,
      "trend": "up",
      "trend_arrow": "🔺",
      "change_pct": 7223.4,
      "place": "Vilnius County, Lithuania"
    },
    {
      "lon": 20.25,
      "lat": 52.25,
      "type": "hotspot_cell",
      "score": 183.635,
      "count": 481,
      "cell_deg": 0.5,
      "sources": {
        "GDELT": 481,
        "GDELT_DOC": 0,
        "DIRECT_FEED": 0,
        "USGS": 0,
        "GDACS": 0
      },
      "last7_score": 144.956,
      "prev7_score": 38.68,
      "trend": "up",
      "trend_arrow": "🔺",
      "change_pct": 274.8,
      "place": "Sochaczew County, Poland"
    },
    {
      "lon": 19.25,
      "lat": 47.75,
      "type": "hotspot_cell",
      "score": 180.018,
      "count": 367,
      "cell_deg": 0.5,
      "sources": {
        "GDELT": 205,
        "GDELT_DOC": 0,
        "DIRECT_FEED": 162,
        "USGS": 0,
        "GDACS": 0
      },
      "last7_score": 160.58,
      "prev7_score": 19.437,
      "trend": "up",
      "trend_arrow": "🔺",
      "change_pct": 726.1,
      "place": "Pest, Hungary"
    },
    {
      "lon": 25.25,
      "lat": 46.25,
      "type": "hotspot_cell",
      "score": 162.748,
      "count": 426,
      "cell_deg": 0.5,
      "sources": {
        "GDELT": 426,
        "GDELT_DOC": 0,
        "DIRECT_FEED": 0,
        "USGS": 0,
        "GDACS": 0
      },
      "last7_score": 125.672,
      "prev7_score": 37.076,
      "trend": "up",
      "trend_arrow": "🔺",
      "change_pct": 239.0,
      "place": "Harghita, Romania"
    },
    {
      "lon": 24.25,
      "lat": 56.75,
      "type": "hotspot_cell",
      "score": 115.576,
      "count": 173,
      "cell_deg": 0.5,
      "sources": {
        "GDELT": 45,
        "GDELT_DOC": 0,
        "DIRECT_FEED": 128,
        "USGS": 0,
        "GDACS": 0
      },
      "last7_score": 111.132,
      "prev7_score": 4.445,
      "trend": "up",
      "trend_arrow": "🔺",
      "change_pct": 2400.3,
      "place": "Ķekavas novads, Latvia"
    },
    {
      "lon": 20.25,
      "lat": 47.25,
      "type": "hotspot_cell",
      "score": 104.985,
      "count": 257,
      "cell_deg": 0.5,
      "sources": {
        "GDELT": 257,
        "GDELT_DOC": 0,
        "DIRECT_FEED": 0,
        "USGS": 0,
        "GDACS": 0
      },
      "last7_score": 86.262,
      "prev7_score": 18.723,
      "trend": "up",
      "trend_arrow": "🔺",
      "change_pct": 360.7,
      "place": "Jász-Nagykun-Szolnok, Hungary"
    },
    {
      "lon": 21.25,
      "lat": 52.25,
      "type": "hotspot_cell",
      "score": 64.026,
      "count": 180,
      "cell_deg": 0.5,
      "sources": {
        "GDELT": 180,
        "GDELT_DOC": 0,
        "DIRECT_FEED": 0,
        "USGS": 0,
        "GDACS": 0
      },
      "last7_score": 49.406,
      "prev7_score": 14.62,
      "trend": "up",
      "trend_arrow": "🔺",
      "change_pct": 237.9,
      "place": "Warsaw, Poland"
    },
    {
      "lon": 15.25,
      "lat": 49.75,
      "type": "hotspot_cell",
      "score": 50.863,
      "count": 130,
      "cell_deg": 0.5,
      "sources": {
        "GDELT": 130,
        "GDELT_DOC": 0,
        "DIRECT_FEED": 0,
        "USGS": 0,
        "GDACS": 0
      },
      "last7_score": 40.942,
      "prev7_score": 9.92,
      "trend": "up",
      "trend_arrow": "🔺",
      "change_pct": 312.7,
      "place": "Vysočina Region, Czechia"
    }
  ]
}