{
  "generated_utc": "2026-04-10T02:42:26Z",
  "top": [
    {
      "lon": 26.25,
      "lat": 44.25,
      "type": "hotspot_cell",
      "score": 886.353,
      "count": 1376,
      "cell_deg": 0.5,
      "sources": {
        "GDELT": 156,
        "GDELT_DOC": 1214,
        "DIRECT_FEED": 6,
        "USGS": 0,
        "GDACS": 0
      },
      "last7_score": 869.212,
      "prev7_score": 17.141,
      "trend": "up",
      "trend_arrow": "🔺",
      "change_pct": 4971.1,
      "place": "Giurgiu, Romania"
    },
    {
      "lon": 14.25,
      "lat": 50.25,
      "type": "hotspot_cell",
      "score": 728.975,
      "count": 1084,
      "cell_deg": 0.5,
      "sources": {
        "GDELT": 82,
        "GDELT_DOC": 1001,
        "DIRECT_FEED": 1,
        "USGS": 0,
        "GDACS": 0
      },
      "last7_score": 722.127,
      "prev7_score": 6.849,
      "trend": "up",
      "trend_arrow": "🔺",
      "change_pct": 10444.2,
      "place": "SO ORP Kralupy nad Vltavou, Czechia"
    },
    {
      "lon": 25.25,
      "lat": 54.75,
      "type": "hotspot_cell",
      "score": 552.592,
      "count": 828,
      "cell_deg": 0.5,
      "sources": {
        "GDELT": 69,
        "GDELT_DOC": 758,
        "DIRECT_FEED": 1,
        "USGS": 0,
        "GDACS": 0
      },
      "last7_score": 545.009,
      "prev7_score": 7.583,
      "trend": "up",
      "trend_arrow": "🔺",
      "change_pct": 7087.3,
      "place": "Vilnius County, Lithuania"
    },
    {
      "lon": 19.25,
      "lat": 47.75,
      "type": "hotspot_cell",
      "score": 502.284,
      "count": 732,
      "cell_deg": 0.5,
      "sources": {
        "GDELT": 500,
        "GDELT_DOC": 0,
        "DIRECT_FEED": 232,
        "USGS": 0,
        "GDACS": 0
      },
      "last7_score": 484.295,
      "prev7_score": 17.988,
      "trend": "up",
      "trend_arrow": "🔺",
      "change_pct": 2592.3,
      "place": "Pest, Hungary"
    },
    {
      "lon": 20.25,
      "lat": 47.25,
      "type": "hotspot_cell",
      "score": 194.886,
      "count": 378,
      "cell_deg": 0.5,
      "sources": {
        "GDELT": 378,
        "GDELT_DOC": 0,
        "DIRECT_FEED": 0,
        "USGS": 0,
        "GDACS": 0
      },
      "last7_score": 171.873,
      "prev7_score": 23.013,
      "trend": "up",
      "trend_arrow": "🔺",
      "change_pct": 646.9,
      "place": "Jász-Nagykun-Szolnok, Hungary"
    },
    {
      "lon": 20.25,
      "lat": 52.25,
      "type": "hotspot_cell",
      "score": 153.963,
      "count": 422,
      "cell_deg": 0.5,
      "sources": {
        "GDELT": 422,
        "GDELT_DOC": 0,
        "DIRECT_FEED": 0,
        "USGS": 0,
        "GDACS": 0
      },
      "last7_score": 115.558,
      "prev7_score": 38.405,
      "trend": "up",
      "trend_arrow": "🔺",
      "change_pct": 200.9,
      "place": "Sochaczew County, Poland"
    },
    {
      "lon": 24.25,
      "lat": 56.75,
      "type": "hotspot_cell",
      "score": 107.984,
      "count": 146,
      "cell_deg": 0.5,
      "sources": {
        "GDELT": 26,
        "GDELT_DOC": 0,
        "DIRECT_FEED": 120,
        "USGS": 0,
        "GDACS": 0
      },
      "last7_score": 105.427,
      "prev7_score": 2.557,
      "trend": "up",
      "trend_arrow": "🔺",
      "change_pct": 4022.6,
      "place": "Ķekavas novads, Latvia"
    },
    {
      "lon": 25.25,
      "lat": 46.25,
      "type": "hotspot_cell",
      "score": 103.088,
      "count": 248,
      "cell_deg": 0.5,
      "sources": {
        "GDELT": 248,
        "GDELT_DOC": 0,
        "DIRECT_FEED": 0,
        "USGS": 0,
        "GDACS": 0
      },
      "last7_score": 81.874,
      "prev7_score": 21.214,
      "trend": "up",
      "trend_arrow": "🔺",
      "change_pct": 285.9,
      "place": "Harghita, Romania"
    },
    {
      "lon": 24.25,
      "lat": 56.25,
      "type": "hotspot_cell",
      "score": 56.904,
      "count": 106,
      "cell_deg": 0.5,
      "sources": {
        "GDELT": 106,
        "GDELT_DOC": 0,
        "DIRECT_FEED": 0,
        "USGS": 0,
        "GDACS": 0
      },
      "last7_score": 49.862,
      "prev7_score": 7.042,
      "trend": "up",
      "trend_arrow": "🔺",
      "change_pct": 608.1,
      "place": "Namišių seniūnija, Lithuania"
    },
    {
      "lon": 15.25,
      "lat": 49.75,
      "type": "hotspot_cell",
      "score": 46.931,
      "count": 112,
      "cell_deg": 0.5,
      "sources": {
        "GDELT": 112,
        "GDELT_DOC": 0,
        "DIRECT_FEED": 0,
        "USGS": 0,
        "GDACS": 0
      },
      "last7_score": 37.83,
      "prev7_score": 9.101,
      "trend": "up",
      "trend_arrow": "🔺",
      "change_pct": 315.7,
      "place": "Vysočina Region, Czechia"
    }
  ]
}