{
  "generated_utc": "2026-05-15T08:56:20Z",
  "top": [
    {
      "lon": 14.25,
      "lat": 50.25,
      "type": "hotspot_cell",
      "score": 1027.662,
      "count": 1563,
      "cell_deg": 0.5,
      "sources": {
        "GDELT": 118,
        "GDELT_DOC": 1443,
        "DIRECT_FEED": 2,
        "USGS": 0,
        "GDACS": 0
      },
      "last7_score": 1017.696,
      "prev7_score": 9.967,
      "trend": "up",
      "trend_arrow": "🔺",
      "change_pct": 10111.0,
      "place": "SO ORP Kralupy nad Vltavou, Czechia"
    },
    {
      "lon": 26.25,
      "lat": 44.25,
      "type": "hotspot_cell",
      "score": 882.989,
      "count": 1446,
      "cell_deg": 0.5,
      "sources": {
        "GDELT": 220,
        "GDELT_DOC": 1221,
        "DIRECT_FEED": 5,
        "USGS": 0,
        "GDACS": 0
      },
      "last7_score": 869.036,
      "prev7_score": 13.953,
      "trend": "up",
      "trend_arrow": "🔺",
      "change_pct": 6128.4,
      "place": "Giurgiu, Romania"
    },
    {
      "lon": 25.25,
      "lat": 54.75,
      "type": "hotspot_cell",
      "score": 664.298,
      "count": 1078,
      "cell_deg": 0.5,
      "sources": {
        "GDELT": 68,
        "GDELT_DOC": 1010,
        "DIRECT_FEED": 0,
        "USGS": 0,
        "GDACS": 0
      },
      "last7_score": 657.476,
      "prev7_score": 6.822,
      "trend": "up",
      "trend_arrow": "🔺",
      "change_pct": 9537.7,
      "place": "Vilnius County, Lithuania"
    },
    {
      "lon": 19.25,
      "lat": 47.75,
      "type": "hotspot_cell",
      "score": 290.817,
      "count": 518,
      "cell_deg": 0.5,
      "sources": {
        "GDELT": 283,
        "GDELT_DOC": 0,
        "DIRECT_FEED": 235,
        "USGS": 0,
        "GDACS": 0
      },
      "last7_score": 271.057,
      "prev7_score": 19.76,
      "trend": "up",
      "trend_arrow": "🔺",
      "change_pct": 1271.7,
      "place": "Pest, Hungary"
    },
    {
      "lon": 20.25,
      "lat": 52.25,
      "type": "hotspot_cell",
      "score": 213.575,
      "count": 552,
      "cell_deg": 0.5,
      "sources": {
        "GDELT": 552,
        "GDELT_DOC": 0,
        "DIRECT_FEED": 0,
        "USGS": 0,
        "GDACS": 0
      },
      "last7_score": 172.039,
      "prev7_score": 41.535,
      "trend": "up",
      "trend_arrow": "🔺",
      "change_pct": 314.2,
      "place": "Sochaczew County, Poland"
    },
    {
      "lon": 24.25,
      "lat": 56.75,
      "type": "hotspot_cell",
      "score": 133.486,
      "count": 183,
      "cell_deg": 0.5,
      "sources": {
        "GDELT": 37,
        "GDELT_DOC": 0,
        "DIRECT_FEED": 146,
        "USGS": 0,
        "GDACS": 0
      },
      "last7_score": 130.45,
      "prev7_score": 3.036,
      "trend": "up",
      "trend_arrow": "🔺",
      "change_pct": 4197.3,
      "place": "Ķekavas novads, Latvia"
    },
    {
      "lon": 20.25,
      "lat": 47.25,
      "type": "hotspot_cell",
      "score": 122.895,
      "count": 281,
      "cell_deg": 0.5,
      "sources": {
        "GDELT": 281,
        "GDELT_DOC": 0,
        "DIRECT_FEED": 0,
        "USGS": 0,
        "GDACS": 0
      },
      "last7_score": 103.225,
      "prev7_score": 19.67,
      "trend": "up",
      "trend_arrow": "🔺",
      "change_pct": 424.8,
      "place": "Jász-Nagykun-Szolnok, Hungary"
    },
    {
      "lon": 25.25,
      "lat": 46.25,
      "type": "hotspot_cell",
      "score": 111.413,
      "count": 298,
      "cell_deg": 0.5,
      "sources": {
        "GDELT": 298,
        "GDELT_DOC": 0,
        "DIRECT_FEED": 0,
        "USGS": 0,
        "GDACS": 0
      },
      "last7_score": 87.486,
      "prev7_score": 23.926,
      "trend": "up",
      "trend_arrow": "🔺",
      "change_pct": 265.6,
      "place": "Harghita, Romania"
    },
    {
      "lon": 25.25,
      "lat": 57.25,
      "type": "hotspot_cell",
      "score": 96.769,
      "count": 149,
      "cell_deg": 0.5,
      "sources": {
        "GDELT": 149,
        "GDELT_DOC": 0,
        "DIRECT_FEED": 0,
        "USGS": 0,
        "GDACS": 0
      },
      "last7_score": 89.648,
      "prev7_score": 7.121,
      "trend": "up",
      "trend_arrow": "🔺",
      "change_pct": 1159.0,
      "place": "Cēsu novads, Latvia"
    },
    {
      "lon": 21.25,
      "lat": 52.25,
      "type": "hotspot_cell",
      "score": 74.774,
      "count": 178,
      "cell_deg": 0.5,
      "sources": {
        "GDELT": 178,
        "GDELT_DOC": 0,
        "DIRECT_FEED": 0,
        "USGS": 0,
        "GDACS": 0
      },
      "last7_score": 59.772,
      "prev7_score": 15.002,
      "trend": "up",
      "trend_arrow": "🔺",
      "change_pct": 298.4,
      "place": "Warsaw, Poland"
    }
  ]
}