{
  "generated_utc": "2026-03-22T13:00:29Z",
  "top": [
    {
      "lon": 14.25,
      "lat": 50.25,
      "type": "hotspot_cell",
      "score": 824.77,
      "count": 1409,
      "cell_deg": 0.5,
      "sources": {
        "GDELT": 119,
        "GDELT_DOC": 1287,
        "DIRECT_FEED": 3,
        "USGS": 0,
        "GDACS": 0
      },
      "last7_score": 818.09,
      "prev7_score": 6.68,
      "trend": "up",
      "trend_arrow": "🔺",
      "change_pct": 12146.8,
      "place": "SO ORP Kralupy nad Vltavou, Czechia"
    },
    {
      "lon": 26.25,
      "lat": 44.25,
      "type": "hotspot_cell",
      "score": 686.951,
      "count": 1282,
      "cell_deg": 0.5,
      "sources": {
        "GDELT": 185,
        "GDELT_DOC": 1097,
        "DIRECT_FEED": 0,
        "USGS": 0,
        "GDACS": 0
      },
      "last7_score": 673.82,
      "prev7_score": 13.131,
      "trend": "up",
      "trend_arrow": "🔺",
      "change_pct": 5031.4,
      "place": "Giurgiu, Romania"
    },
    {
      "lon": 25.25,
      "lat": 54.75,
      "type": "hotspot_cell",
      "score": 560.643,
      "count": 927,
      "cell_deg": 0.5,
      "sources": {
        "GDELT": 87,
        "GDELT_DOC": 840,
        "DIRECT_FEED": 0,
        "USGS": 0,
        "GDACS": 0
      },
      "last7_score": 556.117,
      "prev7_score": 4.526,
      "trend": "up",
      "trend_arrow": "🔺",
      "change_pct": 12187.4,
      "place": "Vilnius County, Lithuania"
    },
    {
      "lon": 19.25,
      "lat": 47.75,
      "type": "hotspot_cell",
      "score": 253.164,
      "count": 581,
      "cell_deg": 0.5,
      "sources": {
        "GDELT": 363,
        "GDELT_DOC": 0,
        "DIRECT_FEED": 218,
        "USGS": 0,
        "GDACS": 0
      },
      "last7_score": 228.51,
      "prev7_score": 24.654,
      "trend": "up",
      "trend_arrow": "🔺",
      "change_pct": 826.9,
      "place": "Pest, Hungary"
    },
    {
      "lon": 20.25,
      "lat": 52.25,
      "type": "hotspot_cell",
      "score": 146.446,
      "count": 414,
      "cell_deg": 0.5,
      "sources": {
        "GDELT": 414,
        "GDELT_DOC": 0,
        "DIRECT_FEED": 0,
        "USGS": 0,
        "GDACS": 0
      },
      "last7_score": 123.583,
      "prev7_score": 22.863,
      "trend": "up",
      "trend_arrow": "🔺",
      "change_pct": 440.5,
      "place": "Sochaczew County, Poland"
    },
    {
      "lon": 20.25,
      "lat": 47.25,
      "type": "hotspot_cell",
      "score": 145.049,
      "count": 406,
      "cell_deg": 0.5,
      "sources": {
        "GDELT": 406,
        "GDELT_DOC": 0,
        "DIRECT_FEED": 0,
        "USGS": 0,
        "GDACS": 0
      },
      "last7_score": 118.859,
      "prev7_score": 26.19,
      "trend": "up",
      "trend_arrow": "🔺",
      "change_pct": 353.8,
      "place": "Jász-Nagykun-Szolnok, Hungary"
    },
    {
      "lon": 25.25,
      "lat": 46.25,
      "type": "hotspot_cell",
      "score": 102.877,
      "count": 325,
      "cell_deg": 0.5,
      "sources": {
        "GDELT": 325,
        "GDELT_DOC": 0,
        "DIRECT_FEED": 0,
        "USGS": 0,
        "GDACS": 0
      },
      "last7_score": 85.111,
      "prev7_score": 17.766,
      "trend": "up",
      "trend_arrow": "🔺",
      "change_pct": 379.1,
      "place": "Harghita, Romania"
    },
    {
      "lon": 24.25,
      "lat": 56.75,
      "type": "hotspot_cell",
      "score": 101.678,
      "count": 166,
      "cell_deg": 0.5,
      "sources": {
        "GDELT": 35,
        "GDELT_DOC": 0,
        "DIRECT_FEED": 131,
        "USGS": 0,
        "GDACS": 0
      },
      "last7_score": 99.531,
      "prev7_score": 2.148,
      "trend": "up",
      "trend_arrow": "🔺",
      "change_pct": 4534.5,
      "place": "Ķekavas novads, Latvia"
    },
    {
      "lon": 15.25,
      "lat": 49.75,
      "type": "hotspot_cell",
      "score": 70.865,
      "count": 170,
      "cell_deg": 0.5,
      "sources": {
        "GDELT": 170,
        "GDELT_DOC": 0,
        "DIRECT_FEED": 0,
        "USGS": 0,
        "GDACS": 0
      },
      "last7_score": 63.561,
      "prev7_score": 7.304,
      "trend": "up",
      "trend_arrow": "🔺",
      "change_pct": 770.2,
      "place": "Vysočina Region, Czechia"
    },
    {
      "lon": 21.25,
      "lat": 52.25,
      "type": "hotspot_cell",
      "score": 56.776,
      "count": 183,
      "cell_deg": 0.5,
      "sources": {
        "GDELT": 183,
        "GDELT_DOC": 0,
        "DIRECT_FEED": 0,
        "USGS": 0,
        "GDACS": 0
      },
      "last7_score": 43.177,
      "prev7_score": 13.599,
      "trend": "up",
      "trend_arrow": "🔺",
      "change_pct": 217.5,
      "place": "Warsaw, Poland"
    }
  ]
}