{
  "generated_utc": "2026-05-06T14:17:50Z",
  "top": [
    {
      "lon": 14.25,
      "lat": 50.25,
      "type": "hotspot_cell",
      "score": 754.513,
      "count": 1358,
      "cell_deg": 0.5,
      "sources": {
        "GDELT": 178,
        "GDELT_DOC": 1176,
        "DIRECT_FEED": 4,
        "USGS": 0,
        "GDACS": 0
      },
      "last7_score": 740.213,
      "prev7_score": 14.3,
      "trend": "up",
      "trend_arrow": "🔺",
      "change_pct": 5076.4,
      "place": "SO ORP Kralupy nad Vltavou, Czechia"
    },
    {
      "lon": 26.25,
      "lat": 44.25,
      "type": "hotspot_cell",
      "score": 716.94,
      "count": 1201,
      "cell_deg": 0.5,
      "sources": {
        "GDELT": 146,
        "GDELT_DOC": 1049,
        "DIRECT_FEED": 6,
        "USGS": 0,
        "GDACS": 0
      },
      "last7_score": 707.059,
      "prev7_score": 9.881,
      "trend": "up",
      "trend_arrow": "🔺",
      "change_pct": 7055.9,
      "place": "Giurgiu, Romania"
    },
    {
      "lon": 25.25,
      "lat": 54.75,
      "type": "hotspot_cell",
      "score": 626.422,
      "count": 1032,
      "cell_deg": 0.5,
      "sources": {
        "GDELT": 61,
        "GDELT_DOC": 971,
        "DIRECT_FEED": 0,
        "USGS": 0,
        "GDACS": 0
      },
      "last7_score": 620.826,
      "prev7_score": 5.596,
      "trend": "up",
      "trend_arrow": "🔺",
      "change_pct": 10994.5,
      "place": "Vilnius County, Lithuania"
    },
    {
      "lon": 20.25,
      "lat": 52.25,
      "type": "hotspot_cell",
      "score": 211.108,
      "count": 516,
      "cell_deg": 0.5,
      "sources": {
        "GDELT": 516,
        "GDELT_DOC": 0,
        "DIRECT_FEED": 0,
        "USGS": 0,
        "GDACS": 0
      },
      "last7_score": 178.51,
      "prev7_score": 32.597,
      "trend": "up",
      "trend_arrow": "🔺",
      "change_pct": 447.6,
      "place": "Sochaczew County, Poland"
    },
    {
      "lon": 19.25,
      "lat": 47.75,
      "type": "hotspot_cell",
      "score": 183.676,
      "count": 367,
      "cell_deg": 0.5,
      "sources": {
        "GDELT": 204,
        "GDELT_DOC": 0,
        "DIRECT_FEED": 163,
        "USGS": 0,
        "GDACS": 0
      },
      "last7_score": 165.955,
      "prev7_score": 17.721,
      "trend": "up",
      "trend_arrow": "🔺",
      "change_pct": 836.5,
      "place": "Pest, Hungary"
    },
    {
      "lon": 25.25,
      "lat": 46.25,
      "type": "hotspot_cell",
      "score": 144.696,
      "count": 357,
      "cell_deg": 0.5,
      "sources": {
        "GDELT": 357,
        "GDELT_DOC": 0,
        "DIRECT_FEED": 0,
        "USGS": 0,
        "GDACS": 0
      },
      "last7_score": 119.664,
      "prev7_score": 25.032,
      "trend": "up",
      "trend_arrow": "🔺",
      "change_pct": 378.0,
      "place": "Harghita, Romania"
    },
    {
      "lon": 24.25,
      "lat": 56.75,
      "type": "hotspot_cell",
      "score": 107.985,
      "count": 158,
      "cell_deg": 0.5,
      "sources": {
        "GDELT": 36,
        "GDELT_DOC": 0,
        "DIRECT_FEED": 122,
        "USGS": 0,
        "GDACS": 0
      },
      "last7_score": 105.656,
      "prev7_score": 2.329,
      "trend": "up",
      "trend_arrow": "🔺",
      "change_pct": 4436.7,
      "place": "Ķekavas novads, Latvia"
    },
    {
      "lon": 20.25,
      "lat": 47.25,
      "type": "hotspot_cell",
      "score": 95.609,
      "count": 353,
      "cell_deg": 0.5,
      "sources": {
        "GDELT": 353,
        "GDELT_DOC": 0,
        "DIRECT_FEED": 0,
        "USGS": 0,
        "GDACS": 0
      },
      "last7_score": 66.84,
      "prev7_score": 28.769,
      "trend": "up",
      "trend_arrow": "🔺",
      "change_pct": 132.3,
      "place": "Jász-Nagykun-Szolnok, Hungary"
    },
    {
      "lon": 15.25,
      "lat": 49.75,
      "type": "hotspot_cell",
      "score": 66.845,
      "count": 197,
      "cell_deg": 0.5,
      "sources": {
        "GDELT": 197,
        "GDELT_DOC": 0,
        "DIRECT_FEED": 0,
        "USGS": 0,
        "GDACS": 0
      },
      "last7_score": 49.818,
      "prev7_score": 17.027,
      "trend": "up",
      "trend_arrow": "🔺",
      "change_pct": 192.6,
      "place": "Vysočina Region, Czechia"
    },
    {
      "lon": 21.25,
      "lat": 52.25,
      "type": "hotspot_cell",
      "score": 53.353,
      "count": 157,
      "cell_deg": 0.5,
      "sources": {
        "GDELT": 157,
        "GDELT_DOC": 0,
        "DIRECT_FEED": 0,
        "USGS": 0,
        "GDACS": 0
      },
      "last7_score": 40.316,
      "prev7_score": 13.037,
      "trend": "up",
      "trend_arrow": "🔺",
      "change_pct": 209.3,
      "place": "Warsaw, Poland"
    }
  ]
}