{
  "generated_utc": "2026-06-06T19:12:47Z",
  "top": [
    {
      "lon": 26.25,
      "lat": 44.25,
      "type": "hotspot_cell",
      "score": 744.387,
      "count": 1172,
      "cell_deg": 0.5,
      "sources": {
        "GDELT": 252,
        "GDELT_DOC": 913,
        "DIRECT_FEED": 7,
        "USGS": 0,
        "GDACS": 0
      },
      "last7_score": 717.786,
      "prev7_score": 26.601,
      "trend": "up",
      "trend_arrow": "🔺",
      "change_pct": 2598.3,
      "place": "Giurgiu, Romania"
    },
    {
      "lon": 25.25,
      "lat": 54.75,
      "type": "hotspot_cell",
      "score": 656.764,
      "count": 1037,
      "cell_deg": 0.5,
      "sources": {
        "GDELT": 86,
        "GDELT_DOC": 948,
        "DIRECT_FEED": 3,
        "USGS": 0,
        "GDACS": 0
      },
      "last7_score": 652.104,
      "prev7_score": 4.66,
      "trend": "up",
      "trend_arrow": "🔺",
      "change_pct": 13894.3,
      "place": "Vilnius County, Lithuania"
    },
    {
      "lon": 14.25,
      "lat": 50.25,
      "type": "hotspot_cell",
      "score": 572.5,
      "count": 995,
      "cell_deg": 0.5,
      "sources": {
        "GDELT": 128,
        "GDELT_DOC": 863,
        "DIRECT_FEED": 4,
        "USGS": 0,
        "GDACS": 0
      },
      "last7_score": 564.349,
      "prev7_score": 8.151,
      "trend": "up",
      "trend_arrow": "🔺",
      "change_pct": 6823.5,
      "place": "SO ORP Kralupy nad Vltavou, Czechia"
    },
    {
      "lon": 19.25,
      "lat": 47.75,
      "type": "hotspot_cell",
      "score": 225.396,
      "count": 442,
      "cell_deg": 0.5,
      "sources": {
        "GDELT": 257,
        "GDELT_DOC": 0,
        "DIRECT_FEED": 185,
        "USGS": 0,
        "GDACS": 0
      },
      "last7_score": 207.928,
      "prev7_score": 17.468,
      "trend": "up",
      "trend_arrow": "🔺",
      "change_pct": 1090.4,
      "place": "Pest, Hungary"
    },
    {
      "lon": 25.25,
      "lat": 46.25,
      "type": "hotspot_cell",
      "score": 198.646,
      "count": 516,
      "cell_deg": 0.5,
      "sources": {
        "GDELT": 516,
        "GDELT_DOC": 0,
        "DIRECT_FEED": 0,
        "USGS": 0,
        "GDACS": 0
      },
      "last7_score": 156.077,
      "prev7_score": 42.569,
      "trend": "up",
      "trend_arrow": "🔺",
      "change_pct": 266.6,
      "place": "Harghita, Romania"
    },
    {
      "lon": 20.25,
      "lat": 52.25,
      "type": "hotspot_cell",
      "score": 196.018,
      "count": 568,
      "cell_deg": 0.5,
      "sources": {
        "GDELT": 568,
        "GDELT_DOC": 0,
        "DIRECT_FEED": 0,
        "USGS": 0,
        "GDACS": 0
      },
      "last7_score": 159.052,
      "prev7_score": 36.966,
      "trend": "up",
      "trend_arrow": "🔺",
      "change_pct": 330.3,
      "place": "Sochaczew County, Poland"
    },
    {
      "lon": 24.25,
      "lat": 56.75,
      "type": "hotspot_cell",
      "score": 119.148,
      "count": 195,
      "cell_deg": 0.5,
      "sources": {
        "GDELT": 50,
        "GDELT_DOC": 0,
        "DIRECT_FEED": 145,
        "USGS": 0,
        "GDACS": 0
      },
      "last7_score": 115.732,
      "prev7_score": 3.417,
      "trend": "up",
      "trend_arrow": "🔺",
      "change_pct": 3287.2,
      "place": "Ķekavas novads, Latvia"
    },
    {
      "lon": 20.25,
      "lat": 47.25,
      "type": "hotspot_cell",
      "score": 94.541,
      "count": 260,
      "cell_deg": 0.5,
      "sources": {
        "GDELT": 260,
        "GDELT_DOC": 0,
        "DIRECT_FEED": 0,
        "USGS": 0,
        "GDACS": 0
      },
      "last7_score": 77.103,
      "prev7_score": 17.438,
      "trend": "up",
      "trend_arrow": "🔺",
      "change_pct": 342.2,
      "place": "Jász-Nagykun-Szolnok, Hungary"
    },
    {
      "lon": 21.25,
      "lat": 52.25,
      "type": "hotspot_cell",
      "score": 76.583,
      "count": 219,
      "cell_deg": 0.5,
      "sources": {
        "GDELT": 219,
        "GDELT_DOC": 0,
        "DIRECT_FEED": 0,
        "USGS": 0,
        "GDACS": 0
      },
      "last7_score": 60.553,
      "prev7_score": 16.03,
      "trend": "up",
      "trend_arrow": "🔺",
      "change_pct": 277.7,
      "place": "Warsaw, Poland"
    },
    {
      "lon": 15.25,
      "lat": 49.75,
      "type": "hotspot_cell",
      "score": 54.009,
      "count": 155,
      "cell_deg": 0.5,
      "sources": {
        "GDELT": 155,
        "GDELT_DOC": 0,
        "DIRECT_FEED": 0,
        "USGS": 0,
        "GDACS": 0
      },
      "last7_score": 42.628,
      "prev7_score": 11.381,
      "trend": "up",
      "trend_arrow": "🔺",
      "change_pct": 274.5,
      "place": "Vysočina Region, Czechia"
    }
  ]
}