{
  "generated_utc": "2026-04-06T02:39:41Z",
  "top": [
    {
      "lon": 26.25,
      "lat": 44.25,
      "type": "hotspot_cell",
      "score": 740.54,
      "count": 1362,
      "cell_deg": 0.5,
      "sources": {
        "GDELT": 152,
        "GDELT_DOC": 1205,
        "DIRECT_FEED": 5,
        "USGS": 0,
        "GDACS": 0
      },
      "last7_score": 731.969,
      "prev7_score": 8.571,
      "trend": "up",
      "trend_arrow": "🔺",
      "change_pct": 8440.2,
      "place": "Giurgiu, Romania"
    },
    {
      "lon": 14.25,
      "lat": 50.25,
      "type": "hotspot_cell",
      "score": 685.697,
      "count": 1374,
      "cell_deg": 0.5,
      "sources": {
        "GDELT": 108,
        "GDELT_DOC": 1264,
        "DIRECT_FEED": 2,
        "USGS": 0,
        "GDACS": 0
      },
      "last7_score": 676.93,
      "prev7_score": 8.766,
      "trend": "up",
      "trend_arrow": "🔺",
      "change_pct": 7622.0,
      "place": "SO ORP Kralupy nad Vltavou, Czechia"
    },
    {
      "lon": 25.25,
      "lat": 54.75,
      "type": "hotspot_cell",
      "score": 493.431,
      "count": 966,
      "cell_deg": 0.5,
      "sources": {
        "GDELT": 81,
        "GDELT_DOC": 885,
        "DIRECT_FEED": 0,
        "USGS": 0,
        "GDACS": 0
      },
      "last7_score": 486.704,
      "prev7_score": 6.727,
      "trend": "up",
      "trend_arrow": "🔺",
      "change_pct": 7134.7,
      "place": "Vilnius County, Lithuania"
    },
    {
      "lon": 19.25,
      "lat": 47.75,
      "type": "hotspot_cell",
      "score": 219.61,
      "count": 473,
      "cell_deg": 0.5,
      "sources": {
        "GDELT": 255,
        "GDELT_DOC": 0,
        "DIRECT_FEED": 218,
        "USGS": 0,
        "GDACS": 0
      },
      "last7_score": 201.72,
      "prev7_score": 17.89,
      "trend": "up",
      "trend_arrow": "🔺",
      "change_pct": 1027.5,
      "place": "Pest, Hungary"
    },
    {
      "lon": 20.25,
      "lat": 52.25,
      "type": "hotspot_cell",
      "score": 142.343,
      "count": 448,
      "cell_deg": 0.5,
      "sources": {
        "GDELT": 448,
        "GDELT_DOC": 0,
        "DIRECT_FEED": 0,
        "USGS": 0,
        "GDACS": 0
      },
      "last7_score": 105.945,
      "prev7_score": 36.398,
      "trend": "up",
      "trend_arrow": "🔺",
      "change_pct": 191.1,
      "place": "Sochaczew County, Poland"
    },
    {
      "lon": 20.25,
      "lat": 47.25,
      "type": "hotspot_cell",
      "score": 110.886,
      "count": 298,
      "cell_deg": 0.5,
      "sources": {
        "GDELT": 298,
        "GDELT_DOC": 0,
        "DIRECT_FEED": 0,
        "USGS": 0,
        "GDACS": 0
      },
      "last7_score": 91.104,
      "prev7_score": 19.783,
      "trend": "up",
      "trend_arrow": "🔺",
      "change_pct": 360.5,
      "place": "Jász-Nagykun-Szolnok, Hungary"
    },
    {
      "lon": 24.25,
      "lat": 56.75,
      "type": "hotspot_cell",
      "score": 85.206,
      "count": 167,
      "cell_deg": 0.5,
      "sources": {
        "GDELT": 39,
        "GDELT_DOC": 0,
        "DIRECT_FEED": 128,
        "USGS": 0,
        "GDACS": 0
      },
      "last7_score": 80.991,
      "prev7_score": 4.215,
      "trend": "up",
      "trend_arrow": "🔺",
      "change_pct": 1821.3,
      "place": "Ķekavas novads, Latvia"
    },
    {
      "lon": 25.25,
      "lat": 46.25,
      "type": "hotspot_cell",
      "score": 83.119,
      "count": 280,
      "cell_deg": 0.5,
      "sources": {
        "GDELT": 280,
        "GDELT_DOC": 0,
        "DIRECT_FEED": 0,
        "USGS": 0,
        "GDACS": 0
      },
      "last7_score": 63.104,
      "prev7_score": 20.015,
      "trend": "up",
      "trend_arrow": "🔺",
      "change_pct": 215.3,
      "place": "Harghita, Romania"
    },
    {
      "lon": 27.75,
      "lat": 47.25,
      "type": "hotspot_cell",
      "score": 43.029,
      "count": 84,
      "cell_deg": 0.5,
      "sources": {
        "GDELT": 0,
        "GDELT_DOC": 84,
        "DIRECT_FEED": 0,
        "USGS": 0,
        "GDACS": 0
      },
      "last7_score": 43.029,
      "prev7_score": 0.0,
      "trend": "new",
      "trend_arrow": "🆕",
      "change_pct": null,
      "place": "Iași, Romania"
    },
    {
      "lon": 21.25,
      "lat": 52.25,
      "type": "hotspot_cell",
      "score": 36.119,
      "count": 121,
      "cell_deg": 0.5,
      "sources": {
        "GDELT": 121,
        "GDELT_DOC": 0,
        "DIRECT_FEED": 0,
        "USGS": 0,
        "GDACS": 0
      },
      "last7_score": 27.745,
      "prev7_score": 8.373,
      "trend": "up",
      "trend_arrow": "🔺",
      "change_pct": 231.4,
      "place": "Warsaw, Poland"
    }
  ]
}