{
  "generated_utc": "2026-03-19T07:07:44Z",
  "top": [
    {
      "lon": 14.25,
      "lat": 50.25,
      "type": "hotspot_cell",
      "score": 883.666,
      "count": 1469,
      "cell_deg": 0.5,
      "sources": {
        "GDELT": 110,
        "GDELT_DOC": 1355,
        "DIRECT_FEED": 4,
        "USGS": 0,
        "GDACS": 0
      },
      "last7_score": 875.491,
      "prev7_score": 8.175,
      "trend": "up",
      "trend_arrow": "🔺",
      "change_pct": 10609.8,
      "place": "SO ORP Kralupy nad Vltavou, Czechia"
    },
    {
      "lon": 26.25,
      "lat": 44.25,
      "type": "hotspot_cell",
      "score": 851.208,
      "count": 1356,
      "cell_deg": 0.5,
      "sources": {
        "GDELT": 174,
        "GDELT_DOC": 1180,
        "DIRECT_FEED": 2,
        "USGS": 0,
        "GDACS": 0
      },
      "last7_score": 834.835,
      "prev7_score": 16.373,
      "trend": "up",
      "trend_arrow": "🔺",
      "change_pct": 4998.8,
      "place": "Giurgiu, Romania"
    },
    {
      "lon": 25.25,
      "lat": 54.75,
      "type": "hotspot_cell",
      "score": 558.742,
      "count": 947,
      "cell_deg": 0.5,
      "sources": {
        "GDELT": 71,
        "GDELT_DOC": 876,
        "DIRECT_FEED": 0,
        "USGS": 0,
        "GDACS": 0
      },
      "last7_score": 551.547,
      "prev7_score": 7.194,
      "trend": "up",
      "trend_arrow": "🔺",
      "change_pct": 7566.6,
      "place": "Vilnius County, Lithuania"
    },
    {
      "lon": 19.25,
      "lat": 47.75,
      "type": "hotspot_cell",
      "score": 298.251,
      "count": 632,
      "cell_deg": 0.5,
      "sources": {
        "GDELT": 427,
        "GDELT_DOC": 0,
        "DIRECT_FEED": 205,
        "USGS": 0,
        "GDACS": 0
      },
      "last7_score": 262.607,
      "prev7_score": 35.643,
      "trend": "up",
      "trend_arrow": "🔺",
      "change_pct": 636.8,
      "place": "Pest, Hungary"
    },
    {
      "lon": 20.25,
      "lat": 52.25,
      "type": "hotspot_cell",
      "score": 167.685,
      "count": 420,
      "cell_deg": 0.5,
      "sources": {
        "GDELT": 420,
        "GDELT_DOC": 0,
        "DIRECT_FEED": 0,
        "USGS": 0,
        "GDACS": 0
      },
      "last7_score": 139.171,
      "prev7_score": 28.514,
      "trend": "up",
      "trend_arrow": "🔺",
      "change_pct": 388.1,
      "place": "Sochaczew County, Poland"
    },
    {
      "lon": 20.25,
      "lat": 47.25,
      "type": "hotspot_cell",
      "score": 131.828,
      "count": 352,
      "cell_deg": 0.5,
      "sources": {
        "GDELT": 352,
        "GDELT_DOC": 0,
        "DIRECT_FEED": 0,
        "USGS": 0,
        "GDACS": 0
      },
      "last7_score": 102.962,
      "prev7_score": 28.867,
      "trend": "up",
      "trend_arrow": "🔺",
      "change_pct": 256.7,
      "place": "Jász-Nagykun-Szolnok, Hungary"
    },
    {
      "lon": 24.25,
      "lat": 56.75,
      "type": "hotspot_cell",
      "score": 114.394,
      "count": 168,
      "cell_deg": 0.5,
      "sources": {
        "GDELT": 33,
        "GDELT_DOC": 0,
        "DIRECT_FEED": 135,
        "USGS": 0,
        "GDACS": 0
      },
      "last7_score": 112.078,
      "prev7_score": 2.316,
      "trend": "up",
      "trend_arrow": "🔺",
      "change_pct": 4738.7,
      "place": "Ķekavas novads, Latvia"
    },
    {
      "lon": 25.25,
      "lat": 46.25,
      "type": "hotspot_cell",
      "score": 113.339,
      "count": 289,
      "cell_deg": 0.5,
      "sources": {
        "GDELT": 289,
        "GDELT_DOC": 0,
        "DIRECT_FEED": 0,
        "USGS": 0,
        "GDACS": 0
      },
      "last7_score": 86.293,
      "prev7_score": 27.046,
      "trend": "up",
      "trend_arrow": "🔺",
      "change_pct": 219.1,
      "place": "Harghita, Romania"
    },
    {
      "lon": 21.25,
      "lat": 52.25,
      "type": "hotspot_cell",
      "score": 72.411,
      "count": 192,
      "cell_deg": 0.5,
      "sources": {
        "GDELT": 192,
        "GDELT_DOC": 0,
        "DIRECT_FEED": 0,
        "USGS": 0,
        "GDACS": 0
      },
      "last7_score": 56.299,
      "prev7_score": 16.111,
      "trend": "up",
      "trend_arrow": "🔺",
      "change_pct": 249.4,
      "place": "Warsaw, Poland"
    },
    {
      "lon": 27.75,
      "lat": 47.25,
      "type": "hotspot_cell",
      "score": 59.909,
      "count": 99,
      "cell_deg": 0.5,
      "sources": {
        "GDELT": 0,
        "GDELT_DOC": 99,
        "DIRECT_FEED": 0,
        "USGS": 0,
        "GDACS": 0
      },
      "last7_score": 59.909,
      "prev7_score": 0.0,
      "trend": "new",
      "trend_arrow": "🆕",
      "change_pct": null,
      "place": "Iași, Romania"
    }
  ]
}