{
  "generated_utc": "2026-04-22T07:55:56Z",
  "top": [
    {
      "lon": 14.25,
      "lat": 50.25,
      "type": "hotspot_cell",
      "score": 879.875,
      "count": 1414,
      "cell_deg": 0.5,
      "sources": {
        "GDELT": 142,
        "GDELT_DOC": 1269,
        "DIRECT_FEED": 3,
        "USGS": 0,
        "GDACS": 0
      },
      "last7_score": 873.518,
      "prev7_score": 6.356,
      "trend": "up",
      "trend_arrow": "🔺",
      "change_pct": 13642.2,
      "place": "SO ORP Kralupy nad Vltavou, Czechia"
    },
    {
      "lon": 26.25,
      "lat": 44.25,
      "type": "hotspot_cell",
      "score": 766.179,
      "count": 1245,
      "cell_deg": 0.5,
      "sources": {
        "GDELT": 112,
        "GDELT_DOC": 1129,
        "DIRECT_FEED": 4,
        "USGS": 0,
        "GDACS": 0
      },
      "last7_score": 760.77,
      "prev7_score": 5.409,
      "trend": "up",
      "trend_arrow": "🔺",
      "change_pct": 13965.9,
      "place": "Giurgiu, Romania"
    },
    {
      "lon": 25.25,
      "lat": 54.75,
      "type": "hotspot_cell",
      "score": 602.164,
      "count": 947,
      "cell_deg": 0.5,
      "sources": {
        "GDELT": 71,
        "GDELT_DOC": 876,
        "DIRECT_FEED": 0,
        "USGS": 0,
        "GDACS": 0
      },
      "last7_score": 595.866,
      "prev7_score": 6.299,
      "trend": "up",
      "trend_arrow": "🔺",
      "change_pct": 9360.3,
      "place": "Vilnius County, Lithuania"
    },
    {
      "lon": 19.25,
      "lat": 47.75,
      "type": "hotspot_cell",
      "score": 453.776,
      "count": 1312,
      "cell_deg": 0.5,
      "sources": {
        "GDELT": 1043,
        "GDELT_DOC": 0,
        "DIRECT_FEED": 269,
        "USGS": 0,
        "GDACS": 0
      },
      "last7_score": 337.795,
      "prev7_score": 115.981,
      "trend": "up",
      "trend_arrow": "🔺",
      "change_pct": 191.3,
      "place": "Pest, Hungary"
    },
    {
      "lon": 20.25,
      "lat": 47.25,
      "type": "hotspot_cell",
      "score": 272.688,
      "count": 818,
      "cell_deg": 0.5,
      "sources": {
        "GDELT": 818,
        "GDELT_DOC": 0,
        "DIRECT_FEED": 0,
        "USGS": 0,
        "GDACS": 0
      },
      "last7_score": 194.034,
      "prev7_score": 78.655,
      "trend": "up",
      "trend_arrow": "🔺",
      "change_pct": 146.7,
      "place": "Jász-Nagykun-Szolnok, Hungary"
    },
    {
      "lon": 20.25,
      "lat": 52.25,
      "type": "hotspot_cell",
      "score": 162.533,
      "count": 425,
      "cell_deg": 0.5,
      "sources": {
        "GDELT": 425,
        "GDELT_DOC": 0,
        "DIRECT_FEED": 0,
        "USGS": 0,
        "GDACS": 0
      },
      "last7_score": 132.979,
      "prev7_score": 29.554,
      "trend": "up",
      "trend_arrow": "🔺",
      "change_pct": 350.0,
      "place": "Sochaczew County, Poland"
    },
    {
      "lon": 24.25,
      "lat": 56.75,
      "type": "hotspot_cell",
      "score": 117.357,
      "count": 174,
      "cell_deg": 0.5,
      "sources": {
        "GDELT": 34,
        "GDELT_DOC": 0,
        "DIRECT_FEED": 140,
        "USGS": 0,
        "GDACS": 0
      },
      "last7_score": 114.097,
      "prev7_score": 3.26,
      "trend": "up",
      "trend_arrow": "🔺",
      "change_pct": 3399.5,
      "place": "Ķekavas novads, Latvia"
    },
    {
      "lon": 25.25,
      "lat": 46.25,
      "type": "hotspot_cell",
      "score": 86.051,
      "count": 229,
      "cell_deg": 0.5,
      "sources": {
        "GDELT": 229,
        "GDELT_DOC": 0,
        "DIRECT_FEED": 0,
        "USGS": 0,
        "GDACS": 0
      },
      "last7_score": 65.77,
      "prev7_score": 20.281,
      "trend": "up",
      "trend_arrow": "🔺",
      "change_pct": 224.3,
      "place": "Harghita, Romania"
    },
    {
      "lon": 15.25,
      "lat": 49.75,
      "type": "hotspot_cell",
      "score": 77.659,
      "count": 196,
      "cell_deg": 0.5,
      "sources": {
        "GDELT": 196,
        "GDELT_DOC": 0,
        "DIRECT_FEED": 0,
        "USGS": 0,
        "GDACS": 0
      },
      "last7_score": 63.059,
      "prev7_score": 14.6,
      "trend": "up",
      "trend_arrow": "🔺",
      "change_pct": 331.9,
      "place": "Vysočina Region, Czechia"
    },
    {
      "lon": 21.25,
      "lat": 52.25,
      "type": "hotspot_cell",
      "score": 62.885,
      "count": 177,
      "cell_deg": 0.5,
      "sources": {
        "GDELT": 177,
        "GDELT_DOC": 0,
        "DIRECT_FEED": 0,
        "USGS": 0,
        "GDACS": 0
      },
      "last7_score": 44.057,
      "prev7_score": 18.828,
      "trend": "up",
      "trend_arrow": "🔺",
      "change_pct": 134.0,
      "place": "Warsaw, Poland"
    }
  ]
}