{
  "generated_utc": "2026-06-15T02:57:47Z",
  "top": [
    {
      "lon": 14.25,
      "lat": 50.25,
      "type": "hotspot_cell",
      "score": 536.473,
      "count": 964,
      "cell_deg": 0.5,
      "sources": {
        "GDELT": 90,
        "GDELT_DOC": 869,
        "DIRECT_FEED": 5,
        "USGS": 0,
        "GDACS": 0
      },
      "last7_score": 530.7,
      "prev7_score": 5.773,
      "trend": "up",
      "trend_arrow": "🔺",
      "change_pct": 9092.7,
      "place": "SO ORP Kralupy nad Vltavou, Czechia"
    },
    {
      "lon": 26.25,
      "lat": 44.25,
      "type": "hotspot_cell",
      "score": 519.117,
      "count": 912,
      "cell_deg": 0.5,
      "sources": {
        "GDELT": 170,
        "GDELT_DOC": 729,
        "DIRECT_FEED": 13,
        "USGS": 0,
        "GDACS": 0
      },
      "last7_score": 505.774,
      "prev7_score": 13.343,
      "trend": "up",
      "trend_arrow": "🔺",
      "change_pct": 3690.7,
      "place": "Giurgiu, Romania"
    },
    {
      "lon": 25.25,
      "lat": 54.75,
      "type": "hotspot_cell",
      "score": 388.568,
      "count": 718,
      "cell_deg": 0.5,
      "sources": {
        "GDELT": 60,
        "GDELT_DOC": 658,
        "DIRECT_FEED": 0,
        "USGS": 0,
        "GDACS": 0
      },
      "last7_score": 384.0,
      "prev7_score": 4.568,
      "trend": "up",
      "trend_arrow": "🔺",
      "change_pct": 8305.8,
      "place": "Vilnius County, Lithuania"
    },
    {
      "lon": 19.25,
      "lat": 47.75,
      "type": "hotspot_cell",
      "score": 158.928,
      "count": 356,
      "cell_deg": 0.5,
      "sources": {
        "GDELT": 187,
        "GDELT_DOC": 0,
        "DIRECT_FEED": 169,
        "USGS": 0,
        "GDACS": 0
      },
      "last7_score": 143.875,
      "prev7_score": 15.053,
      "trend": "up",
      "trend_arrow": "🔺",
      "change_pct": 855.8,
      "place": "Pest, Hungary"
    },
    {
      "lon": 20.25,
      "lat": 52.25,
      "type": "hotspot_cell",
      "score": 138.481,
      "count": 434,
      "cell_deg": 0.5,
      "sources": {
        "GDELT": 434,
        "GDELT_DOC": 0,
        "DIRECT_FEED": 0,
        "USGS": 0,
        "GDACS": 0
      },
      "last7_score": 106.659,
      "prev7_score": 31.823,
      "trend": "up",
      "trend_arrow": "🔺",
      "change_pct": 235.2,
      "place": "Sochaczew County, Poland"
    },
    {
      "lon": 25.25,
      "lat": 46.25,
      "type": "hotspot_cell",
      "score": 122.667,
      "count": 407,
      "cell_deg": 0.5,
      "sources": {
        "GDELT": 407,
        "GDELT_DOC": 0,
        "DIRECT_FEED": 0,
        "USGS": 0,
        "GDACS": 0
      },
      "last7_score": 87.035,
      "prev7_score": 35.631,
      "trend": "up",
      "trend_arrow": "🔺",
      "change_pct": 144.3,
      "place": "Harghita, Romania"
    },
    {
      "lon": 24.25,
      "lat": 56.75,
      "type": "hotspot_cell",
      "score": 101.707,
      "count": 170,
      "cell_deg": 0.5,
      "sources": {
        "GDELT": 41,
        "GDELT_DOC": 0,
        "DIRECT_FEED": 129,
        "USGS": 0,
        "GDACS": 0
      },
      "last7_score": 98.465,
      "prev7_score": 3.242,
      "trend": "up",
      "trend_arrow": "🔺",
      "change_pct": 2936.9,
      "place": "Ķekavas novads, Latvia"
    },
    {
      "lon": 20.25,
      "lat": 47.25,
      "type": "hotspot_cell",
      "score": 76.9,
      "count": 234,
      "cell_deg": 0.5,
      "sources": {
        "GDELT": 234,
        "GDELT_DOC": 0,
        "DIRECT_FEED": 0,
        "USGS": 0,
        "GDACS": 0
      },
      "last7_score": 59.601,
      "prev7_score": 17.299,
      "trend": "up",
      "trend_arrow": "🔺",
      "change_pct": 244.5,
      "place": "Jász-Nagykun-Szolnok, Hungary"
    },
    {
      "lon": 27.75,
      "lat": 47.25,
      "type": "hotspot_cell",
      "score": 60.507,
      "count": 88,
      "cell_deg": 0.5,
      "sources": {
        "GDELT": 0,
        "GDELT_DOC": 88,
        "DIRECT_FEED": 0,
        "USGS": 0,
        "GDACS": 0
      },
      "last7_score": 60.507,
      "prev7_score": 0.0,
      "trend": "new",
      "trend_arrow": "🆕",
      "change_pct": null,
      "place": "Iași, Romania"
    },
    {
      "lon": 17.25,
      "lat": 48.25,
      "type": "hotspot_cell",
      "score": 55.447,
      "count": 74,
      "cell_deg": 0.5,
      "sources": {
        "GDELT": 74,
        "GDELT_DOC": 0,
        "DIRECT_FEED": 0,
        "USGS": 0,
        "GDACS": 0
      },
      "last7_score": 54.421,
      "prev7_score": 1.026,
      "trend": "up",
      "trend_arrow": "🔺",
      "change_pct": 5203.5,
      "place": "District of Pezinok, Slovakia"
    }
  ]
}