{
  "generated_utc": "2026-05-12T14:34:01Z",
  "top": [
    {
      "lon": 14.25,
      "lat": 50.25,
      "type": "hotspot_cell",
      "score": 865.449,
      "count": 1358,
      "cell_deg": 0.5,
      "sources": {
        "GDELT": 132,
        "GDELT_DOC": 1223,
        "DIRECT_FEED": 3,
        "USGS": 0,
        "GDACS": 0
      },
      "last7_score": 855.154,
      "prev7_score": 10.295,
      "trend": "up",
      "trend_arrow": "🔺",
      "change_pct": 8206.6,
      "place": "SO ORP Kralupy nad Vltavou, Czechia"
    },
    {
      "lon": 26.25,
      "lat": 44.25,
      "type": "hotspot_cell",
      "score": 792.928,
      "count": 1283,
      "cell_deg": 0.5,
      "sources": {
        "GDELT": 152,
        "GDELT_DOC": 1121,
        "DIRECT_FEED": 10,
        "USGS": 0,
        "GDACS": 0
      },
      "last7_score": 781.818,
      "prev7_score": 11.111,
      "trend": "up",
      "trend_arrow": "🔺",
      "change_pct": 6936.7,
      "place": "Giurgiu, Romania"
    },
    {
      "lon": 25.25,
      "lat": 54.75,
      "type": "hotspot_cell",
      "score": 574.032,
      "count": 934,
      "cell_deg": 0.5,
      "sources": {
        "GDELT": 63,
        "GDELT_DOC": 871,
        "DIRECT_FEED": 0,
        "USGS": 0,
        "GDACS": 0
      },
      "last7_score": 571.187,
      "prev7_score": 2.845,
      "trend": "up",
      "trend_arrow": "🔺",
      "change_pct": 19979.2,
      "place": "Vilnius County, Lithuania"
    },
    {
      "lon": 19.25,
      "lat": 47.75,
      "type": "hotspot_cell",
      "score": 280.033,
      "count": 498,
      "cell_deg": 0.5,
      "sources": {
        "GDELT": 279,
        "GDELT_DOC": 0,
        "DIRECT_FEED": 219,
        "USGS": 0,
        "GDACS": 0
      },
      "last7_score": 269.553,
      "prev7_score": 10.481,
      "trend": "up",
      "trend_arrow": "🔺",
      "change_pct": 2471.9,
      "place": "Pest, Hungary"
    },
    {
      "lon": 20.25,
      "lat": 52.25,
      "type": "hotspot_cell",
      "score": 184.366,
      "count": 528,
      "cell_deg": 0.5,
      "sources": {
        "GDELT": 528,
        "GDELT_DOC": 0,
        "DIRECT_FEED": 0,
        "USGS": 0,
        "GDACS": 0
      },
      "last7_score": 146.686,
      "prev7_score": 37.68,
      "trend": "up",
      "trend_arrow": "🔺",
      "change_pct": 289.3,
      "place": "Sochaczew County, Poland"
    },
    {
      "lon": 20.25,
      "lat": 47.25,
      "type": "hotspot_cell",
      "score": 124.853,
      "count": 292,
      "cell_deg": 0.5,
      "sources": {
        "GDELT": 292,
        "GDELT_DOC": 0,
        "DIRECT_FEED": 0,
        "USGS": 0,
        "GDACS": 0
      },
      "last7_score": 110.351,
      "prev7_score": 14.503,
      "trend": "up",
      "trend_arrow": "🔺",
      "change_pct": 660.9,
      "place": "Jász-Nagykun-Szolnok, Hungary"
    },
    {
      "lon": 24.25,
      "lat": 56.75,
      "type": "hotspot_cell",
      "score": 110.299,
      "count": 163,
      "cell_deg": 0.5,
      "sources": {
        "GDELT": 26,
        "GDELT_DOC": 0,
        "DIRECT_FEED": 137,
        "USGS": 0,
        "GDACS": 0
      },
      "last7_score": 107.27,
      "prev7_score": 3.029,
      "trend": "up",
      "trend_arrow": "🔺",
      "change_pct": 3441.2,
      "place": "Ķekavas novads, Latvia"
    },
    {
      "lon": 25.25,
      "lat": 46.25,
      "type": "hotspot_cell",
      "score": 109.059,
      "count": 334,
      "cell_deg": 0.5,
      "sources": {
        "GDELT": 334,
        "GDELT_DOC": 0,
        "DIRECT_FEED": 0,
        "USGS": 0,
        "GDACS": 0
      },
      "last7_score": 83.066,
      "prev7_score": 25.993,
      "trend": "up",
      "trend_arrow": "🔺",
      "change_pct": 219.6,
      "place": "Harghita, Romania"
    },
    {
      "lon": 21.25,
      "lat": 52.25,
      "type": "hotspot_cell",
      "score": 64.372,
      "count": 162,
      "cell_deg": 0.5,
      "sources": {
        "GDELT": 162,
        "GDELT_DOC": 0,
        "DIRECT_FEED": 0,
        "USGS": 0,
        "GDACS": 0
      },
      "last7_score": 55.755,
      "prev7_score": 8.617,
      "trend": "up",
      "trend_arrow": "🔺",
      "change_pct": 547.0,
      "place": "Warsaw, Poland"
    },
    {
      "lon": 27.75,
      "lat": 47.25,
      "type": "hotspot_cell",
      "score": 64.292,
      "count": 102,
      "cell_deg": 0.5,
      "sources": {
        "GDELT": 0,
        "GDELT_DOC": 102,
        "DIRECT_FEED": 0,
        "USGS": 0,
        "GDACS": 0
      },
      "last7_score": 64.292,
      "prev7_score": 0.0,
      "trend": "new",
      "trend_arrow": "🆕",
      "change_pct": null,
      "place": "Iași, Romania"
    }
  ]
}