{
  "generated_utc": "2026-03-03T13:03:28Z",
  "top": [
    {
      "lon": 21.25,
      "lat": 52.25,
      "type": "hotspot_cell",
      "score": 19.038,
      "count": 47,
      "cell_deg": 0.5,
      "sources": {
        "GDELT": 47,
        "USGS": 0,
        "GDACS": 0
      },
      "last7_score": 16.815,
      "prev7_score": 2.223,
      "trend": "up",
      "trend_arrow": "🔺",
      "change_pct": 656.5,
      "place": "Warsaw, Poland"
    },
    {
      "lon": 20.25,
      "lat": 52.25,
      "type": "hotspot_cell",
      "score": 17.252,
      "count": 48,
      "cell_deg": 0.5,
      "sources": {
        "GDELT": 48,
        "USGS": 0,
        "GDACS": 0
      },
      "last7_score": 14.03,
      "prev7_score": 3.222,
      "trend": "up",
      "trend_arrow": "🔺",
      "change_pct": 335.5,
      "place": "Sochaczew County, Poland"
    },
    {
      "lon": 20.25,
      "lat": 47.25,
      "type": "hotspot_cell",
      "score": 16.589,
      "count": 42,
      "cell_deg": 0.5,
      "sources": {
        "GDELT": 42,
        "USGS": 0,
        "GDACS": 0
      },
      "last7_score": 13.862,
      "prev7_score": 2.727,
      "trend": "up",
      "trend_arrow": "🔺",
      "change_pct": 408.3,
      "place": "Jász-Nagykun-Szolnok, Hungary"
    },
    {
      "lon": 14.25,
      "lat": 50.25,
      "type": "hotspot_cell",
      "score": 14.987,
      "count": 37,
      "cell_deg": 0.5,
      "sources": {
        "GDELT": 37,
        "USGS": 0,
        "GDACS": 0
      },
      "last7_score": 12.939,
      "prev7_score": 2.048,
      "trend": "up",
      "trend_arrow": "🔺",
      "change_pct": 531.7,
      "place": "SO ORP Kralupy nad Vltavou, Czechia"
    },
    {
      "lon": 26.25,
      "lat": 59.25,
      "type": "hotspot_cell",
      "score": 14.397,
      "count": 34,
      "cell_deg": 0.5,
      "sources": {
        "GDELT": 34,
        "USGS": 0,
        "GDACS": 0
      },
      "last7_score": 12.335,
      "prev7_score": 2.062,
      "trend": "up",
      "trend_arrow": "🔺",
      "change_pct": 498.2,
      "place": "Lääne-Viru County, Estonia"
    },
    {
      "lon": 19.25,
      "lat": 47.75,
      "type": "hotspot_cell",
      "score": 14.393,
      "count": 39,
      "cell_deg": 0.5,
      "sources": {
        "GDELT": 39,
        "USGS": 0,
        "GDACS": 0
      },
      "last7_score": 11.731,
      "prev7_score": 2.662,
      "trend": "up",
      "trend_arrow": "🔺",
      "change_pct": 340.8,
      "place": "Pest, Hungary"
    },
    {
      "lon": 25.25,
      "lat": 46.25,
      "type": "hotspot_cell",
      "score": 13.266,
      "count": 35,
      "cell_deg": 0.5,
      "sources": {
        "GDELT": 35,
        "USGS": 0,
        "GDACS": 0
      },
      "last7_score": 11.271,
      "prev7_score": 1.995,
      "trend": "up",
      "trend_arrow": "🔺",
      "change_pct": 464.9,
      "place": "Harghita, Romania"
    },
    {
      "lon": 15.25,
      "lat": 49.75,
      "type": "hotspot_cell",
      "score": 12.778,
      "count": 35,
      "cell_deg": 0.5,
      "sources": {
        "GDELT": 35,
        "USGS": 0,
        "GDACS": 0
      },
      "last7_score": 10.204,
      "prev7_score": 2.574,
      "trend": "up",
      "trend_arrow": "🔺",
      "change_pct": 296.5,
      "place": "Vysočina Region, Czechia"
    },
    {
      "lon": 25.25,
      "lat": 57.25,
      "type": "hotspot_cell",
      "score": 11.7,
      "count": 33,
      "cell_deg": 0.5,
      "sources": {
        "GDELT": 33,
        "USGS": 0,
        "GDACS": 0
      },
      "last7_score": 9.937,
      "prev7_score": 1.763,
      "trend": "up",
      "trend_arrow": "🔺",
      "change_pct": 463.7,
      "place": "Cēsu novads, Latvia"
    },
    {
      "lon": 19.75,
      "lat": 48.75,
      "type": "hotspot_cell",
      "score": 10.36,
      "count": 31,
      "cell_deg": 0.5,
      "sources": {
        "GDELT": 31,
        "USGS": 0,
        "GDACS": 0
      },
      "last7_score": 8.124,
      "prev7_score": 2.237,
      "trend": "up",
      "trend_arrow": "🔺",
      "change_pct": 263.2,
      "place": "District of Brezno, Slovakia"
    }
  ]
}