{
  "generated_utc": "2026-04-28T03:04:42Z",
  "top": [
    {
      "lon": 14.25,
      "lat": 50.25,
      "type": "hotspot_cell",
      "score": 970.581,
      "count": 1782,
      "cell_deg": 0.5,
      "sources": {
        "GDELT": 187,
        "GDELT_DOC": 1593,
        "DIRECT_FEED": 2,
        "USGS": 0,
        "GDACS": 0
      },
      "last7_score": 955.785,
      "prev7_score": 14.796,
      "trend": "up",
      "trend_arrow": "🔺",
      "change_pct": 6359.6,
      "place": "SO ORP Kralupy nad Vltavou, Czechia"
    },
    {
      "lon": 26.25,
      "lat": 44.25,
      "type": "hotspot_cell",
      "score": 957.642,
      "count": 1580,
      "cell_deg": 0.5,
      "sources": {
        "GDELT": 145,
        "GDELT_DOC": 1428,
        "DIRECT_FEED": 7,
        "USGS": 0,
        "GDACS": 0
      },
      "last7_score": 944.698,
      "prev7_score": 12.944,
      "trend": "up",
      "trend_arrow": "🔺",
      "change_pct": 7198.3,
      "place": "Giurgiu, Romania"
    },
    {
      "lon": 25.25,
      "lat": 54.75,
      "type": "hotspot_cell",
      "score": 675.424,
      "count": 1171,
      "cell_deg": 0.5,
      "sources": {
        "GDELT": 65,
        "GDELT_DOC": 1106,
        "DIRECT_FEED": 0,
        "USGS": 0,
        "GDACS": 0
      },
      "last7_score": 670.634,
      "prev7_score": 4.79,
      "trend": "up",
      "trend_arrow": "🔺",
      "change_pct": 13899.8,
      "place": "Vilnius County, Lithuania"
    },
    {
      "lon": 19.25,
      "lat": 47.75,
      "type": "hotspot_cell",
      "score": 271.527,
      "count": 687,
      "cell_deg": 0.5,
      "sources": {
        "GDELT": 459,
        "GDELT_DOC": 0,
        "DIRECT_FEED": 228,
        "USGS": 0,
        "GDACS": 0
      },
      "last7_score": 226.895,
      "prev7_score": 44.632,
      "trend": "up",
      "trend_arrow": "🔺",
      "change_pct": 408.4,
      "place": "Pest, Hungary"
    },
    {
      "lon": 20.25,
      "lat": 47.25,
      "type": "hotspot_cell",
      "score": 189.534,
      "count": 608,
      "cell_deg": 0.5,
      "sources": {
        "GDELT": 608,
        "GDELT_DOC": 0,
        "DIRECT_FEED": 0,
        "USGS": 0,
        "GDACS": 0
      },
      "last7_score": 137.541,
      "prev7_score": 51.993,
      "trend": "up",
      "trend_arrow": "🔺",
      "change_pct": 164.5,
      "place": "Jász-Nagykun-Szolnok, Hungary"
    },
    {
      "lon": 20.25,
      "lat": 52.25,
      "type": "hotspot_cell",
      "score": 158.576,
      "count": 436,
      "cell_deg": 0.5,
      "sources": {
        "GDELT": 436,
        "GDELT_DOC": 0,
        "DIRECT_FEED": 0,
        "USGS": 0,
        "GDACS": 0
      },
      "last7_score": 125.764,
      "prev7_score": 32.812,
      "trend": "up",
      "trend_arrow": "🔺",
      "change_pct": 283.3,
      "place": "Sochaczew County, Poland"
    },
    {
      "lon": 26.75,
      "lat": 47.75,
      "type": "hotspot_cell",
      "score": 120.407,
      "count": 169,
      "cell_deg": 0.5,
      "sources": {
        "GDELT": 2,
        "GDELT_DOC": 164,
        "DIRECT_FEED": 3,
        "USGS": 0,
        "GDACS": 0
      },
      "last7_score": 120.099,
      "prev7_score": 0.308,
      "trend": "up",
      "trend_arrow": "🔺",
      "change_pct": 38883.4,
      "place": "Botoșani, Romania"
    },
    {
      "lon": 24.25,
      "lat": 56.75,
      "type": "hotspot_cell",
      "score": 105.051,
      "count": 170,
      "cell_deg": 0.5,
      "sources": {
        "GDELT": 30,
        "GDELT_DOC": 0,
        "DIRECT_FEED": 140,
        "USGS": 0,
        "GDACS": 0
      },
      "last7_score": 103.068,
      "prev7_score": 1.982,
      "trend": "up",
      "trend_arrow": "🔺",
      "change_pct": 5099.3,
      "place": "Ķekavas novads, Latvia"
    },
    {
      "lon": 25.25,
      "lat": 46.25,
      "type": "hotspot_cell",
      "score": 95.936,
      "count": 263,
      "cell_deg": 0.5,
      "sources": {
        "GDELT": 263,
        "GDELT_DOC": 0,
        "DIRECT_FEED": 0,
        "USGS": 0,
        "GDACS": 0
      },
      "last7_score": 77.138,
      "prev7_score": 18.797,
      "trend": "up",
      "trend_arrow": "🔺",
      "change_pct": 310.4,
      "place": "Harghita, Romania"
    },
    {
      "lon": 22.25,
      "lat": 55.25,
      "type": "hotspot_cell",
      "score": 71.687,
      "count": 112,
      "cell_deg": 0.5,
      "sources": {
        "GDELT": 0,
        "GDELT_DOC": 110,
        "DIRECT_FEED": 2,
        "USGS": 0,
        "GDACS": 0
      },
      "last7_score": 71.687,
      "prev7_score": 0.0,
      "trend": "new",
      "trend_arrow": "🆕",
      "change_pct": null,
      "place": "Tauragės seniūnija, Lithuania"
    }
  ]
}