{
  "generated_utc": "2026-04-03T02:33:47Z",
  "top": [
    {
      "lon": 14.25,
      "lat": 50.25,
      "type": "hotspot_cell",
      "score": 976.814,
      "count": 1571,
      "cell_deg": 0.5,
      "sources": {
        "GDELT": 111,
        "GDELT_DOC": 1458,
        "DIRECT_FEED": 2,
        "USGS": 0,
        "GDACS": 0
      },
      "last7_score": 964.897,
      "prev7_score": 11.917,
      "trend": "up",
      "trend_arrow": "🔺",
      "change_pct": 7997.1,
      "place": "SO ORP Kralupy nad Vltavou, Czechia"
    },
    {
      "lon": 26.25,
      "lat": 44.25,
      "type": "hotspot_cell",
      "score": 883.822,
      "count": 1342,
      "cell_deg": 0.5,
      "sources": {
        "GDELT": 152,
        "GDELT_DOC": 1186,
        "DIRECT_FEED": 4,
        "USGS": 0,
        "GDACS": 0
      },
      "last7_score": 873.977,
      "prev7_score": 9.845,
      "trend": "up",
      "trend_arrow": "🔺",
      "change_pct": 8777.6,
      "place": "Giurgiu, Romania"
    },
    {
      "lon": 25.25,
      "lat": 54.75,
      "type": "hotspot_cell",
      "score": 681.456,
      "count": 1157,
      "cell_deg": 0.5,
      "sources": {
        "GDELT": 83,
        "GDELT_DOC": 1074,
        "DIRECT_FEED": 0,
        "USGS": 0,
        "GDACS": 0
      },
      "last7_score": 673.275,
      "prev7_score": 8.181,
      "trend": "up",
      "trend_arrow": "🔺",
      "change_pct": 8129.5,
      "place": "Vilnius County, Lithuania"
    },
    {
      "lon": 19.25,
      "lat": 47.75,
      "type": "hotspot_cell",
      "score": 252.402,
      "count": 478,
      "cell_deg": 0.5,
      "sources": {
        "GDELT": 253,
        "GDELT_DOC": 0,
        "DIRECT_FEED": 225,
        "USGS": 0,
        "GDACS": 0
      },
      "last7_score": 225.41,
      "prev7_score": 26.991,
      "trend": "up",
      "trend_arrow": "🔺",
      "change_pct": 735.1,
      "place": "Pest, Hungary"
    },
    {
      "lon": 20.25,
      "lat": 52.25,
      "type": "hotspot_cell",
      "score": 185.543,
      "count": 437,
      "cell_deg": 0.5,
      "sources": {
        "GDELT": 437,
        "GDELT_DOC": 0,
        "DIRECT_FEED": 0,
        "USGS": 0,
        "GDACS": 0
      },
      "last7_score": 151.911,
      "prev7_score": 33.632,
      "trend": "up",
      "trend_arrow": "🔺",
      "change_pct": 351.7,
      "place": "Sochaczew County, Poland"
    },
    {
      "lon": 24.25,
      "lat": 56.75,
      "type": "hotspot_cell",
      "score": 126.025,
      "count": 184,
      "cell_deg": 0.5,
      "sources": {
        "GDELT": 43,
        "GDELT_DOC": 0,
        "DIRECT_FEED": 141,
        "USGS": 0,
        "GDACS": 0
      },
      "last7_score": 121.674,
      "prev7_score": 4.351,
      "trend": "up",
      "trend_arrow": "🔺",
      "change_pct": 2696.6,
      "place": "Ķekavas novads, Latvia"
    },
    {
      "lon": 20.25,
      "lat": 47.25,
      "type": "hotspot_cell",
      "score": 121.67,
      "count": 303,
      "cell_deg": 0.5,
      "sources": {
        "GDELT": 303,
        "GDELT_DOC": 0,
        "DIRECT_FEED": 0,
        "USGS": 0,
        "GDACS": 0
      },
      "last7_score": 95.083,
      "prev7_score": 26.587,
      "trend": "up",
      "trend_arrow": "🔺",
      "change_pct": 257.6,
      "place": "Jász-Nagykun-Szolnok, Hungary"
    },
    {
      "lon": 25.25,
      "lat": 46.25,
      "type": "hotspot_cell",
      "score": 116.122,
      "count": 294,
      "cell_deg": 0.5,
      "sources": {
        "GDELT": 294,
        "GDELT_DOC": 0,
        "DIRECT_FEED": 0,
        "USGS": 0,
        "GDACS": 0
      },
      "last7_score": 87.528,
      "prev7_score": 28.595,
      "trend": "up",
      "trend_arrow": "🔺",
      "change_pct": 206.1,
      "place": "Harghita, Romania"
    },
    {
      "lon": 27.75,
      "lat": 47.25,
      "type": "hotspot_cell",
      "score": 64.305,
      "count": 91,
      "cell_deg": 0.5,
      "sources": {
        "GDELT": 0,
        "GDELT_DOC": 91,
        "DIRECT_FEED": 0,
        "USGS": 0,
        "GDACS": 0
      },
      "last7_score": 64.305,
      "prev7_score": 0.0,
      "trend": "new",
      "trend_arrow": "🆕",
      "change_pct": null,
      "place": "Iași, Romania"
    },
    {
      "lon": 15.25,
      "lat": 49.75,
      "type": "hotspot_cell",
      "score": 52.786,
      "count": 138,
      "cell_deg": 0.5,
      "sources": {
        "GDELT": 138,
        "GDELT_DOC": 0,
        "DIRECT_FEED": 0,
        "USGS": 0,
        "GDACS": 0
      },
      "last7_score": 40.267,
      "prev7_score": 12.52,
      "trend": "up",
      "trend_arrow": "🔺",
      "change_pct": 221.6,
      "place": "Vysočina Region, Czechia"
    }
  ]
}