{
  "generated_utc": "2026-07-20T08:49:57Z",
  "top": [
    {
      "lon": 14.25,
      "lat": 50.25,
      "type": "hotspot_cell",
      "score": 560.11,
      "count": 1070,
      "cell_deg": 0.5,
      "sources": {
        "GDELT": 99,
        "GDELT_DOC": 968,
        "DIRECT_FEED": 3,
        "USGS": 0,
        "GDACS": 0
      },
      "last7_score": 554.891,
      "prev7_score": 5.22,
      "trend": "up",
      "trend_arrow": "🔺",
      "change_pct": 10531.1,
      "place": "SO ORP Kralupy nad Vltavou, Czechia"
    },
    {
      "lon": 26.25,
      "lat": 44.25,
      "type": "hotspot_cell",
      "score": 528.249,
      "count": 913,
      "cell_deg": 0.5,
      "sources": {
        "GDELT": 108,
        "GDELT_DOC": 801,
        "DIRECT_FEED": 4,
        "USGS": 0,
        "GDACS": 0
      },
      "last7_score": 522.304,
      "prev7_score": 5.945,
      "trend": "up",
      "trend_arrow": "🔺",
      "change_pct": 8686.1,
      "place": "Giurgiu, Romania"
    },
    {
      "lon": 25.25,
      "lat": 54.75,
      "type": "hotspot_cell",
      "score": 395.936,
      "count": 691,
      "cell_deg": 0.5,
      "sources": {
        "GDELT": 79,
        "GDELT_DOC": 612,
        "DIRECT_FEED": 0,
        "USGS": 0,
        "GDACS": 0
      },
      "last7_score": 390.04,
      "prev7_score": 5.896,
      "trend": "up",
      "trend_arrow": "🔺",
      "change_pct": 6515.8,
      "place": "Vilnius County, Lithuania"
    },
    {
      "lon": 19.25,
      "lat": 47.75,
      "type": "hotspot_cell",
      "score": 167.202,
      "count": 365,
      "cell_deg": 0.5,
      "sources": {
        "GDELT": 174,
        "GDELT_DOC": 0,
        "DIRECT_FEED": 191,
        "USGS": 0,
        "GDACS": 0
      },
      "last7_score": 154.033,
      "prev7_score": 13.169,
      "trend": "up",
      "trend_arrow": "🔺",
      "change_pct": 1069.7,
      "place": "Pest, Hungary"
    },
    {
      "lon": 25.25,
      "lat": 46.25,
      "type": "hotspot_cell",
      "score": 163.68,
      "count": 411,
      "cell_deg": 0.5,
      "sources": {
        "GDELT": 411,
        "GDELT_DOC": 0,
        "DIRECT_FEED": 0,
        "USGS": 0,
        "GDACS": 0
      },
      "last7_score": 139.427,
      "prev7_score": 24.253,
      "trend": "up",
      "trend_arrow": "🔺",
      "change_pct": 474.9,
      "place": "Harghita, Romania"
    },
    {
      "lon": 20.25,
      "lat": 52.25,
      "type": "hotspot_cell",
      "score": 140.859,
      "count": 444,
      "cell_deg": 0.5,
      "sources": {
        "GDELT": 444,
        "GDELT_DOC": 0,
        "DIRECT_FEED": 0,
        "USGS": 0,
        "GDACS": 0
      },
      "last7_score": 109.647,
      "prev7_score": 31.212,
      "trend": "up",
      "trend_arrow": "🔺",
      "change_pct": 251.3,
      "place": "Sochaczew County, Poland"
    },
    {
      "lon": 24.25,
      "lat": 56.75,
      "type": "hotspot_cell",
      "score": 98.151,
      "count": 153,
      "cell_deg": 0.5,
      "sources": {
        "GDELT": 18,
        "GDELT_DOC": 0,
        "DIRECT_FEED": 135,
        "USGS": 0,
        "GDACS": 0
      },
      "last7_score": 97.124,
      "prev7_score": 1.027,
      "trend": "up",
      "trend_arrow": "🔺",
      "change_pct": 9356.5,
      "place": "Ķekavas novads, Latvia"
    },
    {
      "lon": 20.25,
      "lat": 47.25,
      "type": "hotspot_cell",
      "score": 66.505,
      "count": 199,
      "cell_deg": 0.5,
      "sources": {
        "GDELT": 199,
        "GDELT_DOC": 0,
        "DIRECT_FEED": 0,
        "USGS": 0,
        "GDACS": 0
      },
      "last7_score": 53.284,
      "prev7_score": 13.22,
      "trend": "up",
      "trend_arrow": "🔺",
      "change_pct": 303.0,
      "place": "Jász-Nagykun-Szolnok, Hungary"
    },
    {
      "lon": 21.25,
      "lat": 52.25,
      "type": "hotspot_cell",
      "score": 66.41,
      "count": 215,
      "cell_deg": 0.5,
      "sources": {
        "GDELT": 215,
        "GDELT_DOC": 0,
        "DIRECT_FEED": 0,
        "USGS": 0,
        "GDACS": 0
      },
      "last7_score": 52.392,
      "prev7_score": 14.018,
      "trend": "up",
      "trend_arrow": "🔺",
      "change_pct": 273.7,
      "place": "Warsaw, Poland"
    },
    {
      "lon": 15.25,
      "lat": 49.75,
      "type": "hotspot_cell",
      "score": 41.239,
      "count": 146,
      "cell_deg": 0.5,
      "sources": {
        "GDELT": 146,
        "GDELT_DOC": 0,
        "DIRECT_FEED": 0,
        "USGS": 0,
        "GDACS": 0
      },
      "last7_score": 30.366,
      "prev7_score": 10.873,
      "trend": "up",
      "trend_arrow": "🔺",
      "change_pct": 179.3,
      "place": "Vysočina Region, Czechia"
    }
  ]
}