{
  "generated_utc": "2026-03-03T06:57:15Z",
  "top": [
    {
      "lon": 21.25,
      "lat": 52.25,
      "type": "hotspot_cell",
      "score": 18.974,
      "count": 46,
      "cell_deg": 0.5,
      "sources": {
        "GDELT": 46,
        "USGS": 0,
        "GDACS": 0
      },
      "last7_score": 16.617,
      "prev7_score": 2.357,
      "trend": "up",
      "trend_arrow": "🔺",
      "change_pct": 604.9,
      "place": "Warsaw, Poland"
    },
    {
      "lon": 20.25,
      "lat": 52.25,
      "type": "hotspot_cell",
      "score": 17.08,
      "count": 47,
      "cell_deg": 0.5,
      "sources": {
        "GDELT": 47,
        "USGS": 0,
        "GDACS": 0
      },
      "last7_score": 13.664,
      "prev7_score": 3.417,
      "trend": "up",
      "trend_arrow": "🔺",
      "change_pct": 299.9,
      "place": "Sochaczew County, Poland"
    },
    {
      "lon": 14.25,
      "lat": 50.25,
      "type": "hotspot_cell",
      "score": 15.894,
      "count": 37,
      "cell_deg": 0.5,
      "sources": {
        "GDELT": 37,
        "USGS": 0,
        "GDACS": 0
      },
      "last7_score": 13.722,
      "prev7_score": 2.172,
      "trend": "up",
      "trend_arrow": "🔺",
      "change_pct": 531.7,
      "place": "SO ORP Kralupy nad Vltavou, Czechia"
    },
    {
      "lon": 26.25,
      "lat": 59.25,
      "type": "hotspot_cell",
      "score": 15.269,
      "count": 34,
      "cell_deg": 0.5,
      "sources": {
        "GDELT": 34,
        "USGS": 0,
        "GDACS": 0
      },
      "last7_score": 13.082,
      "prev7_score": 2.187,
      "trend": "up",
      "trend_arrow": "🔺",
      "change_pct": 498.2,
      "place": "Lääne-Viru County, Estonia"
    },
    {
      "lon": 20.25,
      "lat": 47.25,
      "type": "hotspot_cell",
      "score": 15.162,
      "count": 40,
      "cell_deg": 0.5,
      "sources": {
        "GDELT": 40,
        "USGS": 0,
        "GDACS": 0
      },
      "last7_score": 12.269,
      "prev7_score": 2.892,
      "trend": "up",
      "trend_arrow": "🔺",
      "change_pct": 324.2,
      "place": "Jász-Nagykun-Szolnok, Hungary"
    },
    {
      "lon": 25.25,
      "lat": 46.25,
      "type": "hotspot_cell",
      "score": 14.069,
      "count": 35,
      "cell_deg": 0.5,
      "sources": {
        "GDELT": 35,
        "USGS": 0,
        "GDACS": 0
      },
      "last7_score": 11.953,
      "prev7_score": 2.116,
      "trend": "up",
      "trend_arrow": "🔺",
      "change_pct": 464.9,
      "place": "Harghita, Romania"
    },
    {
      "lon": 19.25,
      "lat": 47.75,
      "type": "hotspot_cell",
      "score": 14.048,
      "count": 38,
      "cell_deg": 0.5,
      "sources": {
        "GDELT": 38,
        "USGS": 0,
        "GDACS": 0
      },
      "last7_score": 11.225,
      "prev7_score": 2.823,
      "trend": "up",
      "trend_arrow": "🔺",
      "change_pct": 297.7,
      "place": "Pest, Hungary"
    },
    {
      "lon": 15.25,
      "lat": 49.75,
      "type": "hotspot_cell",
      "score": 12.336,
      "count": 34,
      "cell_deg": 0.5,
      "sources": {
        "GDELT": 34,
        "USGS": 0,
        "GDACS": 0
      },
      "last7_score": 9.606,
      "prev7_score": 2.73,
      "trend": "up",
      "trend_arrow": "🔺",
      "change_pct": 251.9,
      "place": "Vysočina Region, Czechia"
    },
    {
      "lon": 19.75,
      "lat": 48.75,
      "type": "hotspot_cell",
      "score": 10.987,
      "count": 31,
      "cell_deg": 0.5,
      "sources": {
        "GDELT": 31,
        "USGS": 0,
        "GDACS": 0
      },
      "last7_score": 8.615,
      "prev7_score": 2.372,
      "trend": "up",
      "trend_arrow": "🔺",
      "change_pct": 263.2,
      "place": "District of Brezno, Slovakia"
    },
    {
      "lon": 25.25,
      "lat": 57.25,
      "type": "hotspot_cell",
      "score": 9.976,
      "count": 31,
      "cell_deg": 0.5,
      "sources": {
        "GDELT": 31,
        "USGS": 0,
        "GDACS": 0
      },
      "last7_score": 8.107,
      "prev7_score": 1.87,
      "trend": "up",
      "trend_arrow": "🔺",
      "change_pct": 333.6,
      "place": "Cēsu novads, Latvia"
    }
  ]
}