{
  "generated_utc": "2026-06-10T09:47:18Z",
  "top": [
    {
      "lon": 25.25,
      "lat": 54.75,
      "type": "hotspot_cell",
      "score": 584.476,
      "count": 1012,
      "cell_deg": 0.5,
      "sources": {
        "GDELT": 76,
        "GDELT_DOC": 934,
        "DIRECT_FEED": 2,
        "USGS": 0,
        "GDACS": 0
      },
      "last7_score": 577.03,
      "prev7_score": 7.446,
      "trend": "up",
      "trend_arrow": "🔺",
      "change_pct": 7649.5,
      "place": "Vilnius County, Lithuania"
    },
    {
      "lon": 26.25,
      "lat": 44.25,
      "type": "hotspot_cell",
      "score": 569.645,
      "count": 1113,
      "cell_deg": 0.5,
      "sources": {
        "GDELT": 248,
        "GDELT_DOC": 855,
        "DIRECT_FEED": 10,
        "USGS": 0,
        "GDACS": 0
      },
      "last7_score": 549.361,
      "prev7_score": 20.284,
      "trend": "up",
      "trend_arrow": "🔺",
      "change_pct": 2608.3,
      "place": "Giurgiu, Romania"
    },
    {
      "lon": 14.25,
      "lat": 50.25,
      "type": "hotspot_cell",
      "score": 414.809,
      "count": 779,
      "cell_deg": 0.5,
      "sources": {
        "GDELT": 101,
        "GDELT_DOC": 676,
        "DIRECT_FEED": 2,
        "USGS": 0,
        "GDACS": 0
      },
      "last7_score": 406.118,
      "prev7_score": 8.691,
      "trend": "up",
      "trend_arrow": "🔺",
      "change_pct": 4572.9,
      "place": "SO ORP Kralupy nad Vltavou, Czechia"
    },
    {
      "lon": 19.25,
      "lat": 47.75,
      "type": "hotspot_cell",
      "score": 182.204,
      "count": 416,
      "cell_deg": 0.5,
      "sources": {
        "GDELT": 239,
        "GDELT_DOC": 0,
        "DIRECT_FEED": 177,
        "USGS": 0,
        "GDACS": 0
      },
      "last7_score": 161.687,
      "prev7_score": 20.517,
      "trend": "up",
      "trend_arrow": "🔺",
      "change_pct": 688.1,
      "place": "Pest, Hungary"
    },
    {
      "lon": 25.25,
      "lat": 46.25,
      "type": "hotspot_cell",
      "score": 167.942,
      "count": 510,
      "cell_deg": 0.5,
      "sources": {
        "GDELT": 510,
        "GDELT_DOC": 0,
        "DIRECT_FEED": 0,
        "USGS": 0,
        "GDACS": 0
      },
      "last7_score": 126.597,
      "prev7_score": 41.346,
      "trend": "up",
      "trend_arrow": "🔺",
      "change_pct": 206.2,
      "place": "Harghita, Romania"
    },
    {
      "lon": 20.25,
      "lat": 52.25,
      "type": "hotspot_cell",
      "score": 160.534,
      "count": 484,
      "cell_deg": 0.5,
      "sources": {
        "GDELT": 484,
        "GDELT_DOC": 0,
        "DIRECT_FEED": 0,
        "USGS": 0,
        "GDACS": 0
      },
      "last7_score": 121.117,
      "prev7_score": 39.417,
      "trend": "up",
      "trend_arrow": "🔺",
      "change_pct": 207.3,
      "place": "Sochaczew County, Poland"
    },
    {
      "lon": 24.25,
      "lat": 56.75,
      "type": "hotspot_cell",
      "score": 102.761,
      "count": 177,
      "cell_deg": 0.5,
      "sources": {
        "GDELT": 51,
        "GDELT_DOC": 0,
        "DIRECT_FEED": 126,
        "USGS": 0,
        "GDACS": 0
      },
      "last7_score": 99.503,
      "prev7_score": 3.258,
      "trend": "up",
      "trend_arrow": "🔺",
      "change_pct": 2953.9,
      "place": "Ķekavas novads, Latvia"
    },
    {
      "lon": 20.25,
      "lat": 47.25,
      "type": "hotspot_cell",
      "score": 89.525,
      "count": 265,
      "cell_deg": 0.5,
      "sources": {
        "GDELT": 265,
        "GDELT_DOC": 0,
        "DIRECT_FEED": 0,
        "USGS": 0,
        "GDACS": 0
      },
      "last7_score": 68.875,
      "prev7_score": 20.65,
      "trend": "up",
      "trend_arrow": "🔺",
      "change_pct": 233.5,
      "place": "Jász-Nagykun-Szolnok, Hungary"
    },
    {
      "lon": 21.25,
      "lat": 52.25,
      "type": "hotspot_cell",
      "score": 60.963,
      "count": 211,
      "cell_deg": 0.5,
      "sources": {
        "GDELT": 211,
        "GDELT_DOC": 0,
        "DIRECT_FEED": 0,
        "USGS": 0,
        "GDACS": 0
      },
      "last7_score": 42.982,
      "prev7_score": 17.981,
      "trend": "up",
      "trend_arrow": "🔺",
      "change_pct": 139.0,
      "place": "Warsaw, Poland"
    },
    {
      "lon": 25.25,
      "lat": 57.25,
      "type": "hotspot_cell",
      "score": 54.027,
      "count": 121,
      "cell_deg": 0.5,
      "sources": {
        "GDELT": 121,
        "GDELT_DOC": 0,
        "DIRECT_FEED": 0,
        "USGS": 0,
        "GDACS": 0
      },
      "last7_score": 46.147,
      "prev7_score": 7.88,
      "trend": "up",
      "trend_arrow": "🔺",
      "change_pct": 485.6,
      "place": "Cēsu novads, Latvia"
    }
  ]
}