{
  "generated_utc": "2026-06-09T20:08:41Z",
  "top": [
    {
      "lon": 26.25,
      "lat": 44.25,
      "type": "hotspot_cell",
      "score": 620.504,
      "count": 1143,
      "cell_deg": 0.5,
      "sources": {
        "GDELT": 254,
        "GDELT_DOC": 879,
        "DIRECT_FEED": 10,
        "USGS": 0,
        "GDACS": 0
      },
      "last7_score": 601.119,
      "prev7_score": 19.385,
      "trend": "up",
      "trend_arrow": "🔺",
      "change_pct": 3000.9,
      "place": "Giurgiu, Romania"
    },
    {
      "lon": 25.25,
      "lat": 54.75,
      "type": "hotspot_cell",
      "score": 568.727,
      "count": 985,
      "cell_deg": 0.5,
      "sources": {
        "GDELT": 83,
        "GDELT_DOC": 900,
        "DIRECT_FEED": 2,
        "USGS": 0,
        "GDACS": 0
      },
      "last7_score": 561.863,
      "prev7_score": 6.864,
      "trend": "up",
      "trend_arrow": "🔺",
      "change_pct": 8086.0,
      "place": "Vilnius County, Lithuania"
    },
    {
      "lon": 14.25,
      "lat": 50.25,
      "type": "hotspot_cell",
      "score": 380.938,
      "count": 717,
      "cell_deg": 0.5,
      "sources": {
        "GDELT": 112,
        "GDELT_DOC": 603,
        "DIRECT_FEED": 2,
        "USGS": 0,
        "GDACS": 0
      },
      "last7_score": 373.633,
      "prev7_score": 7.305,
      "trend": "up",
      "trend_arrow": "🔺",
      "change_pct": 5014.7,
      "place": "SO ORP Kralupy nad Vltavou, Czechia"
    },
    {
      "lon": 19.25,
      "lat": 47.75,
      "type": "hotspot_cell",
      "score": 187.21,
      "count": 436,
      "cell_deg": 0.5,
      "sources": {
        "GDELT": 260,
        "GDELT_DOC": 0,
        "DIRECT_FEED": 176,
        "USGS": 0,
        "GDACS": 0
      },
      "last7_score": 169.624,
      "prev7_score": 17.587,
      "trend": "up",
      "trend_arrow": "🔺",
      "change_pct": 864.5,
      "place": "Pest, Hungary"
    },
    {
      "lon": 25.25,
      "lat": 46.25,
      "type": "hotspot_cell",
      "score": 175.56,
      "count": 524,
      "cell_deg": 0.5,
      "sources": {
        "GDELT": 524,
        "GDELT_DOC": 0,
        "DIRECT_FEED": 0,
        "USGS": 0,
        "GDACS": 0
      },
      "last7_score": 138.99,
      "prev7_score": 36.57,
      "trend": "up",
      "trend_arrow": "🔺",
      "change_pct": 280.1,
      "place": "Harghita, Romania"
    },
    {
      "lon": 20.25,
      "lat": 52.25,
      "type": "hotspot_cell",
      "score": 158.672,
      "count": 524,
      "cell_deg": 0.5,
      "sources": {
        "GDELT": 524,
        "GDELT_DOC": 0,
        "DIRECT_FEED": 0,
        "USGS": 0,
        "GDACS": 0
      },
      "last7_score": 121.116,
      "prev7_score": 37.556,
      "trend": "up",
      "trend_arrow": "🔺",
      "change_pct": 222.5,
      "place": "Sochaczew County, Poland"
    },
    {
      "lon": 24.25,
      "lat": 56.75,
      "type": "hotspot_cell",
      "score": 107.03,
      "count": 187,
      "cell_deg": 0.5,
      "sources": {
        "GDELT": 50,
        "GDELT_DOC": 0,
        "DIRECT_FEED": 137,
        "USGS": 0,
        "GDACS": 0
      },
      "last7_score": 104.16,
      "prev7_score": 2.87,
      "trend": "up",
      "trend_arrow": "🔺",
      "change_pct": 3529.6,
      "place": "Ķekavas novads, Latvia"
    },
    {
      "lon": 20.25,
      "lat": 47.25,
      "type": "hotspot_cell",
      "score": 90.733,
      "count": 277,
      "cell_deg": 0.5,
      "sources": {
        "GDELT": 277,
        "GDELT_DOC": 0,
        "DIRECT_FEED": 0,
        "USGS": 0,
        "GDACS": 0
      },
      "last7_score": 72.108,
      "prev7_score": 18.625,
      "trend": "up",
      "trend_arrow": "🔺",
      "change_pct": 287.2,
      "place": "Jász-Nagykun-Szolnok, Hungary"
    },
    {
      "lon": 21.25,
      "lat": 52.25,
      "type": "hotspot_cell",
      "score": 65.11,
      "count": 222,
      "cell_deg": 0.5,
      "sources": {
        "GDELT": 222,
        "GDELT_DOC": 0,
        "DIRECT_FEED": 0,
        "USGS": 0,
        "GDACS": 0
      },
      "last7_score": 49.393,
      "prev7_score": 15.717,
      "trend": "up",
      "trend_arrow": "🔺",
      "change_pct": 214.3,
      "place": "Warsaw, Poland"
    },
    {
      "lon": 25.25,
      "lat": 57.25,
      "type": "hotspot_cell",
      "score": 53.507,
      "count": 123,
      "cell_deg": 0.5,
      "sources": {
        "GDELT": 123,
        "GDELT_DOC": 0,
        "DIRECT_FEED": 0,
        "USGS": 0,
        "GDACS": 0
      },
      "last7_score": 47.877,
      "prev7_score": 5.63,
      "trend": "up",
      "trend_arrow": "🔺",
      "change_pct": 750.5,
      "place": "Cēsu novads, Latvia"
    }
  ]
}