{
  "generated_utc": "2026-07-19T08:08:25Z",
  "top": [
    {
      "lon": 14.25,
      "lat": 50.25,
      "type": "hotspot_cell",
      "score": 631.789,
      "count": 1076,
      "cell_deg": 0.5,
      "sources": {
        "GDELT": 104,
        "GDELT_DOC": 968,
        "DIRECT_FEED": 4,
        "USGS": 0,
        "GDACS": 0
      },
      "last7_score": 626.513,
      "prev7_score": 5.276,
      "trend": "up",
      "trend_arrow": "🔺",
      "change_pct": 11775.2,
      "place": "SO ORP Kralupy nad Vltavou, Czechia"
    },
    {
      "lon": 26.25,
      "lat": 44.25,
      "type": "hotspot_cell",
      "score": 484.359,
      "count": 870,
      "cell_deg": 0.5,
      "sources": {
        "GDELT": 105,
        "GDELT_DOC": 762,
        "DIRECT_FEED": 3,
        "USGS": 0,
        "GDACS": 0
      },
      "last7_score": 477.892,
      "prev7_score": 6.467,
      "trend": "up",
      "trend_arrow": "🔺",
      "change_pct": 7290.1,
      "place": "Giurgiu, Romania"
    },
    {
      "lon": 25.25,
      "lat": 54.75,
      "type": "hotspot_cell",
      "score": 380.587,
      "count": 658,
      "cell_deg": 0.5,
      "sources": {
        "GDELT": 77,
        "GDELT_DOC": 581,
        "DIRECT_FEED": 0,
        "USGS": 0,
        "GDACS": 0
      },
      "last7_score": 376.301,
      "prev7_score": 4.287,
      "trend": "up",
      "trend_arrow": "🔺",
      "change_pct": 8678.3,
      "place": "Vilnius County, Lithuania"
    },
    {
      "lon": 19.25,
      "lat": 47.75,
      "type": "hotspot_cell",
      "score": 182.238,
      "count": 359,
      "cell_deg": 0.5,
      "sources": {
        "GDELT": 168,
        "GDELT_DOC": 0,
        "DIRECT_FEED": 191,
        "USGS": 0,
        "GDACS": 0
      },
      "last7_score": 172.354,
      "prev7_score": 9.884,
      "trend": "up",
      "trend_arrow": "🔺",
      "change_pct": 1643.7,
      "place": "Pest, Hungary"
    },
    {
      "lon": 20.25,
      "lat": 52.25,
      "type": "hotspot_cell",
      "score": 156.913,
      "count": 469,
      "cell_deg": 0.5,
      "sources": {
        "GDELT": 469,
        "GDELT_DOC": 0,
        "DIRECT_FEED": 0,
        "USGS": 0,
        "GDACS": 0
      },
      "last7_score": 131.963,
      "prev7_score": 24.95,
      "trend": "up",
      "trend_arrow": "🔺",
      "change_pct": 428.9,
      "place": "Sochaczew County, Poland"
    },
    {
      "lon": 25.25,
      "lat": 46.25,
      "type": "hotspot_cell",
      "score": 154.417,
      "count": 411,
      "cell_deg": 0.5,
      "sources": {
        "GDELT": 411,
        "GDELT_DOC": 0,
        "DIRECT_FEED": 0,
        "USGS": 0,
        "GDACS": 0
      },
      "last7_score": 130.75,
      "prev7_score": 23.667,
      "trend": "up",
      "trend_arrow": "🔺",
      "change_pct": 452.5,
      "place": "Harghita, Romania"
    },
    {
      "lon": 24.25,
      "lat": 56.75,
      "type": "hotspot_cell",
      "score": 99.138,
      "count": 157,
      "cell_deg": 0.5,
      "sources": {
        "GDELT": 20,
        "GDELT_DOC": 0,
        "DIRECT_FEED": 137,
        "USGS": 0,
        "GDACS": 0
      },
      "last7_score": 98.343,
      "prev7_score": 0.795,
      "trend": "up",
      "trend_arrow": "🔺",
      "change_pct": 12276.3,
      "place": "Ķekavas novads, Latvia"
    },
    {
      "lon": 21.25,
      "lat": 52.25,
      "type": "hotspot_cell",
      "score": 80.123,
      "count": 224,
      "cell_deg": 0.5,
      "sources": {
        "GDELT": 224,
        "GDELT_DOC": 0,
        "DIRECT_FEED": 0,
        "USGS": 0,
        "GDACS": 0
      },
      "last7_score": 67.482,
      "prev7_score": 12.641,
      "trend": "up",
      "trend_arrow": "🔺",
      "change_pct": 433.9,
      "place": "Warsaw, Poland"
    },
    {
      "lon": 20.25,
      "lat": 47.25,
      "type": "hotspot_cell",
      "score": 71.236,
      "count": 207,
      "cell_deg": 0.5,
      "sources": {
        "GDELT": 207,
        "GDELT_DOC": 0,
        "DIRECT_FEED": 0,
        "USGS": 0,
        "GDACS": 0
      },
      "last7_score": 59.163,
      "prev7_score": 12.073,
      "trend": "up",
      "trend_arrow": "🔺",
      "change_pct": 390.1,
      "place": "Jász-Nagykun-Szolnok, Hungary"
    },
    {
      "lon": 22.25,
      "lat": 55.25,
      "type": "hotspot_cell",
      "score": 52.139,
      "count": 62,
      "cell_deg": 0.5,
      "sources": {
        "GDELT": 0,
        "GDELT_DOC": 61,
        "DIRECT_FEED": 1,
        "USGS": 0,
        "GDACS": 0
      },
      "last7_score": 52.139,
      "prev7_score": 0.0,
      "trend": "new",
      "trend_arrow": "🆕",
      "change_pct": null,
      "place": "Tauragės seniūnija, Lithuania"
    }
  ]
}