{
  "generated_utc": "2026-05-02T07:52:00Z",
  "top": [
    {
      "lon": 26.25,
      "lat": 44.25,
      "type": "hotspot_cell",
      "score": 856.298,
      "count": 1474,
      "cell_deg": 0.5,
      "sources": {
        "GDELT": 151,
        "GDELT_DOC": 1319,
        "DIRECT_FEED": 4,
        "USGS": 0,
        "GDACS": 0
      },
      "last7_score": 845.673,
      "prev7_score": 10.625,
      "trend": "up",
      "trend_arrow": "🔺",
      "change_pct": 7859.5,
      "place": "Giurgiu, Romania"
    },
    {
      "lon": 14.25,
      "lat": 50.25,
      "type": "hotspot_cell",
      "score": 816.475,
      "count": 1401,
      "cell_deg": 0.5,
      "sources": {
        "GDELT": 181,
        "GDELT_DOC": 1217,
        "DIRECT_FEED": 3,
        "USGS": 0,
        "GDACS": 0
      },
      "last7_score": 803.011,
      "prev7_score": 13.464,
      "trend": "up",
      "trend_arrow": "🔺",
      "change_pct": 5864.0,
      "place": "SO ORP Kralupy nad Vltavou, Czechia"
    },
    {
      "lon": 25.25,
      "lat": 54.75,
      "type": "hotspot_cell",
      "score": 565.923,
      "count": 968,
      "cell_deg": 0.5,
      "sources": {
        "GDELT": 66,
        "GDELT_DOC": 902,
        "DIRECT_FEED": 0,
        "USGS": 0,
        "GDACS": 0
      },
      "last7_score": 561.204,
      "prev7_score": 4.719,
      "trend": "up",
      "trend_arrow": "🔺",
      "change_pct": 11792.1,
      "place": "Vilnius County, Lithuania"
    },
    {
      "lon": 19.25,
      "lat": 47.75,
      "type": "hotspot_cell",
      "score": 218.512,
      "count": 542,
      "cell_deg": 0.5,
      "sources": {
        "GDELT": 353,
        "GDELT_DOC": 0,
        "DIRECT_FEED": 189,
        "USGS": 0,
        "GDACS": 0
      },
      "last7_score": 189.03,
      "prev7_score": 29.482,
      "trend": "up",
      "trend_arrow": "🔺",
      "change_pct": 541.2,
      "place": "Pest, Hungary"
    },
    {
      "lon": 20.25,
      "lat": 52.25,
      "type": "hotspot_cell",
      "score": 172.001,
      "count": 464,
      "cell_deg": 0.5,
      "sources": {
        "GDELT": 464,
        "GDELT_DOC": 0,
        "DIRECT_FEED": 0,
        "USGS": 0,
        "GDACS": 0
      },
      "last7_score": 135.389,
      "prev7_score": 36.612,
      "trend": "up",
      "trend_arrow": "🔺",
      "change_pct": 269.8,
      "place": "Sochaczew County, Poland"
    },
    {
      "lon": 20.25,
      "lat": 47.25,
      "type": "hotspot_cell",
      "score": 141.397,
      "count": 507,
      "cell_deg": 0.5,
      "sources": {
        "GDELT": 507,
        "GDELT_DOC": 0,
        "DIRECT_FEED": 0,
        "USGS": 0,
        "GDACS": 0
      },
      "last7_score": 96.592,
      "prev7_score": 44.805,
      "trend": "up",
      "trend_arrow": "🔺",
      "change_pct": 115.6,
      "place": "Jász-Nagykun-Szolnok, Hungary"
    },
    {
      "lon": 25.25,
      "lat": 46.25,
      "type": "hotspot_cell",
      "score": 134.95,
      "count": 312,
      "cell_deg": 0.5,
      "sources": {
        "GDELT": 312,
        "GDELT_DOC": 0,
        "DIRECT_FEED": 0,
        "USGS": 0,
        "GDACS": 0
      },
      "last7_score": 116.284,
      "prev7_score": 18.666,
      "trend": "up",
      "trend_arrow": "🔺",
      "change_pct": 523.0,
      "place": "Harghita, Romania"
    },
    {
      "lon": 24.25,
      "lat": 56.75,
      "type": "hotspot_cell",
      "score": 106.736,
      "count": 160,
      "cell_deg": 0.5,
      "sources": {
        "GDELT": 23,
        "GDELT_DOC": 0,
        "DIRECT_FEED": 137,
        "USGS": 0,
        "GDACS": 0
      },
      "last7_score": 104.929,
      "prev7_score": 1.808,
      "trend": "up",
      "trend_arrow": "🔺",
      "change_pct": 5704.5,
      "place": "Ķekavas novads, Latvia"
    },
    {
      "lon": 15.25,
      "lat": 49.75,
      "type": "hotspot_cell",
      "score": 86.554,
      "count": 215,
      "cell_deg": 0.5,
      "sources": {
        "GDELT": 215,
        "GDELT_DOC": 0,
        "DIRECT_FEED": 0,
        "USGS": 0,
        "GDACS": 0
      },
      "last7_score": 74.401,
      "prev7_score": 12.153,
      "trend": "up",
      "trend_arrow": "🔺",
      "change_pct": 512.2,
      "place": "Vysočina Region, Czechia"
    },
    {
      "lon": 21.25,
      "lat": 52.25,
      "type": "hotspot_cell",
      "score": 59.68,
      "count": 159,
      "cell_deg": 0.5,
      "sources": {
        "GDELT": 159,
        "GDELT_DOC": 0,
        "DIRECT_FEED": 0,
        "USGS": 0,
        "GDACS": 0
      },
      "last7_score": 48.966,
      "prev7_score": 10.714,
      "trend": "up",
      "trend_arrow": "🔺",
      "change_pct": 357.0,
      "place": "Warsaw, Poland"
    }
  ]
}