{
  "generated_utc": "2026-05-08T13:55:10Z",
  "top": [
    {
      "lon": 14.25,
      "lat": 50.25,
      "type": "hotspot_cell",
      "score": 799.893,
      "count": 1358,
      "cell_deg": 0.5,
      "sources": {
        "GDELT": 154,
        "GDELT_DOC": 1200,
        "DIRECT_FEED": 4,
        "USGS": 0,
        "GDACS": 0
      },
      "last7_score": 787.465,
      "prev7_score": 12.429,
      "trend": "up",
      "trend_arrow": "🔺",
      "change_pct": 6235.8,
      "place": "SO ORP Kralupy nad Vltavou, Czechia"
    },
    {
      "lon": 26.25,
      "lat": 44.25,
      "type": "hotspot_cell",
      "score": 725.784,
      "count": 1213,
      "cell_deg": 0.5,
      "sources": {
        "GDELT": 152,
        "GDELT_DOC": 1052,
        "DIRECT_FEED": 9,
        "USGS": 0,
        "GDACS": 0
      },
      "last7_score": 716.975,
      "prev7_score": 8.809,
      "trend": "up",
      "trend_arrow": "🔺",
      "change_pct": 8039.4,
      "place": "Giurgiu, Romania"
    },
    {
      "lon": 25.25,
      "lat": 54.75,
      "type": "hotspot_cell",
      "score": 616.043,
      "count": 1021,
      "cell_deg": 0.5,
      "sources": {
        "GDELT": 66,
        "GDELT_DOC": 955,
        "DIRECT_FEED": 0,
        "USGS": 0,
        "GDACS": 0
      },
      "last7_score": 611.135,
      "prev7_score": 4.908,
      "trend": "up",
      "trend_arrow": "🔺",
      "change_pct": 12352.2,
      "place": "Vilnius County, Lithuania"
    },
    {
      "lon": 19.25,
      "lat": 47.75,
      "type": "hotspot_cell",
      "score": 241.077,
      "count": 400,
      "cell_deg": 0.5,
      "sources": {
        "GDELT": 222,
        "GDELT_DOC": 0,
        "DIRECT_FEED": 178,
        "USGS": 0,
        "GDACS": 0
      },
      "last7_score": 225.241,
      "prev7_score": 15.836,
      "trend": "up",
      "trend_arrow": "🔺",
      "change_pct": 1322.3,
      "place": "Pest, Hungary"
    },
    {
      "lon": 20.25,
      "lat": 52.25,
      "type": "hotspot_cell",
      "score": 222.643,
      "count": 514,
      "cell_deg": 0.5,
      "sources": {
        "GDELT": 514,
        "GDELT_DOC": 0,
        "DIRECT_FEED": 0,
        "USGS": 0,
        "GDACS": 0
      },
      "last7_score": 192.477,
      "prev7_score": 30.167,
      "trend": "up",
      "trend_arrow": "🔺",
      "change_pct": 538.0,
      "place": "Sochaczew County, Poland"
    },
    {
      "lon": 25.25,
      "lat": 46.25,
      "type": "hotspot_cell",
      "score": 130.772,
      "count": 348,
      "cell_deg": 0.5,
      "sources": {
        "GDELT": 348,
        "GDELT_DOC": 0,
        "DIRECT_FEED": 0,
        "USGS": 0,
        "GDACS": 0
      },
      "last7_score": 104.476,
      "prev7_score": 26.296,
      "trend": "up",
      "trend_arrow": "🔺",
      "change_pct": 297.3,
      "place": "Harghita, Romania"
    },
    {
      "lon": 24.25,
      "lat": 56.75,
      "type": "hotspot_cell",
      "score": 115.312,
      "count": 158,
      "cell_deg": 0.5,
      "sources": {
        "GDELT": 33,
        "GDELT_DOC": 0,
        "DIRECT_FEED": 125,
        "USGS": 0,
        "GDACS": 0
      },
      "last7_score": 114.094,
      "prev7_score": 1.218,
      "trend": "up",
      "trend_arrow": "🔺",
      "change_pct": 9268.2,
      "place": "Ķekavas novads, Latvia"
    },
    {
      "lon": 20.25,
      "lat": 47.25,
      "type": "hotspot_cell",
      "score": 105.76,
      "count": 295,
      "cell_deg": 0.5,
      "sources": {
        "GDELT": 295,
        "GDELT_DOC": 0,
        "DIRECT_FEED": 0,
        "USGS": 0,
        "GDACS": 0
      },
      "last7_score": 82.894,
      "prev7_score": 22.866,
      "trend": "up",
      "trend_arrow": "🔺",
      "change_pct": 262.5,
      "place": "Jász-Nagykun-Szolnok, Hungary"
    },
    {
      "lon": 27.75,
      "lat": 47.25,
      "type": "hotspot_cell",
      "score": 69.127,
      "count": 84,
      "cell_deg": 0.5,
      "sources": {
        "GDELT": 0,
        "GDELT_DOC": 84,
        "DIRECT_FEED": 0,
        "USGS": 0,
        "GDACS": 0
      },
      "last7_score": 69.127,
      "prev7_score": 0.0,
      "trend": "new",
      "trend_arrow": "🆕",
      "change_pct": null,
      "place": "Iași, Romania"
    },
    {
      "lon": 21.25,
      "lat": 52.25,
      "type": "hotspot_cell",
      "score": 64.276,
      "count": 157,
      "cell_deg": 0.5,
      "sources": {
        "GDELT": 157,
        "GDELT_DOC": 0,
        "DIRECT_FEED": 0,
        "USGS": 0,
        "GDACS": 0
      },
      "last7_score": 52.775,
      "prev7_score": 11.501,
      "trend": "up",
      "trend_arrow": "🔺",
      "change_pct": 358.9,
      "place": "Warsaw, Poland"
    }
  ]
}