{
  "generated_utc": "2026-05-30T02:19:21Z",
  "top": [
    {
      "lon": 14.25,
      "lat": 50.25,
      "type": "hotspot_cell",
      "score": 958.939,
      "count": 1571,
      "cell_deg": 0.5,
      "sources": {
        "GDELT": 143,
        "GDELT_DOC": 1413,
        "DIRECT_FEED": 15,
        "USGS": 0,
        "GDACS": 0
      },
      "last7_score": 945.027,
      "prev7_score": 13.912,
      "trend": "up",
      "trend_arrow": "🔺",
      "change_pct": 6693.0,
      "place": "SO ORP Kralupy nad Vltavou, Czechia"
    },
    {
      "lon": 26.25,
      "lat": 44.25,
      "type": "hotspot_cell",
      "score": 839.324,
      "count": 1260,
      "cell_deg": 0.5,
      "sources": {
        "GDELT": 196,
        "GDELT_DOC": 1055,
        "DIRECT_FEED": 9,
        "USGS": 0,
        "GDACS": 0
      },
      "last7_score": 831.55,
      "prev7_score": 7.773,
      "trend": "up",
      "trend_arrow": "🔺",
      "change_pct": 10597.4,
      "place": "Giurgiu, Romania"
    },
    {
      "lon": 25.25,
      "lat": 54.75,
      "type": "hotspot_cell",
      "score": 808.226,
      "count": 1238,
      "cell_deg": 0.5,
      "sources": {
        "GDELT": 103,
        "GDELT_DOC": 1133,
        "DIRECT_FEED": 2,
        "USGS": 0,
        "GDACS": 0
      },
      "last7_score": 797.589,
      "prev7_score": 10.637,
      "trend": "up",
      "trend_arrow": "🔺",
      "change_pct": 7398.3,
      "place": "Vilnius County, Lithuania"
    },
    {
      "lon": 20.25,
      "lat": 52.25,
      "type": "hotspot_cell",
      "score": 270.146,
      "count": 757,
      "cell_deg": 0.5,
      "sources": {
        "GDELT": 757,
        "GDELT_DOC": 0,
        "DIRECT_FEED": 0,
        "USGS": 0,
        "GDACS": 0
      },
      "last7_score": 188.239,
      "prev7_score": 81.907,
      "trend": "up",
      "trend_arrow": "🔺",
      "change_pct": 129.8,
      "place": "Sochaczew County, Poland"
    },
    {
      "lon": 19.25,
      "lat": 47.75,
      "type": "hotspot_cell",
      "score": 240.226,
      "count": 414,
      "cell_deg": 0.5,
      "sources": {
        "GDELT": 214,
        "GDELT_DOC": 0,
        "DIRECT_FEED": 200,
        "USGS": 0,
        "GDACS": 0
      },
      "last7_score": 225.304,
      "prev7_score": 14.922,
      "trend": "up",
      "trend_arrow": "🔺",
      "change_pct": 1409.8,
      "place": "Pest, Hungary"
    },
    {
      "lon": 25.25,
      "lat": 46.25,
      "type": "hotspot_cell",
      "score": 237.8,
      "count": 420,
      "cell_deg": 0.5,
      "sources": {
        "GDELT": 420,
        "GDELT_DOC": 0,
        "DIRECT_FEED": 0,
        "USGS": 0,
        "GDACS": 0
      },
      "last7_score": 213.727,
      "prev7_score": 24.074,
      "trend": "up",
      "trend_arrow": "🔺",
      "change_pct": 787.8,
      "place": "Harghita, Romania"
    },
    {
      "lon": 24.25,
      "lat": 56.75,
      "type": "hotspot_cell",
      "score": 119.665,
      "count": 179,
      "cell_deg": 0.5,
      "sources": {
        "GDELT": 53,
        "GDELT_DOC": 0,
        "DIRECT_FEED": 126,
        "USGS": 0,
        "GDACS": 0
      },
      "last7_score": 115.125,
      "prev7_score": 4.54,
      "trend": "up",
      "trend_arrow": "🔺",
      "change_pct": 2436.1,
      "place": "Ķekavas novads, Latvia"
    },
    {
      "lon": 20.25,
      "lat": 47.25,
      "type": "hotspot_cell",
      "score": 103.535,
      "count": 250,
      "cell_deg": 0.5,
      "sources": {
        "GDELT": 250,
        "GDELT_DOC": 0,
        "DIRECT_FEED": 0,
        "USGS": 0,
        "GDACS": 0
      },
      "last7_score": 83.314,
      "prev7_score": 20.22,
      "trend": "up",
      "trend_arrow": "🔺",
      "change_pct": 312.0,
      "place": "Jász-Nagykun-Szolnok, Hungary"
    },
    {
      "lon": 21.25,
      "lat": 52.25,
      "type": "hotspot_cell",
      "score": 100.161,
      "count": 256,
      "cell_deg": 0.5,
      "sources": {
        "GDELT": 256,
        "GDELT_DOC": 0,
        "DIRECT_FEED": 0,
        "USGS": 0,
        "GDACS": 0
      },
      "last7_score": 74.331,
      "prev7_score": 25.83,
      "trend": "up",
      "trend_arrow": "🔺",
      "change_pct": 187.8,
      "place": "Warsaw, Poland"
    },
    {
      "lon": 15.25,
      "lat": 49.75,
      "type": "hotspot_cell",
      "score": 72.943,
      "count": 167,
      "cell_deg": 0.5,
      "sources": {
        "GDELT": 167,
        "GDELT_DOC": 0,
        "DIRECT_FEED": 0,
        "USGS": 0,
        "GDACS": 0
      },
      "last7_score": 60.075,
      "prev7_score": 12.868,
      "trend": "up",
      "trend_arrow": "🔺",
      "change_pct": 366.8,
      "place": "Vysočina Region, Czechia"
    }
  ]
}