{
  "generated_utc": "2026-07-06T10:05:55Z",
  "top": [
    {
      "lon": 26.25,
      "lat": 44.25,
      "type": "hotspot_cell",
      "score": 331.864,
      "count": 501,
      "cell_deg": 0.5,
      "sources": {
        "GDELT": 134,
        "GDELT_DOC": 361,
        "DIRECT_FEED": 6,
        "USGS": 0,
        "GDACS": 0
      },
      "last7_score": 321.489,
      "prev7_score": 10.374,
      "trend": "up",
      "trend_arrow": "🔺",
      "change_pct": 2998.9,
      "place": "Giurgiu, Romania"
    },
    {
      "lon": 20.25,
      "lat": 52.25,
      "type": "hotspot_cell",
      "score": 176.58,
      "count": 532,
      "cell_deg": 0.5,
      "sources": {
        "GDELT": 532,
        "GDELT_DOC": 0,
        "DIRECT_FEED": 0,
        "USGS": 0,
        "GDACS": 0
      },
      "last7_score": 141.746,
      "prev7_score": 34.834,
      "trend": "up",
      "trend_arrow": "🔺",
      "change_pct": 306.9,
      "place": "Sochaczew County, Poland"
    },
    {
      "lon": 19.25,
      "lat": 47.75,
      "type": "hotspot_cell",
      "score": 151.652,
      "count": 354,
      "cell_deg": 0.5,
      "sources": {
        "GDELT": 170,
        "GDELT_DOC": 0,
        "DIRECT_FEED": 184,
        "USGS": 0,
        "GDACS": 0
      },
      "last7_score": 138.806,
      "prev7_score": 12.847,
      "trend": "up",
      "trend_arrow": "🔺",
      "change_pct": 980.5,
      "place": "Pest, Hungary"
    },
    {
      "lon": 25.25,
      "lat": 54.75,
      "type": "hotspot_cell",
      "score": 114.81,
      "count": 279,
      "cell_deg": 0.5,
      "sources": {
        "GDELT": 64,
        "GDELT_DOC": 214,
        "DIRECT_FEED": 1,
        "USGS": 0,
        "GDACS": 0
      },
      "last7_score": 111.26,
      "prev7_score": 3.55,
      "trend": "up",
      "trend_arrow": "🔺",
      "change_pct": 3034.3,
      "place": "Vilnius County, Lithuania"
    },
    {
      "lon": 25.25,
      "lat": 46.25,
      "type": "hotspot_cell",
      "score": 108.465,
      "count": 335,
      "cell_deg": 0.5,
      "sources": {
        "GDELT": 335,
        "GDELT_DOC": 0,
        "DIRECT_FEED": 0,
        "USGS": 0,
        "GDACS": 0
      },
      "last7_score": 83.538,
      "prev7_score": 24.927,
      "trend": "up",
      "trend_arrow": "🔺",
      "change_pct": 235.1,
      "place": "Harghita, Romania"
    },
    {
      "lon": 24.25,
      "lat": 56.75,
      "type": "hotspot_cell",
      "score": 100.421,
      "count": 164,
      "cell_deg": 0.5,
      "sources": {
        "GDELT": 21,
        "GDELT_DOC": 0,
        "DIRECT_FEED": 143,
        "USGS": 0,
        "GDACS": 0
      },
      "last7_score": 99.208,
      "prev7_score": 1.213,
      "trend": "up",
      "trend_arrow": "🔺",
      "change_pct": 8078.0,
      "place": "Ķekavas novads, Latvia"
    },
    {
      "lon": 21.25,
      "lat": 52.25,
      "type": "hotspot_cell",
      "score": 97.774,
      "count": 301,
      "cell_deg": 0.5,
      "sources": {
        "GDELT": 301,
        "GDELT_DOC": 0,
        "DIRECT_FEED": 0,
        "USGS": 0,
        "GDACS": 0
      },
      "last7_score": 76.994,
      "prev7_score": 20.779,
      "trend": "up",
      "trend_arrow": "🔺",
      "change_pct": 270.5,
      "place": "Warsaw, Poland"
    },
    {
      "lon": 14.25,
      "lat": 50.25,
      "type": "hotspot_cell",
      "score": 87.35,
      "count": 267,
      "cell_deg": 0.5,
      "sources": {
        "GDELT": 116,
        "GDELT_DOC": 150,
        "DIRECT_FEED": 1,
        "USGS": 0,
        "GDACS": 0
      },
      "last7_score": 79.342,
      "prev7_score": 8.009,
      "trend": "up",
      "trend_arrow": "🔺",
      "change_pct": 890.7,
      "place": "SO ORP Kralupy nad Vltavou, Czechia"
    },
    {
      "lon": 15.25,
      "lat": 49.75,
      "type": "hotspot_cell",
      "score": 54.81,
      "count": 166,
      "cell_deg": 0.5,
      "sources": {
        "GDELT": 166,
        "GDELT_DOC": 0,
        "DIRECT_FEED": 0,
        "USGS": 0,
        "GDACS": 0
      },
      "last7_score": 42.599,
      "prev7_score": 12.211,
      "trend": "up",
      "trend_arrow": "🔺",
      "change_pct": 248.9,
      "place": "Vysočina Region, Czechia"
    },
    {
      "lon": 20.25,
      "lat": 47.25,
      "type": "hotspot_cell",
      "score": 50.762,
      "count": 163,
      "cell_deg": 0.5,
      "sources": {
        "GDELT": 163,
        "GDELT_DOC": 0,
        "DIRECT_FEED": 0,
        "USGS": 0,
        "GDACS": 0
      },
      "last7_score": 40.436,
      "prev7_score": 10.326,
      "trend": "up",
      "trend_arrow": "🔺",
      "change_pct": 291.6,
      "place": "Jász-Nagykun-Szolnok, Hungary"
    }
  ]
}