{
  "generated_utc": "2026-05-30T19:07:48Z",
  "top": [
    {
      "lon": 14.25,
      "lat": 50.25,
      "type": "hotspot_cell",
      "score": 867.423,
      "count": 1482,
      "cell_deg": 0.5,
      "sources": {
        "GDELT": 148,
        "GDELT_DOC": 1323,
        "DIRECT_FEED": 11,
        "USGS": 0,
        "GDACS": 0
      },
      "last7_score": 855.59,
      "prev7_score": 11.834,
      "trend": "up",
      "trend_arrow": "🔺",
      "change_pct": 7130.2,
      "place": "SO ORP Kralupy nad Vltavou, Czechia"
    },
    {
      "lon": 26.25,
      "lat": 44.25,
      "type": "hotspot_cell",
      "score": 777.45,
      "count": 1189,
      "cell_deg": 0.5,
      "sources": {
        "GDELT": 211,
        "GDELT_DOC": 967,
        "DIRECT_FEED": 11,
        "USGS": 0,
        "GDACS": 0
      },
      "last7_score": 770.838,
      "prev7_score": 6.612,
      "trend": "up",
      "trend_arrow": "🔺",
      "change_pct": 11558.0,
      "place": "Giurgiu, Romania"
    },
    {
      "lon": 25.25,
      "lat": 54.75,
      "type": "hotspot_cell",
      "score": 763.696,
      "count": 1191,
      "cell_deg": 0.5,
      "sources": {
        "GDELT": 105,
        "GDELT_DOC": 1084,
        "DIRECT_FEED": 2,
        "USGS": 0,
        "GDACS": 0
      },
      "last7_score": 754.649,
      "prev7_score": 9.048,
      "trend": "up",
      "trend_arrow": "🔺",
      "change_pct": 8240.7,
      "place": "Vilnius County, Lithuania"
    },
    {
      "lon": 20.25,
      "lat": 52.25,
      "type": "hotspot_cell",
      "score": 250.458,
      "count": 775,
      "cell_deg": 0.5,
      "sources": {
        "GDELT": 775,
        "GDELT_DOC": 0,
        "DIRECT_FEED": 0,
        "USGS": 0,
        "GDACS": 0
      },
      "last7_score": 180.788,
      "prev7_score": 69.67,
      "trend": "up",
      "trend_arrow": "🔺",
      "change_pct": 159.5,
      "place": "Sochaczew County, Poland"
    },
    {
      "lon": 19.25,
      "lat": 47.75,
      "type": "hotspot_cell",
      "score": 241.216,
      "count": 430,
      "cell_deg": 0.5,
      "sources": {
        "GDELT": 228,
        "GDELT_DOC": 0,
        "DIRECT_FEED": 202,
        "USGS": 0,
        "GDACS": 0
      },
      "last7_score": 228.523,
      "prev7_score": 12.693,
      "trend": "up",
      "trend_arrow": "🔺",
      "change_pct": 1700.4,
      "place": "Pest, Hungary"
    },
    {
      "lon": 25.25,
      "lat": 46.25,
      "type": "hotspot_cell",
      "score": 232.073,
      "count": 445,
      "cell_deg": 0.5,
      "sources": {
        "GDELT": 445,
        "GDELT_DOC": 0,
        "DIRECT_FEED": 0,
        "USGS": 0,
        "GDACS": 0
      },
      "last7_score": 211.596,
      "prev7_score": 20.477,
      "trend": "up",
      "trend_arrow": "🔺",
      "change_pct": 933.3,
      "place": "Harghita, Romania"
    },
    {
      "lon": 24.25,
      "lat": 56.75,
      "type": "hotspot_cell",
      "score": 111.932,
      "count": 179,
      "cell_deg": 0.5,
      "sources": {
        "GDELT": 54,
        "GDELT_DOC": 0,
        "DIRECT_FEED": 125,
        "USGS": 0,
        "GDACS": 0
      },
      "last7_score": 108.07,
      "prev7_score": 3.861,
      "trend": "up",
      "trend_arrow": "🔺",
      "change_pct": 2698.8,
      "place": "Ķekavas novads, Latvia"
    },
    {
      "lon": 21.25,
      "lat": 52.25,
      "type": "hotspot_cell",
      "score": 101.742,
      "count": 271,
      "cell_deg": 0.5,
      "sources": {
        "GDELT": 271,
        "GDELT_DOC": 0,
        "DIRECT_FEED": 0,
        "USGS": 0,
        "GDACS": 0
      },
      "last7_score": 79.771,
      "prev7_score": 21.971,
      "trend": "up",
      "trend_arrow": "🔺",
      "change_pct": 263.1,
      "place": "Warsaw, Poland"
    },
    {
      "lon": 20.25,
      "lat": 47.25,
      "type": "hotspot_cell",
      "score": 98.34,
      "count": 259,
      "cell_deg": 0.5,
      "sources": {
        "GDELT": 259,
        "GDELT_DOC": 0,
        "DIRECT_FEED": 0,
        "USGS": 0,
        "GDACS": 0
      },
      "last7_score": 81.14,
      "prev7_score": 17.2,
      "trend": "up",
      "trend_arrow": "🔺",
      "change_pct": 371.8,
      "place": "Jász-Nagykun-Szolnok, Hungary"
    },
    {
      "lon": 15.25,
      "lat": 49.75,
      "type": "hotspot_cell",
      "score": 65.29,
      "count": 170,
      "cell_deg": 0.5,
      "sources": {
        "GDELT": 170,
        "GDELT_DOC": 0,
        "DIRECT_FEED": 0,
        "USGS": 0,
        "GDACS": 0
      },
      "last7_score": 54.344,
      "prev7_score": 10.946,
      "trend": "up",
      "trend_arrow": "🔺",
      "change_pct": 396.5,
      "place": "Vysočina Region, Czechia"
    }
  ]
}