{
  "generated_utc": "2026-07-18T18:59:09Z",
  "top": [
    {
      "lon": 14.25,
      "lat": 50.25,
      "type": "hotspot_cell",
      "score": 653.131,
      "count": 1056,
      "cell_deg": 0.5,
      "sources": {
        "GDELT": 108,
        "GDELT_DOC": 944,
        "DIRECT_FEED": 4,
        "USGS": 0,
        "GDACS": 0
      },
      "last7_score": 647.076,
      "prev7_score": 6.056,
      "trend": "up",
      "trend_arrow": "🔺",
      "change_pct": 10585.3,
      "place": "SO ORP Kralupy nad Vltavou, Czechia"
    },
    {
      "lon": 26.25,
      "lat": 44.25,
      "type": "hotspot_cell",
      "score": 543.127,
      "count": 868,
      "cell_deg": 0.5,
      "sources": {
        "GDELT": 103,
        "GDELT_DOC": 762,
        "DIRECT_FEED": 3,
        "USGS": 0,
        "GDACS": 0
      },
      "last7_score": 536.519,
      "prev7_score": 6.608,
      "trend": "up",
      "trend_arrow": "🔺",
      "change_pct": 8019.3,
      "place": "Giurgiu, Romania"
    },
    {
      "lon": 25.25,
      "lat": 54.75,
      "type": "hotspot_cell",
      "score": 432.082,
      "count": 660,
      "cell_deg": 0.5,
      "sources": {
        "GDELT": 79,
        "GDELT_DOC": 581,
        "DIRECT_FEED": 0,
        "USGS": 0,
        "GDACS": 0
      },
      "last7_score": 427.915,
      "prev7_score": 4.166,
      "trend": "up",
      "trend_arrow": "🔺",
      "change_pct": 10171.3,
      "place": "Vilnius County, Lithuania"
    },
    {
      "lon": 19.25,
      "lat": 47.75,
      "type": "hotspot_cell",
      "score": 191.611,
      "count": 355,
      "cell_deg": 0.5,
      "sources": {
        "GDELT": 165,
        "GDELT_DOC": 0,
        "DIRECT_FEED": 190,
        "USGS": 0,
        "GDACS": 0
      },
      "last7_score": 181.633,
      "prev7_score": 9.978,
      "trend": "up",
      "trend_arrow": "🔺",
      "change_pct": 1720.3,
      "place": "Pest, Hungary"
    },
    {
      "lon": 20.25,
      "lat": 52.25,
      "type": "hotspot_cell",
      "score": 169.58,
      "count": 475,
      "cell_deg": 0.5,
      "sources": {
        "GDELT": 475,
        "GDELT_DOC": 0,
        "DIRECT_FEED": 0,
        "USGS": 0,
        "GDACS": 0
      },
      "last7_score": 143.341,
      "prev7_score": 26.239,
      "trend": "up",
      "trend_arrow": "🔺",
      "change_pct": 446.3,
      "place": "Sochaczew County, Poland"
    },
    {
      "lon": 25.25,
      "lat": 46.25,
      "type": "hotspot_cell",
      "score": 135.298,
      "count": 391,
      "cell_deg": 0.5,
      "sources": {
        "GDELT": 391,
        "GDELT_DOC": 0,
        "DIRECT_FEED": 0,
        "USGS": 0,
        "GDACS": 0
      },
      "last7_score": 110.094,
      "prev7_score": 25.204,
      "trend": "up",
      "trend_arrow": "🔺",
      "change_pct": 336.8,
      "place": "Harghita, Romania"
    },
    {
      "lon": 24.25,
      "lat": 56.75,
      "type": "hotspot_cell",
      "score": 94.641,
      "count": 151,
      "cell_deg": 0.5,
      "sources": {
        "GDELT": 18,
        "GDELT_DOC": 0,
        "DIRECT_FEED": 133,
        "USGS": 0,
        "GDACS": 0
      },
      "last7_score": 93.68,
      "prev7_score": 0.961,
      "trend": "up",
      "trend_arrow": "🔺",
      "change_pct": 9648.5,
      "place": "Ķekavas novads, Latvia"
    },
    {
      "lon": 21.25,
      "lat": 52.25,
      "type": "hotspot_cell",
      "score": 87.389,
      "count": 230,
      "cell_deg": 0.5,
      "sources": {
        "GDELT": 230,
        "GDELT_DOC": 0,
        "DIRECT_FEED": 0,
        "USGS": 0,
        "GDACS": 0
      },
      "last7_score": 73.647,
      "prev7_score": 13.742,
      "trend": "up",
      "trend_arrow": "🔺",
      "change_pct": 435.9,
      "place": "Warsaw, Poland"
    },
    {
      "lon": 20.25,
      "lat": 47.25,
      "type": "hotspot_cell",
      "score": 75.963,
      "count": 207,
      "cell_deg": 0.5,
      "sources": {
        "GDELT": 207,
        "GDELT_DOC": 0,
        "DIRECT_FEED": 0,
        "USGS": 0,
        "GDACS": 0
      },
      "last7_score": 63.718,
      "prev7_score": 12.245,
      "trend": "up",
      "trend_arrow": "🔺",
      "change_pct": 420.4,
      "place": "Jász-Nagykun-Szolnok, Hungary"
    },
    {
      "lon": 22.25,
      "lat": 55.25,
      "type": "hotspot_cell",
      "score": 59.178,
      "count": 62,
      "cell_deg": 0.5,
      "sources": {
        "GDELT": 0,
        "GDELT_DOC": 61,
        "DIRECT_FEED": 1,
        "USGS": 0,
        "GDACS": 0
      },
      "last7_score": 59.178,
      "prev7_score": 0.0,
      "trend": "new",
      "trend_arrow": "🆕",
      "change_pct": null,
      "place": "Tauragės seniūnija, Lithuania"
    }
  ]
}