{
  "generated_utc": "2026-04-27T19:28:07Z",
  "top": [
    {
      "lon": 14.25,
      "lat": 50.25,
      "type": "hotspot_cell",
      "score": 999.669,
      "count": 1820,
      "cell_deg": 0.5,
      "sources": {
        "GDELT": 194,
        "GDELT_DOC": 1624,
        "DIRECT_FEED": 2,
        "USGS": 0,
        "GDACS": 0
      },
      "last7_score": 986.886,
      "prev7_score": 12.783,
      "trend": "up",
      "trend_arrow": "🔺",
      "change_pct": 7620.5,
      "place": "SO ORP Kralupy nad Vltavou, Czechia"
    },
    {
      "lon": 26.25,
      "lat": 44.25,
      "type": "hotspot_cell",
      "score": 983.203,
      "count": 1587,
      "cell_deg": 0.5,
      "sources": {
        "GDELT": 150,
        "GDELT_DOC": 1429,
        "DIRECT_FEED": 8,
        "USGS": 0,
        "GDACS": 0
      },
      "last7_score": 972.965,
      "prev7_score": 10.238,
      "trend": "up",
      "trend_arrow": "🔺",
      "change_pct": 9403.5,
      "place": "Giurgiu, Romania"
    },
    {
      "lon": 25.25,
      "lat": 54.75,
      "type": "hotspot_cell",
      "score": 689.925,
      "count": 1175,
      "cell_deg": 0.5,
      "sources": {
        "GDELT": 74,
        "GDELT_DOC": 1101,
        "DIRECT_FEED": 0,
        "USGS": 0,
        "GDACS": 0
      },
      "last7_score": 685.131,
      "prev7_score": 4.795,
      "trend": "up",
      "trend_arrow": "🔺",
      "change_pct": 14189.2,
      "place": "Vilnius County, Lithuania"
    },
    {
      "lon": 19.25,
      "lat": 47.75,
      "type": "hotspot_cell",
      "score": 286.744,
      "count": 805,
      "cell_deg": 0.5,
      "sources": {
        "GDELT": 570,
        "GDELT_DOC": 0,
        "DIRECT_FEED": 235,
        "USGS": 0,
        "GDACS": 0
      },
      "last7_score": 250.181,
      "prev7_score": 36.563,
      "trend": "up",
      "trend_arrow": "🔺",
      "change_pct": 584.3,
      "place": "Pest, Hungary"
    },
    {
      "lon": 20.25,
      "lat": 47.25,
      "type": "hotspot_cell",
      "score": 200.445,
      "count": 699,
      "cell_deg": 0.5,
      "sources": {
        "GDELT": 699,
        "GDELT_DOC": 0,
        "DIRECT_FEED": 0,
        "USGS": 0,
        "GDACS": 0
      },
      "last7_score": 158.16,
      "prev7_score": 42.285,
      "trend": "up",
      "trend_arrow": "🔺",
      "change_pct": 274.0,
      "place": "Jász-Nagykun-Szolnok, Hungary"
    },
    {
      "lon": 20.25,
      "lat": 52.25,
      "type": "hotspot_cell",
      "score": 161.74,
      "count": 468,
      "cell_deg": 0.5,
      "sources": {
        "GDELT": 468,
        "GDELT_DOC": 0,
        "DIRECT_FEED": 0,
        "USGS": 0,
        "GDACS": 0
      },
      "last7_score": 135.943,
      "prev7_score": 25.796,
      "trend": "up",
      "trend_arrow": "🔺",
      "change_pct": 427.0,
      "place": "Sochaczew County, Poland"
    },
    {
      "lon": 26.75,
      "lat": 47.75,
      "type": "hotspot_cell",
      "score": 128.308,
      "count": 168,
      "cell_deg": 0.5,
      "sources": {
        "GDELT": 2,
        "GDELT_DOC": 163,
        "DIRECT_FEED": 3,
        "USGS": 0,
        "GDACS": 0
      },
      "last7_score": 127.977,
      "prev7_score": 0.331,
      "trend": "up",
      "trend_arrow": "🔺",
      "change_pct": 38506.2,
      "place": "Botoșani, Romania"
    },
    {
      "lon": 24.25,
      "lat": 56.75,
      "type": "hotspot_cell",
      "score": 105.583,
      "count": 175,
      "cell_deg": 0.5,
      "sources": {
        "GDELT": 36,
        "GDELT_DOC": 0,
        "DIRECT_FEED": 139,
        "USGS": 0,
        "GDACS": 0
      },
      "last7_score": 103.964,
      "prev7_score": 1.619,
      "trend": "up",
      "trend_arrow": "🔺",
      "change_pct": 6323.4,
      "place": "Ķekavas novads, Latvia"
    },
    {
      "lon": 25.25,
      "lat": 46.25,
      "type": "hotspot_cell",
      "score": 101.661,
      "count": 292,
      "cell_deg": 0.5,
      "sources": {
        "GDELT": 292,
        "GDELT_DOC": 0,
        "DIRECT_FEED": 0,
        "USGS": 0,
        "GDACS": 0
      },
      "last7_score": 85.481,
      "prev7_score": 16.181,
      "trend": "up",
      "trend_arrow": "🔺",
      "change_pct": 428.3,
      "place": "Harghita, Romania"
    },
    {
      "lon": 22.25,
      "lat": 55.25,
      "type": "hotspot_cell",
      "score": 74.389,
      "count": 111,
      "cell_deg": 0.5,
      "sources": {
        "GDELT": 0,
        "GDELT_DOC": 110,
        "DIRECT_FEED": 1,
        "USGS": 0,
        "GDACS": 0
      },
      "last7_score": 74.389,
      "prev7_score": 0.0,
      "trend": "new",
      "trend_arrow": "🆕",
      "change_pct": null,
      "place": "Tauragės seniūnija, Lithuania"
    }
  ]
}