{
  "generated_utc": "2026-04-08T07:25:12Z",
  "top": [
    {
      "lon": 26.25,
      "lat": 44.25,
      "type": "hotspot_cell",
      "score": 848.991,
      "count": 1349,
      "cell_deg": 0.5,
      "sources": {
        "GDELT": 157,
        "GDELT_DOC": 1185,
        "DIRECT_FEED": 7,
        "USGS": 0,
        "GDACS": 0
      },
      "last7_score": 835.727,
      "prev7_score": 13.264,
      "trend": "up",
      "trend_arrow": "🔺",
      "change_pct": 6200.9,
      "place": "Giurgiu, Romania"
    },
    {
      "lon": 14.25,
      "lat": 50.25,
      "type": "hotspot_cell",
      "score": 614.231,
      "count": 1101,
      "cell_deg": 0.5,
      "sources": {
        "GDELT": 100,
        "GDELT_DOC": 1000,
        "DIRECT_FEED": 1,
        "USGS": 0,
        "GDACS": 0
      },
      "last7_score": 606.692,
      "prev7_score": 7.538,
      "trend": "up",
      "trend_arrow": "🔺",
      "change_pct": 7948.1,
      "place": "SO ORP Kralupy nad Vltavou, Czechia"
    },
    {
      "lon": 25.25,
      "lat": 54.75,
      "type": "hotspot_cell",
      "score": 474.849,
      "count": 828,
      "cell_deg": 0.5,
      "sources": {
        "GDELT": 76,
        "GDELT_DOC": 752,
        "DIRECT_FEED": 0,
        "USGS": 0,
        "GDACS": 0
      },
      "last7_score": 468.432,
      "prev7_score": 6.417,
      "trend": "up",
      "trend_arrow": "🔺",
      "change_pct": 7200.0,
      "place": "Vilnius County, Lithuania"
    },
    {
      "lon": 19.25,
      "lat": 47.75,
      "type": "hotspot_cell",
      "score": 380.24,
      "count": 594,
      "cell_deg": 0.5,
      "sources": {
        "GDELT": 383,
        "GDELT_DOC": 0,
        "DIRECT_FEED": 211,
        "USGS": 0,
        "GDACS": 0
      },
      "last7_score": 361.903,
      "prev7_score": 18.337,
      "trend": "up",
      "trend_arrow": "🔺",
      "change_pct": 1873.6,
      "place": "Pest, Hungary"
    },
    {
      "lon": 20.25,
      "lat": 47.25,
      "type": "hotspot_cell",
      "score": 152.261,
      "count": 327,
      "cell_deg": 0.5,
      "sources": {
        "GDELT": 327,
        "GDELT_DOC": 0,
        "DIRECT_FEED": 0,
        "USGS": 0,
        "GDACS": 0
      },
      "last7_score": 128.128,
      "prev7_score": 24.132,
      "trend": "up",
      "trend_arrow": "🔺",
      "change_pct": 430.9,
      "place": "Jász-Nagykun-Szolnok, Hungary"
    },
    {
      "lon": 20.25,
      "lat": 52.25,
      "type": "hotspot_cell",
      "score": 132.559,
      "count": 428,
      "cell_deg": 0.5,
      "sources": {
        "GDELT": 428,
        "GDELT_DOC": 0,
        "DIRECT_FEED": 0,
        "USGS": 0,
        "GDACS": 0
      },
      "last7_score": 93.573,
      "prev7_score": 38.986,
      "trend": "up",
      "trend_arrow": "🔺",
      "change_pct": 140.0,
      "place": "Sochaczew County, Poland"
    },
    {
      "lon": 24.25,
      "lat": 56.75,
      "type": "hotspot_cell",
      "score": 102.763,
      "count": 158,
      "cell_deg": 0.5,
      "sources": {
        "GDELT": 29,
        "GDELT_DOC": 0,
        "DIRECT_FEED": 129,
        "USGS": 0,
        "GDACS": 0
      },
      "last7_score": 99.549,
      "prev7_score": 3.213,
      "trend": "up",
      "trend_arrow": "🔺",
      "change_pct": 2998.0,
      "place": "Ķekavas novads, Latvia"
    },
    {
      "lon": 25.25,
      "lat": 46.25,
      "type": "hotspot_cell",
      "score": 95.941,
      "count": 257,
      "cell_deg": 0.5,
      "sources": {
        "GDELT": 257,
        "GDELT_DOC": 0,
        "DIRECT_FEED": 0,
        "USGS": 0,
        "GDACS": 0
      },
      "last7_score": 75.191,
      "prev7_score": 20.75,
      "trend": "up",
      "trend_arrow": "🔺",
      "change_pct": 262.4,
      "place": "Harghita, Romania"
    },
    {
      "lon": 27.75,
      "lat": 47.25,
      "type": "hotspot_cell",
      "score": 48.301,
      "count": 81,
      "cell_deg": 0.5,
      "sources": {
        "GDELT": 0,
        "GDELT_DOC": 81,
        "DIRECT_FEED": 0,
        "USGS": 0,
        "GDACS": 0
      },
      "last7_score": 48.301,
      "prev7_score": 0.0,
      "trend": "new",
      "trend_arrow": "🆕",
      "change_pct": null,
      "place": "Iași, Romania"
    },
    {
      "lon": 15.25,
      "lat": 49.75,
      "type": "hotspot_cell",
      "score": 45.767,
      "count": 118,
      "cell_deg": 0.5,
      "sources": {
        "GDELT": 118,
        "GDELT_DOC": 0,
        "DIRECT_FEED": 0,
        "USGS": 0,
        "GDACS": 0
      },
      "last7_score": 36.304,
      "prev7_score": 9.463,
      "trend": "up",
      "trend_arrow": "🔺",
      "change_pct": 283.7,
      "place": "Vysočina Region, Czechia"
    }
  ]
}