{
  "generated_utc": "2026-04-13T08:08:58Z",
  "top": [
    {
      "lon": 26.25,
      "lat": 44.25,
      "type": "hotspot_cell",
      "score": 849.937,
      "count": 1507,
      "cell_deg": 0.5,
      "sources": {
        "GDELT": 141,
        "GDELT_DOC": 1361,
        "DIRECT_FEED": 5,
        "USGS": 0,
        "GDACS": 0
      },
      "last7_score": 837.874,
      "prev7_score": 12.063,
      "trend": "up",
      "trend_arrow": "🔺",
      "change_pct": 6846.1,
      "place": "Giurgiu, Romania"
    },
    {
      "lon": 19.25,
      "lat": 47.75,
      "type": "hotspot_cell",
      "score": 688.981,
      "count": 1104,
      "cell_deg": 0.5,
      "sources": {
        "GDELT": 811,
        "GDELT_DOC": 0,
        "DIRECT_FEED": 293,
        "USGS": 0,
        "GDACS": 0
      },
      "last7_score": 668.87,
      "prev7_score": 20.112,
      "trend": "up",
      "trend_arrow": "🔺",
      "change_pct": 3225.7,
      "place": "Pest, Hungary"
    },
    {
      "lon": 14.25,
      "lat": 50.25,
      "type": "hotspot_cell",
      "score": 681.012,
      "count": 1188,
      "cell_deg": 0.5,
      "sources": {
        "GDELT": 80,
        "GDELT_DOC": 1108,
        "DIRECT_FEED": 0,
        "USGS": 0,
        "GDACS": 0
      },
      "last7_score": 675.05,
      "prev7_score": 5.961,
      "trend": "up",
      "trend_arrow": "🔺",
      "change_pct": 11223.7,
      "place": "SO ORP Kralupy nad Vltavou, Czechia"
    },
    {
      "lon": 25.25,
      "lat": 54.75,
      "type": "hotspot_cell",
      "score": 533.383,
      "count": 932,
      "cell_deg": 0.5,
      "sources": {
        "GDELT": 68,
        "GDELT_DOC": 862,
        "DIRECT_FEED": 2,
        "USGS": 0,
        "GDACS": 0
      },
      "last7_score": 529.234,
      "prev7_score": 4.149,
      "trend": "up",
      "trend_arrow": "🔺",
      "change_pct": 12656.9,
      "place": "Vilnius County, Lithuania"
    },
    {
      "lon": 20.25,
      "lat": 47.25,
      "type": "hotspot_cell",
      "score": 277.312,
      "count": 537,
      "cell_deg": 0.5,
      "sources": {
        "GDELT": 537,
        "GDELT_DOC": 0,
        "DIRECT_FEED": 0,
        "USGS": 0,
        "GDACS": 0
      },
      "last7_score": 252.475,
      "prev7_score": 24.838,
      "trend": "up",
      "trend_arrow": "🔺",
      "change_pct": 916.5,
      "place": "Jász-Nagykun-Szolnok, Hungary"
    },
    {
      "lon": 20.25,
      "lat": 52.25,
      "type": "hotspot_cell",
      "score": 138.626,
      "count": 397,
      "cell_deg": 0.5,
      "sources": {
        "GDELT": 397,
        "GDELT_DOC": 0,
        "DIRECT_FEED": 0,
        "USGS": 0,
        "GDACS": 0
      },
      "last7_score": 115.172,
      "prev7_score": 23.454,
      "trend": "up",
      "trend_arrow": "🔺",
      "change_pct": 391.1,
      "place": "Sochaczew County, Poland"
    },
    {
      "lon": 24.25,
      "lat": 56.75,
      "type": "hotspot_cell",
      "score": 98.563,
      "count": 155,
      "cell_deg": 0.5,
      "sources": {
        "GDELT": 22,
        "GDELT_DOC": 0,
        "DIRECT_FEED": 133,
        "USGS": 0,
        "GDACS": 0
      },
      "last7_score": 97.776,
      "prev7_score": 0.787,
      "trend": "up",
      "trend_arrow": "🔺",
      "change_pct": 12330.7,
      "place": "Ķekavas novads, Latvia"
    },
    {
      "lon": 25.25,
      "lat": 46.25,
      "type": "hotspot_cell",
      "score": 62.137,
      "count": 234,
      "cell_deg": 0.5,
      "sources": {
        "GDELT": 234,
        "GDELT_DOC": 0,
        "DIRECT_FEED": 0,
        "USGS": 0,
        "GDACS": 0
      },
      "last7_score": 44.846,
      "prev7_score": 17.291,
      "trend": "up",
      "trend_arrow": "🔺",
      "change_pct": 159.4,
      "place": "Harghita, Romania"
    },
    {
      "lon": 15.25,
      "lat": 49.75,
      "type": "hotspot_cell",
      "score": 48.78,
      "count": 124,
      "cell_deg": 0.5,
      "sources": {
        "GDELT": 124,
        "GDELT_DOC": 0,
        "DIRECT_FEED": 0,
        "USGS": 0,
        "GDACS": 0
      },
      "last7_score": 41.432,
      "prev7_score": 7.348,
      "trend": "up",
      "trend_arrow": "🔺",
      "change_pct": 463.9,
      "place": "Vysočina Region, Czechia"
    },
    {
      "lon": 21.25,
      "lat": 52.25,
      "type": "hotspot_cell",
      "score": 41.37,
      "count": 119,
      "cell_deg": 0.5,
      "sources": {
        "GDELT": 119,
        "GDELT_DOC": 0,
        "DIRECT_FEED": 0,
        "USGS": 0,
        "GDACS": 0
      },
      "last7_score": 33.779,
      "prev7_score": 7.591,
      "trend": "up",
      "trend_arrow": "🔺",
      "change_pct": 345.0,
      "place": "Warsaw, Poland"
    }
  ]
}