{
  "generated_utc": "2026-07-04T08:33:37Z",
  "top": [
    {
      "lon": 20.25,
      "lat": 52.25,
      "type": "hotspot_cell",
      "score": 219.604,
      "count": 549,
      "cell_deg": 0.5,
      "sources": {
        "GDELT": 549,
        "GDELT_DOC": 0,
        "DIRECT_FEED": 0,
        "USGS": 0,
        "GDACS": 0
      },
      "last7_score": 181.591,
      "prev7_score": 38.013,
      "trend": "up",
      "trend_arrow": "🔺",
      "change_pct": 377.7,
      "place": "Sochaczew County, Poland"
    },
    {
      "lon": 26.25,
      "lat": 44.25,
      "type": "hotspot_cell",
      "score": 212.492,
      "count": 571,
      "cell_deg": 0.5,
      "sources": {
        "GDELT": 144,
        "GDELT_DOC": 422,
        "DIRECT_FEED": 5,
        "USGS": 0,
        "GDACS": 0
      },
      "last7_score": 203.502,
      "prev7_score": 8.99,
      "trend": "up",
      "trend_arrow": "🔺",
      "change_pct": 2163.8,
      "place": "Giurgiu, Romania"
    },
    {
      "lon": 19.25,
      "lat": 47.75,
      "type": "hotspot_cell",
      "score": 186.792,
      "count": 363,
      "cell_deg": 0.5,
      "sources": {
        "GDELT": 181,
        "GDELT_DOC": 0,
        "DIRECT_FEED": 182,
        "USGS": 0,
        "GDACS": 0
      },
      "last7_score": 171.742,
      "prev7_score": 15.049,
      "trend": "up",
      "trend_arrow": "🔺",
      "change_pct": 1041.2,
      "place": "Pest, Hungary"
    },
    {
      "lon": 14.25,
      "lat": 50.25,
      "type": "hotspot_cell",
      "score": 181.832,
      "count": 495,
      "cell_deg": 0.5,
      "sources": {
        "GDELT": 134,
        "GDELT_DOC": 360,
        "DIRECT_FEED": 1,
        "USGS": 0,
        "GDACS": 0
      },
      "last7_score": 172.733,
      "prev7_score": 9.1,
      "trend": "up",
      "trend_arrow": "🔺",
      "change_pct": 1798.2,
      "place": "SO ORP Kralupy nad Vltavou, Czechia"
    },
    {
      "lon": 25.25,
      "lat": 54.75,
      "type": "hotspot_cell",
      "score": 172.949,
      "count": 423,
      "cell_deg": 0.5,
      "sources": {
        "GDELT": 70,
        "GDELT_DOC": 353,
        "DIRECT_FEED": 0,
        "USGS": 0,
        "GDACS": 0
      },
      "last7_score": 169.225,
      "prev7_score": 3.725,
      "trend": "up",
      "trend_arrow": "🔺",
      "change_pct": 4443.3,
      "place": "Vilnius County, Lithuania"
    },
    {
      "lon": 25.25,
      "lat": 46.25,
      "type": "hotspot_cell",
      "score": 131.308,
      "count": 349,
      "cell_deg": 0.5,
      "sources": {
        "GDELT": 349,
        "GDELT_DOC": 0,
        "DIRECT_FEED": 0,
        "USGS": 0,
        "GDACS": 0
      },
      "last7_score": 107.142,
      "prev7_score": 24.165,
      "trend": "up",
      "trend_arrow": "🔺",
      "change_pct": 343.4,
      "place": "Harghita, Romania"
    },
    {
      "lon": 21.25,
      "lat": 52.25,
      "type": "hotspot_cell",
      "score": 112.262,
      "count": 312,
      "cell_deg": 0.5,
      "sources": {
        "GDELT": 312,
        "GDELT_DOC": 0,
        "DIRECT_FEED": 0,
        "USGS": 0,
        "GDACS": 0
      },
      "last7_score": 89.35,
      "prev7_score": 22.913,
      "trend": "up",
      "trend_arrow": "🔺",
      "change_pct": 290.0,
      "place": "Warsaw, Poland"
    },
    {
      "lon": 24.25,
      "lat": 56.75,
      "type": "hotspot_cell",
      "score": 109.601,
      "count": 169,
      "cell_deg": 0.5,
      "sources": {
        "GDELT": 25,
        "GDELT_DOC": 0,
        "DIRECT_FEED": 144,
        "USGS": 0,
        "GDACS": 0
      },
      "last7_score": 107.917,
      "prev7_score": 1.684,
      "trend": "up",
      "trend_arrow": "🔺",
      "change_pct": 6309.7,
      "place": "Ķekavas novads, Latvia"
    },
    {
      "lon": 15.25,
      "lat": 49.75,
      "type": "hotspot_cell",
      "score": 62.601,
      "count": 162,
      "cell_deg": 0.5,
      "sources": {
        "GDELT": 162,
        "GDELT_DOC": 0,
        "DIRECT_FEED": 0,
        "USGS": 0,
        "GDACS": 0
      },
      "last7_score": 51.257,
      "prev7_score": 11.344,
      "trend": "up",
      "trend_arrow": "🔺",
      "change_pct": 351.9,
      "place": "Vysočina Region, Czechia"
    },
    {
      "lon": 20.25,
      "lat": 47.25,
      "type": "hotspot_cell",
      "score": 60.356,
      "count": 180,
      "cell_deg": 0.5,
      "sources": {
        "GDELT": 180,
        "GDELT_DOC": 0,
        "DIRECT_FEED": 0,
        "USGS": 0,
        "GDACS": 0
      },
      "last7_score": 46.77,
      "prev7_score": 13.586,
      "trend": "up",
      "trend_arrow": "🔺",
      "change_pct": 244.3,
      "place": "Jász-Nagykun-Szolnok, Hungary"
    }
  ]
}