{
  "generated_utc": "2026-04-15T07:51:30Z",
  "top": [
    {
      "lon": 14.25,
      "lat": 50.25,
      "type": "hotspot_cell",
      "score": 826.91,
      "count": 1332,
      "cell_deg": 0.5,
      "sources": {
        "GDELT": 79,
        "GDELT_DOC": 1253,
        "DIRECT_FEED": 0,
        "USGS": 0,
        "GDACS": 0
      },
      "last7_score": 821.254,
      "prev7_score": 5.656,
      "trend": "up",
      "trend_arrow": "🔺",
      "change_pct": 14420.2,
      "place": "SO ORP Kralupy nad Vltavou, Czechia"
    },
    {
      "lon": 26.25,
      "lat": 44.25,
      "type": "hotspot_cell",
      "score": 810.147,
      "count": 1381,
      "cell_deg": 0.5,
      "sources": {
        "GDELT": 114,
        "GDELT_DOC": 1265,
        "DIRECT_FEED": 2,
        "USGS": 0,
        "GDACS": 0
      },
      "last7_score": 798.964,
      "prev7_score": 11.184,
      "trend": "up",
      "trend_arrow": "🔺",
      "change_pct": 7044.0,
      "place": "Giurgiu, Romania"
    },
    {
      "lon": 19.25,
      "lat": 47.75,
      "type": "hotspot_cell",
      "score": 796.148,
      "count": 1397,
      "cell_deg": 0.5,
      "sources": {
        "GDELT": 1071,
        "GDELT_DOC": 0,
        "DIRECT_FEED": 326,
        "USGS": 0,
        "GDACS": 0
      },
      "last7_score": 732.521,
      "prev7_score": 63.627,
      "trend": "up",
      "trend_arrow": "🔺",
      "change_pct": 1051.3,
      "place": "Pest, Hungary"
    },
    {
      "lon": 25.25,
      "lat": 54.75,
      "type": "hotspot_cell",
      "score": 516.888,
      "count": 918,
      "cell_deg": 0.5,
      "sources": {
        "GDELT": 72,
        "GDELT_DOC": 844,
        "DIRECT_FEED": 2,
        "USGS": 0,
        "GDACS": 0
      },
      "last7_score": 511.744,
      "prev7_score": 5.145,
      "trend": "up",
      "trend_arrow": "🔺",
      "change_pct": 9846.9,
      "place": "Vilnius County, Lithuania"
    },
    {
      "lon": 20.25,
      "lat": 47.25,
      "type": "hotspot_cell",
      "score": 368.018,
      "count": 682,
      "cell_deg": 0.5,
      "sources": {
        "GDELT": 682,
        "GDELT_DOC": 0,
        "DIRECT_FEED": 0,
        "USGS": 0,
        "GDACS": 0
      },
      "last7_score": 331.957,
      "prev7_score": 36.061,
      "trend": "up",
      "trend_arrow": "🔺",
      "change_pct": 820.6,
      "place": "Jász-Nagykun-Szolnok, Hungary"
    },
    {
      "lon": 20.25,
      "lat": 52.25,
      "type": "hotspot_cell",
      "score": 153.064,
      "count": 379,
      "cell_deg": 0.5,
      "sources": {
        "GDELT": 379,
        "GDELT_DOC": 0,
        "DIRECT_FEED": 0,
        "USGS": 0,
        "GDACS": 0
      },
      "last7_score": 129.282,
      "prev7_score": 23.782,
      "trend": "up",
      "trend_arrow": "🔺",
      "change_pct": 443.6,
      "place": "Sochaczew County, Poland"
    },
    {
      "lon": 24.25,
      "lat": 56.75,
      "type": "hotspot_cell",
      "score": 107.513,
      "count": 157,
      "cell_deg": 0.5,
      "sources": {
        "GDELT": 25,
        "GDELT_DOC": 0,
        "DIRECT_FEED": 132,
        "USGS": 0,
        "GDACS": 0
      },
      "last7_score": 106.774,
      "prev7_score": 0.739,
      "trend": "up",
      "trend_arrow": "🔺",
      "change_pct": 14348.5,
      "place": "Ķekavas novads, Latvia"
    },
    {
      "lon": 25.25,
      "lat": 46.25,
      "type": "hotspot_cell",
      "score": 89.819,
      "count": 234,
      "cell_deg": 0.5,
      "sources": {
        "GDELT": 234,
        "GDELT_DOC": 0,
        "DIRECT_FEED": 0,
        "USGS": 0,
        "GDACS": 0
      },
      "last7_score": 69.34,
      "prev7_score": 20.478,
      "trend": "up",
      "trend_arrow": "🔺",
      "change_pct": 238.6,
      "place": "Harghita, Romania"
    },
    {
      "lon": 21.25,
      "lat": 52.25,
      "type": "hotspot_cell",
      "score": 79.866,
      "count": 144,
      "cell_deg": 0.5,
      "sources": {
        "GDELT": 144,
        "GDELT_DOC": 0,
        "DIRECT_FEED": 0,
        "USGS": 0,
        "GDACS": 0
      },
      "last7_score": 71.412,
      "prev7_score": 8.454,
      "trend": "up",
      "trend_arrow": "🔺",
      "change_pct": 744.7,
      "place": "Warsaw, Poland"
    },
    {
      "lon": 15.25,
      "lat": 49.75,
      "type": "hotspot_cell",
      "score": 64.333,
      "count": 139,
      "cell_deg": 0.5,
      "sources": {
        "GDELT": 139,
        "GDELT_DOC": 0,
        "DIRECT_FEED": 0,
        "USGS": 0,
        "GDACS": 0
      },
      "last7_score": 55.916,
      "prev7_score": 8.417,
      "trend": "up",
      "trend_arrow": "🔺",
      "change_pct": 564.3,
      "place": "Vysočina Region, Czechia"
    }
  ]
}