{
  "generated_utc": "2026-03-19T13:11:31Z",
  "top": [
    {
      "lon": 14.25,
      "lat": 50.25,
      "type": "hotspot_cell",
      "score": 909.716,
      "count": 1472,
      "cell_deg": 0.5,
      "sources": {
        "GDELT": 112,
        "GDELT_DOC": 1357,
        "DIRECT_FEED": 3,
        "USGS": 0,
        "GDACS": 0
      },
      "last7_score": 902.005,
      "prev7_score": 7.711,
      "trend": "up",
      "trend_arrow": "🔺",
      "change_pct": 11597.3,
      "place": "SO ORP Kralupy nad Vltavou, Czechia"
    },
    {
      "lon": 26.25,
      "lat": 44.25,
      "type": "hotspot_cell",
      "score": 874.391,
      "count": 1368,
      "cell_deg": 0.5,
      "sources": {
        "GDELT": 178,
        "GDELT_DOC": 1188,
        "DIRECT_FEED": 2,
        "USGS": 0,
        "GDACS": 0
      },
      "last7_score": 858.946,
      "prev7_score": 15.445,
      "trend": "up",
      "trend_arrow": "🔺",
      "change_pct": 5461.4,
      "place": "Giurgiu, Romania"
    },
    {
      "lon": 25.25,
      "lat": 54.75,
      "type": "hotspot_cell",
      "score": 519.863,
      "count": 905,
      "cell_deg": 0.5,
      "sources": {
        "GDELT": 74,
        "GDELT_DOC": 831,
        "DIRECT_FEED": 0,
        "USGS": 0,
        "GDACS": 0
      },
      "last7_score": 513.076,
      "prev7_score": 6.786,
      "trend": "up",
      "trend_arrow": "🔺",
      "change_pct": 7460.5,
      "place": "Vilnius County, Lithuania"
    },
    {
      "lon": 19.25,
      "lat": 47.75,
      "type": "hotspot_cell",
      "score": 310.644,
      "count": 646,
      "cell_deg": 0.5,
      "sources": {
        "GDELT": 436,
        "GDELT_DOC": 0,
        "DIRECT_FEED": 210,
        "USGS": 0,
        "GDACS": 0
      },
      "last7_score": 277.022,
      "prev7_score": 33.622,
      "trend": "up",
      "trend_arrow": "🔺",
      "change_pct": 723.9,
      "place": "Pest, Hungary"
    },
    {
      "lon": 20.25,
      "lat": 52.25,
      "type": "hotspot_cell",
      "score": 169.091,
      "count": 429,
      "cell_deg": 0.5,
      "sources": {
        "GDELT": 429,
        "GDELT_DOC": 0,
        "DIRECT_FEED": 0,
        "USGS": 0,
        "GDACS": 0
      },
      "last7_score": 142.194,
      "prev7_score": 26.897,
      "trend": "up",
      "trend_arrow": "🔺",
      "change_pct": 428.7,
      "place": "Sochaczew County, Poland"
    },
    {
      "lon": 20.25,
      "lat": 47.25,
      "type": "hotspot_cell",
      "score": 146.255,
      "count": 370,
      "cell_deg": 0.5,
      "sources": {
        "GDELT": 370,
        "GDELT_DOC": 0,
        "DIRECT_FEED": 0,
        "USGS": 0,
        "GDACS": 0
      },
      "last7_score": 119.025,
      "prev7_score": 27.23,
      "trend": "up",
      "trend_arrow": "🔺",
      "change_pct": 337.1,
      "place": "Jász-Nagykun-Szolnok, Hungary"
    },
    {
      "lon": 25.25,
      "lat": 46.25,
      "type": "hotspot_cell",
      "score": 128.324,
      "count": 307,
      "cell_deg": 0.5,
      "sources": {
        "GDELT": 307,
        "GDELT_DOC": 0,
        "DIRECT_FEED": 0,
        "USGS": 0,
        "GDACS": 0
      },
      "last7_score": 102.811,
      "prev7_score": 25.513,
      "trend": "up",
      "trend_arrow": "🔺",
      "change_pct": 303.0,
      "place": "Harghita, Romania"
    },
    {
      "lon": 24.25,
      "lat": 56.75,
      "type": "hotspot_cell",
      "score": 114.797,
      "count": 168,
      "cell_deg": 0.5,
      "sources": {
        "GDELT": 35,
        "GDELT_DOC": 0,
        "DIRECT_FEED": 133,
        "USGS": 0,
        "GDACS": 0
      },
      "last7_score": 112.612,
      "prev7_score": 2.185,
      "trend": "up",
      "trend_arrow": "🔺",
      "change_pct": 5053.9,
      "place": "Ķekavas novads, Latvia"
    },
    {
      "lon": 21.25,
      "lat": 52.25,
      "type": "hotspot_cell",
      "score": 71.855,
      "count": 195,
      "cell_deg": 0.5,
      "sources": {
        "GDELT": 195,
        "GDELT_DOC": 0,
        "DIRECT_FEED": 0,
        "USGS": 0,
        "GDACS": 0
      },
      "last7_score": 56.657,
      "prev7_score": 15.198,
      "trend": "up",
      "trend_arrow": "🔺",
      "change_pct": 272.8,
      "place": "Warsaw, Poland"
    },
    {
      "lon": 15.25,
      "lat": 49.75,
      "type": "hotspot_cell",
      "score": 64.252,
      "count": 157,
      "cell_deg": 0.5,
      "sources": {
        "GDELT": 157,
        "GDELT_DOC": 0,
        "DIRECT_FEED": 0,
        "USGS": 0,
        "GDACS": 0
      },
      "last7_score": 52.752,
      "prev7_score": 11.5,
      "trend": "up",
      "trend_arrow": "🔺",
      "change_pct": 358.7,
      "place": "Vysočina Region, Czechia"
    }
  ]
}