{
  "generated_utc": "2026-03-12T13:07:37Z",
  "top": [
    {
      "lon": 26.25,
      "lat": 44.25,
      "type": "hotspot_cell",
      "score": 808.47,
      "count": 1246,
      "cell_deg": 0.5,
      "sources": {
        "GDELT": 176,
        "GDELT_DOC": 1068,
        "DIRECT_FEED": 2,
        "USGS": 0,
        "GDACS": 0
      },
      "last7_score": 794.386,
      "prev7_score": 14.084,
      "trend": "up",
      "trend_arrow": "🔺",
      "change_pct": 5540.3,
      "place": "Giurgiu, Romania"
    },
    {
      "lon": 14.25,
      "lat": 50.25,
      "type": "hotspot_cell",
      "score": 690.124,
      "count": 1129,
      "cell_deg": 0.5,
      "sources": {
        "GDELT": 142,
        "GDELT_DOC": 984,
        "DIRECT_FEED": 3,
        "USGS": 0,
        "GDACS": 0
      },
      "last7_score": 677.545,
      "prev7_score": 12.578,
      "trend": "up",
      "trend_arrow": "🔺",
      "change_pct": 5286.6,
      "place": "SO ORP Kralupy nad Vltavou, Czechia"
    },
    {
      "lon": 25.25,
      "lat": 54.75,
      "type": "hotspot_cell",
      "score": 521.413,
      "count": 793,
      "cell_deg": 0.5,
      "sources": {
        "GDELT": 71,
        "GDELT_DOC": 722,
        "DIRECT_FEED": 0,
        "USGS": 0,
        "GDACS": 0
      },
      "last7_score": 517.127,
      "prev7_score": 4.286,
      "trend": "up",
      "trend_arrow": "🔺",
      "change_pct": 11965.7,
      "place": "Vilnius County, Lithuania"
    },
    {
      "lon": 19.25,
      "lat": 47.75,
      "type": "hotspot_cell",
      "score": 281.904,
      "count": 552,
      "cell_deg": 0.5,
      "sources": {
        "GDELT": 387,
        "GDELT_DOC": 0,
        "DIRECT_FEED": 165,
        "USGS": 0,
        "GDACS": 0
      },
      "last7_score": 259.856,
      "prev7_score": 22.048,
      "trend": "up",
      "trend_arrow": "🔺",
      "change_pct": 1078.6,
      "place": "Pest, Hungary"
    },
    {
      "lon": 20.25,
      "lat": 52.25,
      "type": "hotspot_cell",
      "score": 146.821,
      "count": 466,
      "cell_deg": 0.5,
      "sources": {
        "GDELT": 466,
        "GDELT_DOC": 0,
        "DIRECT_FEED": 0,
        "USGS": 0,
        "GDACS": 0
      },
      "last7_score": 110.9,
      "prev7_score": 35.92,
      "trend": "up",
      "trend_arrow": "🔺",
      "change_pct": 208.7,
      "place": "Sochaczew County, Poland"
    },
    {
      "lon": 20.25,
      "lat": 47.25,
      "type": "hotspot_cell",
      "score": 137.685,
      "count": 331,
      "cell_deg": 0.5,
      "sources": {
        "GDELT": 331,
        "GDELT_DOC": 0,
        "DIRECT_FEED": 0,
        "USGS": 0,
        "GDACS": 0
      },
      "last7_score": 112.982,
      "prev7_score": 24.703,
      "trend": "up",
      "trend_arrow": "🔺",
      "change_pct": 357.4,
      "place": "Jász-Nagykun-Szolnok, Hungary"
    },
    {
      "lon": 24.25,
      "lat": 56.75,
      "type": "hotspot_cell",
      "score": 132.253,
      "count": 169,
      "cell_deg": 0.5,
      "sources": {
        "GDELT": 24,
        "GDELT_DOC": 0,
        "DIRECT_FEED": 145,
        "USGS": 0,
        "GDACS": 0
      },
      "last7_score": 130.795,
      "prev7_score": 1.459,
      "trend": "up",
      "trend_arrow": "🔺",
      "change_pct": 8866.6,
      "place": "Ķekavas novads, Latvia"
    },
    {
      "lon": 25.25,
      "lat": 46.25,
      "type": "hotspot_cell",
      "score": 128.95,
      "count": 308,
      "cell_deg": 0.5,
      "sources": {
        "GDELT": 308,
        "GDELT_DOC": 0,
        "DIRECT_FEED": 0,
        "USGS": 0,
        "GDACS": 0
      },
      "last7_score": 104.941,
      "prev7_score": 24.009,
      "trend": "up",
      "trend_arrow": "🔺",
      "change_pct": 337.1,
      "place": "Harghita, Romania"
    },
    {
      "lon": 21.25,
      "lat": 52.25,
      "type": "hotspot_cell",
      "score": 71.42,
      "count": 221,
      "cell_deg": 0.5,
      "sources": {
        "GDELT": 221,
        "GDELT_DOC": 0,
        "DIRECT_FEED": 0,
        "USGS": 0,
        "GDACS": 0
      },
      "last7_score": 52.888,
      "prev7_score": 18.532,
      "trend": "up",
      "trend_arrow": "🔺",
      "change_pct": 185.4,
      "place": "Warsaw, Poland"
    },
    {
      "lon": 15.25,
      "lat": 49.75,
      "type": "hotspot_cell",
      "score": 61.755,
      "count": 160,
      "cell_deg": 0.5,
      "sources": {
        "GDELT": 160,
        "GDELT_DOC": 0,
        "DIRECT_FEED": 0,
        "USGS": 0,
        "GDACS": 0
      },
      "last7_score": 50.89,
      "prev7_score": 10.866,
      "trend": "up",
      "trend_arrow": "🔺",
      "change_pct": 368.4,
      "place": "Vysočina Region, Czechia"
    }
  ]
}