{
  "generated_utc": "2026-07-02T13:51:33Z",
  "top": [
    {
      "lon": 26.25,
      "lat": 44.25,
      "type": "hotspot_cell",
      "score": 361.245,
      "count": 769,
      "cell_deg": 0.5,
      "sources": {
        "GDELT": 149,
        "GDELT_DOC": 616,
        "DIRECT_FEED": 4,
        "USGS": 0,
        "GDACS": 0
      },
      "last7_score": 349.791,
      "prev7_score": 11.454,
      "trend": "up",
      "trend_arrow": "🔺",
      "change_pct": 2953.8,
      "place": "Giurgiu, Romania"
    },
    {
      "lon": 14.25,
      "lat": 50.25,
      "type": "hotspot_cell",
      "score": 302.669,
      "count": 654,
      "cell_deg": 0.5,
      "sources": {
        "GDELT": 132,
        "GDELT_DOC": 521,
        "DIRECT_FEED": 1,
        "USGS": 0,
        "GDACS": 0
      },
      "last7_score": 293.511,
      "prev7_score": 9.158,
      "trend": "up",
      "trend_arrow": "🔺",
      "change_pct": 3105.1,
      "place": "SO ORP Kralupy nad Vltavou, Czechia"
    },
    {
      "lon": 25.25,
      "lat": 54.75,
      "type": "hotspot_cell",
      "score": 293.119,
      "count": 581,
      "cell_deg": 0.5,
      "sources": {
        "GDELT": 58,
        "GDELT_DOC": 523,
        "DIRECT_FEED": 0,
        "USGS": 0,
        "GDACS": 0
      },
      "last7_score": 288.952,
      "prev7_score": 4.167,
      "trend": "up",
      "trend_arrow": "🔺",
      "change_pct": 6834.9,
      "place": "Vilnius County, Lithuania"
    },
    {
      "lon": 20.25,
      "lat": 52.25,
      "type": "hotspot_cell",
      "score": 218.252,
      "count": 540,
      "cell_deg": 0.5,
      "sources": {
        "GDELT": 540,
        "GDELT_DOC": 0,
        "DIRECT_FEED": 0,
        "USGS": 0,
        "GDACS": 0
      },
      "last7_score": 178.663,
      "prev7_score": 39.589,
      "trend": "up",
      "trend_arrow": "🔺",
      "change_pct": 351.3,
      "place": "Sochaczew County, Poland"
    },
    {
      "lon": 19.25,
      "lat": 47.75,
      "type": "hotspot_cell",
      "score": 206.685,
      "count": 366,
      "cell_deg": 0.5,
      "sources": {
        "GDELT": 188,
        "GDELT_DOC": 0,
        "DIRECT_FEED": 178,
        "USGS": 0,
        "GDACS": 0
      },
      "last7_score": 190.939,
      "prev7_score": 15.747,
      "trend": "up",
      "trend_arrow": "🔺",
      "change_pct": 1112.6,
      "place": "Pest, Hungary"
    },
    {
      "lon": 25.25,
      "lat": 46.25,
      "type": "hotspot_cell",
      "score": 132.28,
      "count": 349,
      "cell_deg": 0.5,
      "sources": {
        "GDELT": 349,
        "GDELT_DOC": 0,
        "DIRECT_FEED": 0,
        "USGS": 0,
        "GDACS": 0
      },
      "last7_score": 106.19,
      "prev7_score": 26.09,
      "trend": "up",
      "trend_arrow": "🔺",
      "change_pct": 307.0,
      "place": "Harghita, Romania"
    },
    {
      "lon": 24.25,
      "lat": 56.75,
      "type": "hotspot_cell",
      "score": 118.449,
      "count": 177,
      "cell_deg": 0.5,
      "sources": {
        "GDELT": 29,
        "GDELT_DOC": 0,
        "DIRECT_FEED": 148,
        "USGS": 0,
        "GDACS": 0
      },
      "last7_score": 116.511,
      "prev7_score": 1.938,
      "trend": "up",
      "trend_arrow": "🔺",
      "change_pct": 5912.8,
      "place": "Ķekavas novads, Latvia"
    },
    {
      "lon": 21.25,
      "lat": 52.25,
      "type": "hotspot_cell",
      "score": 106.572,
      "count": 340,
      "cell_deg": 0.5,
      "sources": {
        "GDELT": 340,
        "GDELT_DOC": 0,
        "DIRECT_FEED": 0,
        "USGS": 0,
        "GDACS": 0
      },
      "last7_score": 77.56,
      "prev7_score": 29.012,
      "trend": "up",
      "trend_arrow": "🔺",
      "change_pct": 167.3,
      "place": "Warsaw, Poland"
    },
    {
      "lon": 15.25,
      "lat": 49.75,
      "type": "hotspot_cell",
      "score": 64.158,
      "count": 164,
      "cell_deg": 0.5,
      "sources": {
        "GDELT": 164,
        "GDELT_DOC": 0,
        "DIRECT_FEED": 0,
        "USGS": 0,
        "GDACS": 0
      },
      "last7_score": 54.423,
      "prev7_score": 9.736,
      "trend": "up",
      "trend_arrow": "🔺",
      "change_pct": 459.0,
      "place": "Vysočina Region, Czechia"
    },
    {
      "lon": 20.25,
      "lat": 47.25,
      "type": "hotspot_cell",
      "score": 59.901,
      "count": 180,
      "cell_deg": 0.5,
      "sources": {
        "GDELT": 180,
        "GDELT_DOC": 0,
        "DIRECT_FEED": 0,
        "USGS": 0,
        "GDACS": 0
      },
      "last7_score": 44.186,
      "prev7_score": 15.714,
      "trend": "up",
      "trend_arrow": "🔺",
      "change_pct": 181.2,
      "place": "Jász-Nagykun-Szolnok, Hungary"
    }
  ]
}