{
  "generated_utc": "2026-06-14T02:52:08Z",
  "top": [
    {
      "lon": 26.25,
      "lat": 44.25,
      "type": "hotspot_cell",
      "score": 575.554,
      "count": 920,
      "cell_deg": 0.5,
      "sources": {
        "GDELT": 174,
        "GDELT_DOC": 736,
        "DIRECT_FEED": 10,
        "USGS": 0,
        "GDACS": 0
      },
      "last7_score": 563.577,
      "prev7_score": 11.977,
      "trend": "up",
      "trend_arrow": "🔺",
      "change_pct": 4605.6,
      "place": "Giurgiu, Romania"
    },
    {
      "lon": 14.25,
      "lat": 50.25,
      "type": "hotspot_cell",
      "score": 535.853,
      "count": 874,
      "cell_deg": 0.5,
      "sources": {
        "GDELT": 94,
        "GDELT_DOC": 776,
        "DIRECT_FEED": 4,
        "USGS": 0,
        "GDACS": 0
      },
      "last7_score": 529.42,
      "prev7_score": 6.433,
      "trend": "up",
      "trend_arrow": "🔺",
      "change_pct": 8129.5,
      "place": "SO ORP Kralupy nad Vltavou, Czechia"
    },
    {
      "lon": 25.25,
      "lat": 54.75,
      "type": "hotspot_cell",
      "score": 384.486,
      "count": 721,
      "cell_deg": 0.5,
      "sources": {
        "GDELT": 74,
        "GDELT_DOC": 647,
        "DIRECT_FEED": 0,
        "USGS": 0,
        "GDACS": 0
      },
      "last7_score": 379.719,
      "prev7_score": 4.767,
      "trend": "up",
      "trend_arrow": "🔺",
      "change_pct": 7865.9,
      "place": "Vilnius County, Lithuania"
    },
    {
      "lon": 19.25,
      "lat": 47.75,
      "type": "hotspot_cell",
      "score": 178.126,
      "count": 374,
      "cell_deg": 0.5,
      "sources": {
        "GDELT": 206,
        "GDELT_DOC": 0,
        "DIRECT_FEED": 168,
        "USGS": 0,
        "GDACS": 0
      },
      "last7_score": 162.281,
      "prev7_score": 15.845,
      "trend": "up",
      "trend_arrow": "🔺",
      "change_pct": 924.2,
      "place": "Pest, Hungary"
    },
    {
      "lon": 20.25,
      "lat": 52.25,
      "type": "hotspot_cell",
      "score": 162.563,
      "count": 471,
      "cell_deg": 0.5,
      "sources": {
        "GDELT": 471,
        "GDELT_DOC": 0,
        "DIRECT_FEED": 0,
        "USGS": 0,
        "GDACS": 0
      },
      "last7_score": 128.464,
      "prev7_score": 34.099,
      "trend": "up",
      "trend_arrow": "🔺",
      "change_pct": 276.7,
      "place": "Sochaczew County, Poland"
    },
    {
      "lon": 25.25,
      "lat": 46.25,
      "type": "hotspot_cell",
      "score": 136.762,
      "count": 425,
      "cell_deg": 0.5,
      "sources": {
        "GDELT": 425,
        "GDELT_DOC": 0,
        "DIRECT_FEED": 0,
        "USGS": 0,
        "GDACS": 0
      },
      "last7_score": 104.93,
      "prev7_score": 31.832,
      "trend": "up",
      "trend_arrow": "🔺",
      "change_pct": 229.6,
      "place": "Harghita, Romania"
    },
    {
      "lon": 24.25,
      "lat": 56.75,
      "type": "hotspot_cell",
      "score": 105.524,
      "count": 174,
      "cell_deg": 0.5,
      "sources": {
        "GDELT": 44,
        "GDELT_DOC": 0,
        "DIRECT_FEED": 130,
        "USGS": 0,
        "GDACS": 0
      },
      "last7_score": 101.601,
      "prev7_score": 3.923,
      "trend": "up",
      "trend_arrow": "🔺",
      "change_pct": 2490.0,
      "place": "Ķekavas novads, Latvia"
    },
    {
      "lon": 20.25,
      "lat": 47.25,
      "type": "hotspot_cell",
      "score": 94.625,
      "count": 257,
      "cell_deg": 0.5,
      "sources": {
        "GDELT": 257,
        "GDELT_DOC": 0,
        "DIRECT_FEED": 0,
        "USGS": 0,
        "GDACS": 0
      },
      "last7_score": 76.615,
      "prev7_score": 18.01,
      "trend": "up",
      "trend_arrow": "🔺",
      "change_pct": 325.4,
      "place": "Jász-Nagykun-Szolnok, Hungary"
    },
    {
      "lon": 27.75,
      "lat": 47.25,
      "type": "hotspot_cell",
      "score": 66.116,
      "count": 83,
      "cell_deg": 0.5,
      "sources": {
        "GDELT": 0,
        "GDELT_DOC": 83,
        "DIRECT_FEED": 0,
        "USGS": 0,
        "GDACS": 0
      },
      "last7_score": 66.116,
      "prev7_score": 0.0,
      "trend": "new",
      "trend_arrow": "🆕",
      "change_pct": null,
      "place": "Iași, Romania"
    },
    {
      "lon": 21.25,
      "lat": 52.25,
      "type": "hotspot_cell",
      "score": 55.744,
      "count": 174,
      "cell_deg": 0.5,
      "sources": {
        "GDELT": 174,
        "GDELT_DOC": 0,
        "DIRECT_FEED": 0,
        "USGS": 0,
        "GDACS": 0
      },
      "last7_score": 43.108,
      "prev7_score": 12.637,
      "trend": "up",
      "trend_arrow": "🔺",
      "change_pct": 241.1,
      "place": "Warsaw, Poland"
    }
  ]
}