{
  "generated_utc": "2026-07-11T07:49:23Z",
  "top": [
    {
      "lon": 14.25,
      "lat": 50.25,
      "type": "hotspot_cell",
      "score": 863.819,
      "count": 1216,
      "cell_deg": 0.5,
      "sources": {
        "GDELT": 107,
        "GDELT_DOC": 1104,
        "DIRECT_FEED": 5,
        "USGS": 0,
        "GDACS": 0
      },
      "last7_score": 855.717,
      "prev7_score": 8.102,
      "trend": "up",
      "trend_arrow": "🔺",
      "change_pct": 10461.4,
      "place": "SO ORP Kralupy nad Vltavou, Czechia"
    },
    {
      "lon": 26.25,
      "lat": 44.25,
      "type": "hotspot_cell",
      "score": 573.225,
      "count": 944,
      "cell_deg": 0.5,
      "sources": {
        "GDELT": 131,
        "GDELT_DOC": 810,
        "DIRECT_FEED": 3,
        "USGS": 0,
        "GDACS": 0
      },
      "last7_score": 563.774,
      "prev7_score": 9.451,
      "trend": "up",
      "trend_arrow": "🔺",
      "change_pct": 5865.3,
      "place": "Giurgiu, Romania"
    },
    {
      "lon": 25.25,
      "lat": 54.75,
      "type": "hotspot_cell",
      "score": 555.492,
      "count": 772,
      "cell_deg": 0.5,
      "sources": {
        "GDELT": 75,
        "GDELT_DOC": 695,
        "DIRECT_FEED": 2,
        "USGS": 0,
        "GDACS": 0
      },
      "last7_score": 550.071,
      "prev7_score": 5.421,
      "trend": "up",
      "trend_arrow": "🔺",
      "change_pct": 10047.7,
      "place": "Vilnius County, Lithuania"
    },
    {
      "lon": 20.25,
      "lat": 52.25,
      "type": "hotspot_cell",
      "score": 171.97,
      "count": 508,
      "cell_deg": 0.5,
      "sources": {
        "GDELT": 508,
        "GDELT_DOC": 0,
        "DIRECT_FEED": 0,
        "USGS": 0,
        "GDACS": 0
      },
      "last7_score": 133.501,
      "prev7_score": 38.469,
      "trend": "up",
      "trend_arrow": "🔺",
      "change_pct": 247.0,
      "place": "Sochaczew County, Poland"
    },
    {
      "lon": 19.25,
      "lat": 47.75,
      "type": "hotspot_cell",
      "score": 169.267,
      "count": 304,
      "cell_deg": 0.5,
      "sources": {
        "GDELT": 148,
        "GDELT_DOC": 0,
        "DIRECT_FEED": 156,
        "USGS": 0,
        "GDACS": 0
      },
      "last7_score": 159.283,
      "prev7_score": 9.984,
      "trend": "up",
      "trend_arrow": "🔺",
      "change_pct": 1495.4,
      "place": "Pest, Hungary"
    },
    {
      "lon": 25.25,
      "lat": 46.25,
      "type": "hotspot_cell",
      "score": 151.022,
      "count": 365,
      "cell_deg": 0.5,
      "sources": {
        "GDELT": 365,
        "GDELT_DOC": 0,
        "DIRECT_FEED": 0,
        "USGS": 0,
        "GDACS": 0
      },
      "last7_score": 126.725,
      "prev7_score": 24.297,
      "trend": "up",
      "trend_arrow": "🔺",
      "change_pct": 421.6,
      "place": "Harghita, Romania"
    },
    {
      "lon": 24.25,
      "lat": 56.75,
      "type": "hotspot_cell",
      "score": 100.72,
      "count": 151,
      "cell_deg": 0.5,
      "sources": {
        "GDELT": 21,
        "GDELT_DOC": 0,
        "DIRECT_FEED": 130,
        "USGS": 0,
        "GDACS": 0
      },
      "last7_score": 99.046,
      "prev7_score": 1.674,
      "trend": "up",
      "trend_arrow": "🔺",
      "change_pct": 5817.6,
      "place": "Ķekavas novads, Latvia"
    },
    {
      "lon": 21.25,
      "lat": 52.25,
      "type": "hotspot_cell",
      "score": 87.991,
      "count": 253,
      "cell_deg": 0.5,
      "sources": {
        "GDELT": 253,
        "GDELT_DOC": 0,
        "DIRECT_FEED": 0,
        "USGS": 0,
        "GDACS": 0
      },
      "last7_score": 64.454,
      "prev7_score": 23.537,
      "trend": "up",
      "trend_arrow": "🔺",
      "change_pct": 173.8,
      "place": "Warsaw, Poland"
    },
    {
      "lon": 20.25,
      "lat": 47.25,
      "type": "hotspot_cell",
      "score": 72.552,
      "count": 170,
      "cell_deg": 0.5,
      "sources": {
        "GDELT": 170,
        "GDELT_DOC": 0,
        "DIRECT_FEED": 0,
        "USGS": 0,
        "GDACS": 0
      },
      "last7_score": 62.44,
      "prev7_score": 10.112,
      "trend": "up",
      "trend_arrow": "🔺",
      "change_pct": 517.5,
      "place": "Jász-Nagykun-Szolnok, Hungary"
    },
    {
      "lon": 15.25,
      "lat": 49.75,
      "type": "hotspot_cell",
      "score": 66.659,
      "count": 175,
      "cell_deg": 0.5,
      "sources": {
        "GDELT": 175,
        "GDELT_DOC": 0,
        "DIRECT_FEED": 0,
        "USGS": 0,
        "GDACS": 0
      },
      "last7_score": 54.628,
      "prev7_score": 12.031,
      "trend": "up",
      "trend_arrow": "🔺",
      "change_pct": 354.0,
      "place": "Vysočina Region, Czechia"
    }
  ]
}