{
  "generated_utc": "2026-06-10T15:00:58Z",
  "top": [
    {
      "lon": 26.25,
      "lat": 44.25,
      "type": "hotspot_cell",
      "score": 546.162,
      "count": 1107,
      "cell_deg": 0.5,
      "sources": {
        "GDELT": 253,
        "GDELT_DOC": 843,
        "DIRECT_FEED": 11,
        "USGS": 0,
        "GDACS": 0
      },
      "last7_score": 526.874,
      "prev7_score": 19.288,
      "trend": "up",
      "trend_arrow": "🔺",
      "change_pct": 2631.6,
      "place": "Giurgiu, Romania"
    },
    {
      "lon": 25.25,
      "lat": 54.75,
      "type": "hotspot_cell",
      "score": 545.794,
      "count": 964,
      "cell_deg": 0.5,
      "sources": {
        "GDELT": 78,
        "GDELT_DOC": 885,
        "DIRECT_FEED": 1,
        "USGS": 0,
        "GDACS": 0
      },
      "last7_score": 538.713,
      "prev7_score": 7.081,
      "trend": "up",
      "trend_arrow": "🔺",
      "change_pct": 7508.3,
      "place": "Vilnius County, Lithuania"
    },
    {
      "lon": 14.25,
      "lat": 50.25,
      "type": "hotspot_cell",
      "score": 484.785,
      "count": 840,
      "cell_deg": 0.5,
      "sources": {
        "GDELT": 103,
        "GDELT_DOC": 735,
        "DIRECT_FEED": 2,
        "USGS": 0,
        "GDACS": 0
      },
      "last7_score": 476.521,
      "prev7_score": 8.264,
      "trend": "up",
      "trend_arrow": "🔺",
      "change_pct": 5666.0,
      "place": "SO ORP Kralupy nad Vltavou, Czechia"
    },
    {
      "lon": 19.25,
      "lat": 47.75,
      "type": "hotspot_cell",
      "score": 189.302,
      "count": 419,
      "cell_deg": 0.5,
      "sources": {
        "GDELT": 243,
        "GDELT_DOC": 0,
        "DIRECT_FEED": 176,
        "USGS": 0,
        "GDACS": 0
      },
      "last7_score": 169.793,
      "prev7_score": 19.51,
      "trend": "up",
      "trend_arrow": "🔺",
      "change_pct": 770.3,
      "place": "Pest, Hungary"
    },
    {
      "lon": 25.25,
      "lat": 46.25,
      "type": "hotspot_cell",
      "score": 179.648,
      "count": 527,
      "cell_deg": 0.5,
      "sources": {
        "GDELT": 527,
        "GDELT_DOC": 0,
        "DIRECT_FEED": 0,
        "USGS": 0,
        "GDACS": 0
      },
      "last7_score": 140.332,
      "prev7_score": 39.316,
      "trend": "up",
      "trend_arrow": "🔺",
      "change_pct": 256.9,
      "place": "Harghita, Romania"
    },
    {
      "lon": 20.25,
      "lat": 52.25,
      "type": "hotspot_cell",
      "score": 165.741,
      "count": 495,
      "cell_deg": 0.5,
      "sources": {
        "GDELT": 495,
        "GDELT_DOC": 0,
        "DIRECT_FEED": 0,
        "USGS": 0,
        "GDACS": 0
      },
      "last7_score": 128.259,
      "prev7_score": 37.482,
      "trend": "up",
      "trend_arrow": "🔺",
      "change_pct": 242.2,
      "place": "Sochaczew County, Poland"
    },
    {
      "lon": 24.25,
      "lat": 56.75,
      "type": "hotspot_cell",
      "score": 98.908,
      "count": 170,
      "cell_deg": 0.5,
      "sources": {
        "GDELT": 52,
        "GDELT_DOC": 0,
        "DIRECT_FEED": 118,
        "USGS": 0,
        "GDACS": 0
      },
      "last7_score": 95.81,
      "prev7_score": 3.098,
      "trend": "up",
      "trend_arrow": "🔺",
      "change_pct": 2992.3,
      "place": "Ķekavas novads, Latvia"
    },
    {
      "lon": 20.25,
      "lat": 47.25,
      "type": "hotspot_cell",
      "score": 92.479,
      "count": 271,
      "cell_deg": 0.5,
      "sources": {
        "GDELT": 271,
        "GDELT_DOC": 0,
        "DIRECT_FEED": 0,
        "USGS": 0,
        "GDACS": 0
      },
      "last7_score": 72.843,
      "prev7_score": 19.636,
      "trend": "up",
      "trend_arrow": "🔺",
      "change_pct": 271.0,
      "place": "Jász-Nagykun-Szolnok, Hungary"
    },
    {
      "lon": 21.25,
      "lat": 52.25,
      "type": "hotspot_cell",
      "score": 64.834,
      "count": 217,
      "cell_deg": 0.5,
      "sources": {
        "GDELT": 217,
        "GDELT_DOC": 0,
        "DIRECT_FEED": 0,
        "USGS": 0,
        "GDACS": 0
      },
      "last7_score": 47.735,
      "prev7_score": 17.099,
      "trend": "up",
      "trend_arrow": "🔺",
      "change_pct": 179.2,
      "place": "Warsaw, Poland"
    },
    {
      "lon": 25.25,
      "lat": 57.25,
      "type": "hotspot_cell",
      "score": 56.474,
      "count": 125,
      "cell_deg": 0.5,
      "sources": {
        "GDELT": 125,
        "GDELT_DOC": 0,
        "DIRECT_FEED": 0,
        "USGS": 0,
        "GDACS": 0
      },
      "last7_score": 48.981,
      "prev7_score": 7.493,
      "trend": "up",
      "trend_arrow": "🔺",
      "change_pct": 553.7,
      "place": "Cēsu novads, Latvia"
    }
  ]
}