{
  "generated_utc": "2026-03-15T18:44:54Z",
  "top": [
    {
      "lon": 26.25,
      "lat": 44.25,
      "type": "hotspot_cell",
      "score": 770.023,
      "count": 1372,
      "cell_deg": 0.5,
      "sources": {
        "GDELT": 204,
        "GDELT_DOC": 1164,
        "DIRECT_FEED": 4,
        "USGS": 0,
        "GDACS": 0
      },
      "last7_score": 760.948,
      "prev7_score": 9.074,
      "trend": "up",
      "trend_arrow": "🔺",
      "change_pct": 8285.7,
      "place": "Giurgiu, Romania"
    },
    {
      "lon": 14.25,
      "lat": 50.25,
      "type": "hotspot_cell",
      "score": 752.047,
      "count": 1260,
      "cell_deg": 0.5,
      "sources": {
        "GDELT": 141,
        "GDELT_DOC": 1113,
        "DIRECT_FEED": 6,
        "USGS": 0,
        "GDACS": 0
      },
      "last7_score": 742.519,
      "prev7_score": 9.528,
      "trend": "up",
      "trend_arrow": "🔺",
      "change_pct": 7693.1,
      "place": "SO ORP Kralupy nad Vltavou, Czechia"
    },
    {
      "lon": 25.25,
      "lat": 54.75,
      "type": "hotspot_cell",
      "score": 521.339,
      "count": 893,
      "cell_deg": 0.5,
      "sources": {
        "GDELT": 74,
        "GDELT_DOC": 819,
        "DIRECT_FEED": 0,
        "USGS": 0,
        "GDACS": 0
      },
      "last7_score": 517.761,
      "prev7_score": 3.579,
      "trend": "up",
      "trend_arrow": "🔺",
      "change_pct": 14368.6,
      "place": "Vilnius County, Lithuania"
    },
    {
      "lon": 19.25,
      "lat": 47.75,
      "type": "hotspot_cell",
      "score": 266.648,
      "count": 609,
      "cell_deg": 0.5,
      "sources": {
        "GDELT": 426,
        "GDELT_DOC": 0,
        "DIRECT_FEED": 183,
        "USGS": 0,
        "GDACS": 0
      },
      "last7_score": 235.559,
      "prev7_score": 31.088,
      "trend": "up",
      "trend_arrow": "🔺",
      "change_pct": 657.7,
      "place": "Pest, Hungary"
    },
    {
      "lon": 20.25,
      "lat": 47.25,
      "type": "hotspot_cell",
      "score": 138.27,
      "count": 369,
      "cell_deg": 0.5,
      "sources": {
        "GDELT": 369,
        "GDELT_DOC": 0,
        "DIRECT_FEED": 0,
        "USGS": 0,
        "GDACS": 0
      },
      "last7_score": 117.315,
      "prev7_score": 20.955,
      "trend": "up",
      "trend_arrow": "🔺",
      "change_pct": 459.8,
      "place": "Jász-Nagykun-Szolnok, Hungary"
    },
    {
      "lon": 20.25,
      "lat": 52.25,
      "type": "hotspot_cell",
      "score": 137.457,
      "count": 454,
      "cell_deg": 0.5,
      "sources": {
        "GDELT": 454,
        "GDELT_DOC": 0,
        "DIRECT_FEED": 0,
        "USGS": 0,
        "GDACS": 0
      },
      "last7_score": 107.671,
      "prev7_score": 29.786,
      "trend": "up",
      "trend_arrow": "🔺",
      "change_pct": 261.5,
      "place": "Sochaczew County, Poland"
    },
    {
      "lon": 24.25,
      "lat": 56.75,
      "type": "hotspot_cell",
      "score": 112.469,
      "count": 191,
      "cell_deg": 0.5,
      "sources": {
        "GDELT": 31,
        "GDELT_DOC": 0,
        "DIRECT_FEED": 160,
        "USGS": 0,
        "GDACS": 0
      },
      "last7_score": 110.792,
      "prev7_score": 1.677,
      "trend": "up",
      "trend_arrow": "🔺",
      "change_pct": 6505.4,
      "place": "Ķekavas novads, Latvia"
    },
    {
      "lon": 25.25,
      "lat": 46.25,
      "type": "hotspot_cell",
      "score": 98.92,
      "count": 319,
      "cell_deg": 0.5,
      "sources": {
        "GDELT": 319,
        "GDELT_DOC": 0,
        "DIRECT_FEED": 0,
        "USGS": 0,
        "GDACS": 0
      },
      "last7_score": 83.637,
      "prev7_score": 15.283,
      "trend": "up",
      "trend_arrow": "🔺",
      "change_pct": 447.2,
      "place": "Harghita, Romania"
    },
    {
      "lon": 21.25,
      "lat": 52.25,
      "type": "hotspot_cell",
      "score": 75.083,
      "count": 226,
      "cell_deg": 0.5,
      "sources": {
        "GDELT": 226,
        "GDELT_DOC": 0,
        "DIRECT_FEED": 0,
        "USGS": 0,
        "GDACS": 0
      },
      "last7_score": 61.233,
      "prev7_score": 13.85,
      "trend": "up",
      "trend_arrow": "🔺",
      "change_pct": 342.1,
      "place": "Warsaw, Poland"
    },
    {
      "lon": 27.75,
      "lat": 47.25,
      "type": "hotspot_cell",
      "score": 62.756,
      "count": 92,
      "cell_deg": 0.5,
      "sources": {
        "GDELT": 0,
        "GDELT_DOC": 92,
        "DIRECT_FEED": 0,
        "USGS": 0,
        "GDACS": 0
      },
      "last7_score": 62.756,
      "prev7_score": 0.0,
      "trend": "new",
      "trend_arrow": "🆕",
      "change_pct": null,
      "place": "Iași, Romania"
    }
  ]
}