{
  "generated_utc": "2026-03-07T18:39:17Z",
  "top": [
    {
      "lon": 14.25,
      "lat": 50.25,
      "type": "hotspot_cell",
      "score": 397.104,
      "count": 486,
      "cell_deg": 0.5,
      "sources": {
        "GDELT": 166,
        "GDELT_DOC": 320,
        "DIRECT_FEED": 0,
        "USGS": 0,
        "GDACS": 0
      },
      "last7_score": 388.062,
      "prev7_score": 9.041,
      "trend": "up",
      "trend_arrow": "🔺",
      "change_pct": 4192.1,
      "place": "SO ORP Kralupy nad Vltavou, Czechia"
    },
    {
      "lon": 26.25,
      "lat": 44.25,
      "type": "hotspot_cell",
      "score": 313.226,
      "count": 422,
      "cell_deg": 0.5,
      "sources": {
        "GDELT": 186,
        "GDELT_DOC": 236,
        "DIRECT_FEED": 0,
        "USGS": 0,
        "GDACS": 0
      },
      "last7_score": 302.214,
      "prev7_score": 11.012,
      "trend": "up",
      "trend_arrow": "🔺",
      "change_pct": 2644.5,
      "place": "Giurgiu, Romania"
    },
    {
      "lon": 19.25,
      "lat": 47.75,
      "type": "hotspot_cell",
      "score": 246.324,
      "count": 522,
      "cell_deg": 0.5,
      "sources": {
        "GDELT": 476,
        "GDELT_DOC": 0,
        "DIRECT_FEED": 46,
        "USGS": 0,
        "GDACS": 0
      },
      "last7_score": 216.713,
      "prev7_score": 29.611,
      "trend": "up",
      "trend_arrow": "🔺",
      "change_pct": 631.9,
      "place": "Pest, Hungary"
    },
    {
      "lon": 25.25,
      "lat": 54.75,
      "type": "hotspot_cell",
      "score": 228.533,
      "count": 266,
      "cell_deg": 0.5,
      "sources": {
        "GDELT": 74,
        "GDELT_DOC": 192,
        "DIRECT_FEED": 0,
        "USGS": 0,
        "GDACS": 0
      },
      "last7_score": 223.323,
      "prev7_score": 5.21,
      "trend": "up",
      "trend_arrow": "🔺",
      "change_pct": 4186.7,
      "place": "Vilnius County, Lithuania"
    },
    {
      "lon": 20.25,
      "lat": 52.25,
      "type": "hotspot_cell",
      "score": 204.271,
      "count": 562,
      "cell_deg": 0.5,
      "sources": {
        "GDELT": 562,
        "GDELT_DOC": 0,
        "DIRECT_FEED": 0,
        "USGS": 0,
        "GDACS": 0
      },
      "last7_score": 167.288,
      "prev7_score": 36.983,
      "trend": "up",
      "trend_arrow": "🔺",
      "change_pct": 352.3,
      "place": "Sochaczew County, Poland"
    },
    {
      "lon": 20.25,
      "lat": 47.25,
      "type": "hotspot_cell",
      "score": 139.292,
      "count": 418,
      "cell_deg": 0.5,
      "sources": {
        "GDELT": 418,
        "GDELT_DOC": 0,
        "DIRECT_FEED": 0,
        "USGS": 0,
        "GDACS": 0
      },
      "last7_score": 111.307,
      "prev7_score": 27.985,
      "trend": "up",
      "trend_arrow": "🔺",
      "change_pct": 297.7,
      "place": "Jász-Nagykun-Szolnok, Hungary"
    },
    {
      "lon": 25.25,
      "lat": 46.25,
      "type": "hotspot_cell",
      "score": 113.536,
      "count": 329,
      "cell_deg": 0.5,
      "sources": {
        "GDELT": 329,
        "GDELT_DOC": 0,
        "DIRECT_FEED": 0,
        "USGS": 0,
        "GDACS": 0
      },
      "last7_score": 92.744,
      "prev7_score": 20.792,
      "trend": "up",
      "trend_arrow": "🔺",
      "change_pct": 346.1,
      "place": "Harghita, Romania"
    },
    {
      "lon": 21.25,
      "lat": 52.25,
      "type": "hotspot_cell",
      "score": 94.616,
      "count": 246,
      "cell_deg": 0.5,
      "sources": {
        "GDELT": 246,
        "GDELT_DOC": 0,
        "DIRECT_FEED": 0,
        "USGS": 0,
        "GDACS": 0
      },
      "last7_score": 77.265,
      "prev7_score": 17.351,
      "trend": "up",
      "trend_arrow": "🔺",
      "change_pct": 345.3,
      "place": "Warsaw, Poland"
    },
    {
      "lon": 15.25,
      "lat": 49.75,
      "type": "hotspot_cell",
      "score": 69.039,
      "count": 171,
      "cell_deg": 0.5,
      "sources": {
        "GDELT": 171,
        "GDELT_DOC": 0,
        "DIRECT_FEED": 0,
        "USGS": 0,
        "GDACS": 0
      },
      "last7_score": 60.014,
      "prev7_score": 9.025,
      "trend": "up",
      "trend_arrow": "🔺",
      "change_pct": 564.9,
      "place": "Vysočina Region, Czechia"
    },
    {
      "lon": 24.25,
      "lat": 56.25,
      "type": "hotspot_cell",
      "score": 59.327,
      "count": 154,
      "cell_deg": 0.5,
      "sources": {
        "GDELT": 154,
        "GDELT_DOC": 0,
        "DIRECT_FEED": 0,
        "USGS": 0,
        "GDACS": 0
      },
      "last7_score": 49.829,
      "prev7_score": 9.498,
      "trend": "up",
      "trend_arrow": "🔺",
      "change_pct": 424.6,
      "place": "Namišių seniūnija, Lithuania"
    }
  ]
}