{
  "generated_utc": "2026-04-16T19:22:01Z",
  "top": [
    {
      "lon": 14.25,
      "lat": 50.25,
      "type": "hotspot_cell",
      "score": 958.471,
      "count": 1407,
      "cell_deg": 0.5,
      "sources": {
        "GDELT": 90,
        "GDELT_DOC": 1317,
        "DIRECT_FEED": 0,
        "USGS": 0,
        "GDACS": 0
      },
      "last7_score": 953.382,
      "prev7_score": 5.089,
      "trend": "up",
      "trend_arrow": "🔺",
      "change_pct": 18636.0,
      "place": "SO ORP Kralupy nad Vltavou, Czechia"
    },
    {
      "lon": 26.25,
      "lat": 44.25,
      "type": "hotspot_cell",
      "score": 746.552,
      "count": 1258,
      "cell_deg": 0.5,
      "sources": {
        "GDELT": 111,
        "GDELT_DOC": 1146,
        "DIRECT_FEED": 1,
        "USGS": 0,
        "GDACS": 0
      },
      "last7_score": 738.211,
      "prev7_score": 8.341,
      "trend": "up",
      "trend_arrow": "🔺",
      "change_pct": 8750.1,
      "place": "Giurgiu, Romania"
    },
    {
      "lon": 19.25,
      "lat": 47.75,
      "type": "hotspot_cell",
      "score": 743.321,
      "count": 1485,
      "cell_deg": 0.5,
      "sources": {
        "GDELT": 1161,
        "GDELT_DOC": 0,
        "DIRECT_FEED": 324,
        "USGS": 0,
        "GDACS": 0
      },
      "last7_score": 679.661,
      "prev7_score": 63.66,
      "trend": "up",
      "trend_arrow": "🔺",
      "change_pct": 967.6,
      "place": "Pest, Hungary"
    },
    {
      "lon": 25.25,
      "lat": 54.75,
      "type": "hotspot_cell",
      "score": 490.211,
      "count": 820,
      "cell_deg": 0.5,
      "sources": {
        "GDELT": 76,
        "GDELT_DOC": 742,
        "DIRECT_FEED": 2,
        "USGS": 0,
        "GDACS": 0
      },
      "last7_score": 485.899,
      "prev7_score": 4.312,
      "trend": "up",
      "trend_arrow": "🔺",
      "change_pct": 11167.3,
      "place": "Vilnius County, Lithuania"
    },
    {
      "lon": 20.25,
      "lat": 47.25,
      "type": "hotspot_cell",
      "score": 364.631,
      "count": 767,
      "cell_deg": 0.5,
      "sources": {
        "GDELT": 767,
        "GDELT_DOC": 0,
        "DIRECT_FEED": 0,
        "USGS": 0,
        "GDACS": 0
      },
      "last7_score": 327.268,
      "prev7_score": 37.363,
      "trend": "up",
      "trend_arrow": "🔺",
      "change_pct": 775.9,
      "place": "Jász-Nagykun-Szolnok, Hungary"
    },
    {
      "lon": 20.25,
      "lat": 52.25,
      "type": "hotspot_cell",
      "score": 160.521,
      "count": 391,
      "cell_deg": 0.5,
      "sources": {
        "GDELT": 391,
        "GDELT_DOC": 0,
        "DIRECT_FEED": 0,
        "USGS": 0,
        "GDACS": 0
      },
      "last7_score": 135.269,
      "prev7_score": 25.253,
      "trend": "up",
      "trend_arrow": "🔺",
      "change_pct": 435.7,
      "place": "Sochaczew County, Poland"
    },
    {
      "lon": 24.25,
      "lat": 56.75,
      "type": "hotspot_cell",
      "score": 122.55,
      "count": 164,
      "cell_deg": 0.5,
      "sources": {
        "GDELT": 28,
        "GDELT_DOC": 0,
        "DIRECT_FEED": 136,
        "USGS": 0,
        "GDACS": 0
      },
      "last7_score": 120.758,
      "prev7_score": 1.792,
      "trend": "up",
      "trend_arrow": "🔺",
      "change_pct": 6639.9,
      "place": "Ķekavas novads, Latvia"
    },
    {
      "lon": 25.25,
      "lat": 46.25,
      "type": "hotspot_cell",
      "score": 112.915,
      "count": 257,
      "cell_deg": 0.5,
      "sources": {
        "GDELT": 257,
        "GDELT_DOC": 0,
        "DIRECT_FEED": 0,
        "USGS": 0,
        "GDACS": 0
      },
      "last7_score": 94.4,
      "prev7_score": 18.515,
      "trend": "up",
      "trend_arrow": "🔺",
      "change_pct": 409.9,
      "place": "Harghita, Romania"
    },
    {
      "lon": 21.25,
      "lat": 52.25,
      "type": "hotspot_cell",
      "score": 89.84,
      "count": 170,
      "cell_deg": 0.5,
      "sources": {
        "GDELT": 170,
        "GDELT_DOC": 0,
        "DIRECT_FEED": 0,
        "USGS": 0,
        "GDACS": 0
      },
      "last7_score": 82.62,
      "prev7_score": 7.219,
      "trend": "up",
      "trend_arrow": "🔺",
      "change_pct": 1044.4,
      "place": "Warsaw, Poland"
    },
    {
      "lon": 15.25,
      "lat": 49.75,
      "type": "hotspot_cell",
      "score": 69.125,
      "count": 152,
      "cell_deg": 0.5,
      "sources": {
        "GDELT": 152,
        "GDELT_DOC": 0,
        "DIRECT_FEED": 0,
        "USGS": 0,
        "GDACS": 0
      },
      "last7_score": 61.009,
      "prev7_score": 8.116,
      "trend": "up",
      "trend_arrow": "🔺",
      "change_pct": 651.7,
      "place": "Vysočina Region, Czechia"
    }
  ]
}