{
  "generated_utc": "2026-07-14T19:14:51Z",
  "top": [
    {
      "lon": 14.25,
      "lat": 50.25,
      "type": "hotspot_cell",
      "score": 724.467,
      "count": 1331,
      "cell_deg": 0.5,
      "sources": {
        "GDELT": 96,
        "GDELT_DOC": 1229,
        "DIRECT_FEED": 6,
        "USGS": 0,
        "GDACS": 0
      },
      "last7_score": 718.115,
      "prev7_score": 6.352,
      "trend": "up",
      "trend_arrow": "🔺",
      "change_pct": 11205.5,
      "place": "SO ORP Kralupy nad Vltavou, Czechia"
    },
    {
      "lon": 26.25,
      "lat": 44.25,
      "type": "hotspot_cell",
      "score": 510.709,
      "count": 895,
      "cell_deg": 0.5,
      "sources": {
        "GDELT": 113,
        "GDELT_DOC": 780,
        "DIRECT_FEED": 2,
        "USGS": 0,
        "GDACS": 0
      },
      "last7_score": 504.264,
      "prev7_score": 6.445,
      "trend": "up",
      "trend_arrow": "🔺",
      "change_pct": 7724.4,
      "place": "Giurgiu, Romania"
    },
    {
      "lon": 25.25,
      "lat": 54.75,
      "type": "hotspot_cell",
      "score": 426.093,
      "count": 882,
      "cell_deg": 0.5,
      "sources": {
        "GDELT": 75,
        "GDELT_DOC": 806,
        "DIRECT_FEED": 1,
        "USGS": 0,
        "GDACS": 0
      },
      "last7_score": 420.699,
      "prev7_score": 5.393,
      "trend": "up",
      "trend_arrow": "🔺",
      "change_pct": 7700.4,
      "place": "Vilnius County, Lithuania"
    },
    {
      "lon": 20.25,
      "lat": 52.25,
      "type": "hotspot_cell",
      "score": 189.876,
      "count": 519,
      "cell_deg": 0.5,
      "sources": {
        "GDELT": 519,
        "GDELT_DOC": 0,
        "DIRECT_FEED": 0,
        "USGS": 0,
        "GDACS": 0
      },
      "last7_score": 153.978,
      "prev7_score": 35.898,
      "trend": "up",
      "trend_arrow": "🔺",
      "change_pct": 328.9,
      "place": "Sochaczew County, Poland"
    },
    {
      "lon": 19.25,
      "lat": 47.75,
      "type": "hotspot_cell",
      "score": 187.068,
      "count": 335,
      "cell_deg": 0.5,
      "sources": {
        "GDELT": 155,
        "GDELT_DOC": 0,
        "DIRECT_FEED": 180,
        "USGS": 0,
        "GDACS": 0
      },
      "last7_score": 179.17,
      "prev7_score": 7.898,
      "trend": "up",
      "trend_arrow": "🔺",
      "change_pct": 2168.6,
      "place": "Pest, Hungary"
    },
    {
      "lon": 25.25,
      "lat": 46.25,
      "type": "hotspot_cell",
      "score": 154.219,
      "count": 384,
      "cell_deg": 0.5,
      "sources": {
        "GDELT": 384,
        "GDELT_DOC": 0,
        "DIRECT_FEED": 0,
        "USGS": 0,
        "GDACS": 0
      },
      "last7_score": 130.56,
      "prev7_score": 23.659,
      "trend": "up",
      "trend_arrow": "🔺",
      "change_pct": 451.8,
      "place": "Harghita, Romania"
    },
    {
      "lon": 24.25,
      "lat": 56.75,
      "type": "hotspot_cell",
      "score": 109.875,
      "count": 156,
      "cell_deg": 0.5,
      "sources": {
        "GDELT": 21,
        "GDELT_DOC": 0,
        "DIRECT_FEED": 135,
        "USGS": 0,
        "GDACS": 0
      },
      "last7_score": 108.144,
      "prev7_score": 1.731,
      "trend": "up",
      "trend_arrow": "🔺",
      "change_pct": 6146.4,
      "place": "Ķekavas novads, Latvia"
    },
    {
      "lon": 21.25,
      "lat": 52.25,
      "type": "hotspot_cell",
      "score": 93.173,
      "count": 258,
      "cell_deg": 0.5,
      "sources": {
        "GDELT": 258,
        "GDELT_DOC": 0,
        "DIRECT_FEED": 0,
        "USGS": 0,
        "GDACS": 0
      },
      "last7_score": 76.193,
      "prev7_score": 16.98,
      "trend": "up",
      "trend_arrow": "🔺",
      "change_pct": 348.7,
      "place": "Warsaw, Poland"
    },
    {
      "lon": 20.25,
      "lat": 47.25,
      "type": "hotspot_cell",
      "score": 77.586,
      "count": 191,
      "cell_deg": 0.5,
      "sources": {
        "GDELT": 191,
        "GDELT_DOC": 0,
        "DIRECT_FEED": 0,
        "USGS": 0,
        "GDACS": 0
      },
      "last7_score": 65.545,
      "prev7_score": 12.041,
      "trend": "up",
      "trend_arrow": "🔺",
      "change_pct": 444.4,
      "place": "Jász-Nagykun-Szolnok, Hungary"
    },
    {
      "lon": 15.25,
      "lat": 49.75,
      "type": "hotspot_cell",
      "score": 59.986,
      "count": 166,
      "cell_deg": 0.5,
      "sources": {
        "GDELT": 166,
        "GDELT_DOC": 0,
        "DIRECT_FEED": 0,
        "USGS": 0,
        "GDACS": 0
      },
      "last7_score": 48.806,
      "prev7_score": 11.181,
      "trend": "up",
      "trend_arrow": "🔺",
      "change_pct": 336.5,
      "place": "Vysočina Region, Czechia"
    }
  ]
}