{
  "generated_utc": "2026-03-17T07:10:57Z",
  "top": [
    {
      "lon": 14.25,
      "lat": 50.25,
      "type": "hotspot_cell",
      "score": 800.016,
      "count": 1308,
      "cell_deg": 0.5,
      "sources": {
        "GDELT": 132,
        "GDELT_DOC": 1170,
        "DIRECT_FEED": 6,
        "USGS": 0,
        "GDACS": 0
      },
      "last7_score": 790.541,
      "prev7_score": 9.475,
      "trend": "up",
      "trend_arrow": "🔺",
      "change_pct": 8243.0,
      "place": "SO ORP Kralupy nad Vltavou, Czechia"
    },
    {
      "lon": 26.25,
      "lat": 44.25,
      "type": "hotspot_cell",
      "score": 762.748,
      "count": 1306,
      "cell_deg": 0.5,
      "sources": {
        "GDELT": 182,
        "GDELT_DOC": 1121,
        "DIRECT_FEED": 3,
        "USGS": 0,
        "GDACS": 0
      },
      "last7_score": 752.109,
      "prev7_score": 10.639,
      "trend": "up",
      "trend_arrow": "🔺",
      "change_pct": 6969.3,
      "place": "Giurgiu, Romania"
    },
    {
      "lon": 25.25,
      "lat": 54.75,
      "type": "hotspot_cell",
      "score": 518.603,
      "count": 929,
      "cell_deg": 0.5,
      "sources": {
        "GDELT": 69,
        "GDELT_DOC": 860,
        "DIRECT_FEED": 0,
        "USGS": 0,
        "GDACS": 0
      },
      "last7_score": 513.009,
      "prev7_score": 5.594,
      "trend": "up",
      "trend_arrow": "🔺",
      "change_pct": 9070.6,
      "place": "Vilnius County, Lithuania"
    },
    {
      "lon": 19.25,
      "lat": 47.75,
      "type": "hotspot_cell",
      "score": 268.13,
      "count": 616,
      "cell_deg": 0.5,
      "sources": {
        "GDELT": 423,
        "GDELT_DOC": 0,
        "DIRECT_FEED": 193,
        "USGS": 0,
        "GDACS": 0
      },
      "last7_score": 235.575,
      "prev7_score": 32.554,
      "trend": "up",
      "trend_arrow": "🔺",
      "change_pct": 623.6,
      "place": "Pest, Hungary"
    },
    {
      "lon": 20.25,
      "lat": 52.25,
      "type": "hotspot_cell",
      "score": 144.603,
      "count": 413,
      "cell_deg": 0.5,
      "sources": {
        "GDELT": 413,
        "GDELT_DOC": 0,
        "DIRECT_FEED": 0,
        "USGS": 0,
        "GDACS": 0
      },
      "last7_score": 114.405,
      "prev7_score": 30.198,
      "trend": "up",
      "trend_arrow": "🔺",
      "change_pct": 278.9,
      "place": "Sochaczew County, Poland"
    },
    {
      "lon": 20.25,
      "lat": 47.25,
      "type": "hotspot_cell",
      "score": 139.909,
      "count": 366,
      "cell_deg": 0.5,
      "sources": {
        "GDELT": 366,
        "GDELT_DOC": 0,
        "DIRECT_FEED": 0,
        "USGS": 0,
        "GDACS": 0
      },
      "last7_score": 114.427,
      "prev7_score": 25.482,
      "trend": "up",
      "trend_arrow": "🔺",
      "change_pct": 349.0,
      "place": "Jász-Nagykun-Szolnok, Hungary"
    },
    {
      "lon": 25.25,
      "lat": 46.25,
      "type": "hotspot_cell",
      "score": 106.198,
      "count": 292,
      "cell_deg": 0.5,
      "sources": {
        "GDELT": 292,
        "GDELT_DOC": 0,
        "DIRECT_FEED": 0,
        "USGS": 0,
        "GDACS": 0
      },
      "last7_score": 85.532,
      "prev7_score": 20.665,
      "trend": "up",
      "trend_arrow": "🔺",
      "change_pct": 313.9,
      "place": "Harghita, Romania"
    },
    {
      "lon": 24.25,
      "lat": 56.75,
      "type": "hotspot_cell",
      "score": 105.858,
      "count": 178,
      "cell_deg": 0.5,
      "sources": {
        "GDELT": 31,
        "GDELT_DOC": 0,
        "DIRECT_FEED": 147,
        "USGS": 0,
        "GDACS": 0
      },
      "last7_score": 103.909,
      "prev7_score": 1.948,
      "trend": "up",
      "trend_arrow": "🔺",
      "change_pct": 5233.3,
      "place": "Ķekavas novads, Latvia"
    },
    {
      "lon": 21.25,
      "lat": 52.25,
      "type": "hotspot_cell",
      "score": 66.586,
      "count": 211,
      "cell_deg": 0.5,
      "sources": {
        "GDELT": 211,
        "GDELT_DOC": 0,
        "DIRECT_FEED": 0,
        "USGS": 0,
        "GDACS": 0
      },
      "last7_score": 53.765,
      "prev7_score": 12.821,
      "trend": "up",
      "trend_arrow": "🔺",
      "change_pct": 319.3,
      "place": "Warsaw, Poland"
    },
    {
      "lon": 27.75,
      "lat": 47.25,
      "type": "hotspot_cell",
      "score": 63.359,
      "count": 101,
      "cell_deg": 0.5,
      "sources": {
        "GDELT": 0,
        "GDELT_DOC": 101,
        "DIRECT_FEED": 0,
        "USGS": 0,
        "GDACS": 0
      },
      "last7_score": 63.359,
      "prev7_score": 0.0,
      "trend": "new",
      "trend_arrow": "🆕",
      "change_pct": null,
      "place": "Iași, Romania"
    }
  ]
}