{
  "generated_utc": "2026-04-14T07:50:35Z",
  "top": [
    {
      "lon": 19.25,
      "lat": 47.75,
      "type": "hotspot_cell",
      "score": 821.368,
      "count": 1321,
      "cell_deg": 0.5,
      "sources": {
        "GDELT": 999,
        "GDELT_DOC": 0,
        "DIRECT_FEED": 322,
        "USGS": 0,
        "GDACS": 0
      },
      "last7_score": 772.297,
      "prev7_score": 49.071,
      "trend": "up",
      "trend_arrow": "🔺",
      "change_pct": 1473.8,
      "place": "Pest, Hungary"
    },
    {
      "lon": 26.25,
      "lat": 44.25,
      "type": "hotspot_cell",
      "score": 791.029,
      "count": 1432,
      "cell_deg": 0.5,
      "sources": {
        "GDELT": 126,
        "GDELT_DOC": 1302,
        "DIRECT_FEED": 4,
        "USGS": 0,
        "GDACS": 0
      },
      "last7_score": 777.181,
      "prev7_score": 13.849,
      "trend": "up",
      "trend_arrow": "🔺",
      "change_pct": 5512.0,
      "place": "Giurgiu, Romania"
    },
    {
      "lon": 14.25,
      "lat": 50.25,
      "type": "hotspot_cell",
      "score": 759.735,
      "count": 1276,
      "cell_deg": 0.5,
      "sources": {
        "GDELT": 73,
        "GDELT_DOC": 1203,
        "DIRECT_FEED": 0,
        "USGS": 0,
        "GDACS": 0
      },
      "last7_score": 754.495,
      "prev7_score": 5.24,
      "trend": "up",
      "trend_arrow": "🔺",
      "change_pct": 14297.4,
      "place": "SO ORP Kralupy nad Vltavou, Czechia"
    },
    {
      "lon": 25.25,
      "lat": 54.75,
      "type": "hotspot_cell",
      "score": 516.795,
      "count": 937,
      "cell_deg": 0.5,
      "sources": {
        "GDELT": 73,
        "GDELT_DOC": 862,
        "DIRECT_FEED": 2,
        "USGS": 0,
        "GDACS": 0
      },
      "last7_score": 511.699,
      "prev7_score": 5.096,
      "trend": "up",
      "trend_arrow": "🔺",
      "change_pct": 9940.3,
      "place": "Vilnius County, Lithuania"
    },
    {
      "lon": 20.25,
      "lat": 47.25,
      "type": "hotspot_cell",
      "score": 334.191,
      "count": 612,
      "cell_deg": 0.5,
      "sources": {
        "GDELT": 612,
        "GDELT_DOC": 0,
        "DIRECT_FEED": 0,
        "USGS": 0,
        "GDACS": 0
      },
      "last7_score": 303.533,
      "prev7_score": 30.658,
      "trend": "up",
      "trend_arrow": "🔺",
      "change_pct": 890.1,
      "place": "Jász-Nagykun-Szolnok, Hungary"
    },
    {
      "lon": 20.25,
      "lat": 52.25,
      "type": "hotspot_cell",
      "score": 136.547,
      "count": 377,
      "cell_deg": 0.5,
      "sources": {
        "GDELT": 377,
        "GDELT_DOC": 0,
        "DIRECT_FEED": 0,
        "USGS": 0,
        "GDACS": 0
      },
      "last7_score": 112.444,
      "prev7_score": 24.103,
      "trend": "up",
      "trend_arrow": "🔺",
      "change_pct": 366.5,
      "place": "Sochaczew County, Poland"
    },
    {
      "lon": 24.25,
      "lat": 56.75,
      "type": "hotspot_cell",
      "score": 103.569,
      "count": 161,
      "cell_deg": 0.5,
      "sources": {
        "GDELT": 24,
        "GDELT_DOC": 0,
        "DIRECT_FEED": 137,
        "USGS": 0,
        "GDACS": 0
      },
      "last7_score": 103.001,
      "prev7_score": 0.568,
      "trend": "up",
      "trend_arrow": "🔺",
      "change_pct": 18044.5,
      "place": "Ķekavas novads, Latvia"
    },
    {
      "lon": 25.25,
      "lat": 46.25,
      "type": "hotspot_cell",
      "score": 66.856,
      "count": 223,
      "cell_deg": 0.5,
      "sources": {
        "GDELT": 223,
        "GDELT_DOC": 0,
        "DIRECT_FEED": 0,
        "USGS": 0,
        "GDACS": 0
      },
      "last7_score": 46.813,
      "prev7_score": 20.042,
      "trend": "up",
      "trend_arrow": "🔺",
      "change_pct": 133.6,
      "place": "Harghita, Romania"
    },
    {
      "lon": 15.25,
      "lat": 49.75,
      "type": "hotspot_cell",
      "score": 57.915,
      "count": 130,
      "cell_deg": 0.5,
      "sources": {
        "GDELT": 130,
        "GDELT_DOC": 0,
        "DIRECT_FEED": 0,
        "USGS": 0,
        "GDACS": 0
      },
      "last7_score": 49.224,
      "prev7_score": 8.691,
      "trend": "up",
      "trend_arrow": "🔺",
      "change_pct": 466.4,
      "place": "Vysočina Region, Czechia"
    },
    {
      "lon": 21.25,
      "lat": 52.25,
      "type": "hotspot_cell",
      "score": 55.986,
      "count": 131,
      "cell_deg": 0.5,
      "sources": {
        "GDELT": 131,
        "GDELT_DOC": 0,
        "DIRECT_FEED": 0,
        "USGS": 0,
        "GDACS": 0
      },
      "last7_score": 47.762,
      "prev7_score": 8.224,
      "trend": "up",
      "trend_arrow": "🔺",
      "change_pct": 480.8,
      "place": "Warsaw, Poland"
    }
  ]
}