{
  "generated_utc": "2026-06-20T19:18:04Z",
  "top": [
    {
      "lon": 26.25,
      "lat": 44.25,
      "type": "hotspot_cell",
      "score": 512.44,
      "count": 895,
      "cell_deg": 0.5,
      "sources": {
        "GDELT": 158,
        "GDELT_DOC": 732,
        "DIRECT_FEED": 5,
        "USGS": 0,
        "GDACS": 0
      },
      "last7_score": 502.443,
      "prev7_score": 9.997,
      "trend": "up",
      "trend_arrow": "🔺",
      "change_pct": 4925.7,
      "place": "Giurgiu, Romania"
    },
    {
      "lon": 25.25,
      "lat": 54.75,
      "type": "hotspot_cell",
      "score": 487.315,
      "count": 835,
      "cell_deg": 0.5,
      "sources": {
        "GDELT": 54,
        "GDELT_DOC": 780,
        "DIRECT_FEED": 1,
        "USGS": 0,
        "GDACS": 0
      },
      "last7_score": 484.069,
      "prev7_score": 3.246,
      "trend": "up",
      "trend_arrow": "🔺",
      "change_pct": 14813.6,
      "place": "Vilnius County, Lithuania"
    },
    {
      "lon": 14.25,
      "lat": 50.25,
      "type": "hotspot_cell",
      "score": 400.903,
      "count": 646,
      "cell_deg": 0.5,
      "sources": {
        "GDELT": 99,
        "GDELT_DOC": 537,
        "DIRECT_FEED": 10,
        "USGS": 0,
        "GDACS": 0
      },
      "last7_score": 395.358,
      "prev7_score": 5.545,
      "trend": "up",
      "trend_arrow": "🔺",
      "change_pct": 7030.3,
      "place": "SO ORP Kralupy nad Vltavou, Czechia"
    },
    {
      "lon": 20.25,
      "lat": 52.25,
      "type": "hotspot_cell",
      "score": 188.46,
      "count": 471,
      "cell_deg": 0.5,
      "sources": {
        "GDELT": 471,
        "GDELT_DOC": 0,
        "DIRECT_FEED": 0,
        "USGS": 0,
        "GDACS": 0
      },
      "last7_score": 159.994,
      "prev7_score": 28.467,
      "trend": "up",
      "trend_arrow": "🔺",
      "change_pct": 462.0,
      "place": "Sochaczew County, Poland"
    },
    {
      "lon": 19.25,
      "lat": 47.75,
      "type": "hotspot_cell",
      "score": 173.818,
      "count": 325,
      "cell_deg": 0.5,
      "sources": {
        "GDELT": 161,
        "GDELT_DOC": 0,
        "DIRECT_FEED": 164,
        "USGS": 0,
        "GDACS": 0
      },
      "last7_score": 163.621,
      "prev7_score": 10.197,
      "trend": "up",
      "trend_arrow": "🔺",
      "change_pct": 1504.6,
      "place": "Pest, Hungary"
    },
    {
      "lon": 25.25,
      "lat": 46.25,
      "type": "hotspot_cell",
      "score": 154.807,
      "count": 421,
      "cell_deg": 0.5,
      "sources": {
        "GDELT": 421,
        "GDELT_DOC": 0,
        "DIRECT_FEED": 0,
        "USGS": 0,
        "GDACS": 0
      },
      "last7_score": 131.781,
      "prev7_score": 23.026,
      "trend": "up",
      "trend_arrow": "🔺",
      "change_pct": 472.3,
      "place": "Harghita, Romania"
    },
    {
      "lon": 21.25,
      "lat": 52.25,
      "type": "hotspot_cell",
      "score": 130.389,
      "count": 242,
      "cell_deg": 0.5,
      "sources": {
        "GDELT": 242,
        "GDELT_DOC": 0,
        "DIRECT_FEED": 0,
        "USGS": 0,
        "GDACS": 0
      },
      "last7_score": 121.138,
      "prev7_score": 9.251,
      "trend": "up",
      "trend_arrow": "🔺",
      "change_pct": 1209.4,
      "place": "Warsaw, Poland"
    },
    {
      "lon": 24.25,
      "lat": 56.75,
      "type": "hotspot_cell",
      "score": 108.231,
      "count": 175,
      "cell_deg": 0.5,
      "sources": {
        "GDELT": 35,
        "GDELT_DOC": 0,
        "DIRECT_FEED": 140,
        "USGS": 0,
        "GDACS": 0
      },
      "last7_score": 105.794,
      "prev7_score": 2.437,
      "trend": "up",
      "trend_arrow": "🔺",
      "change_pct": 4240.7,
      "place": "Ķekavas novads, Latvia"
    },
    {
      "lon": 20.25,
      "lat": 47.25,
      "type": "hotspot_cell",
      "score": 88.978,
      "count": 252,
      "cell_deg": 0.5,
      "sources": {
        "GDELT": 252,
        "GDELT_DOC": 0,
        "DIRECT_FEED": 0,
        "USGS": 0,
        "GDACS": 0
      },
      "last7_score": 72.125,
      "prev7_score": 16.853,
      "trend": "up",
      "trend_arrow": "🔺",
      "change_pct": 328.0,
      "place": "Jász-Nagykun-Szolnok, Hungary"
    },
    {
      "lon": 17.25,
      "lat": 48.25,
      "type": "hotspot_cell",
      "score": 62.755,
      "count": 169,
      "cell_deg": 0.5,
      "sources": {
        "GDELT": 167,
        "GDELT_DOC": 0,
        "DIRECT_FEED": 2,
        "USGS": 0,
        "GDACS": 0
      },
      "last7_score": 55.635,
      "prev7_score": 7.121,
      "trend": "up",
      "trend_arrow": "🔺",
      "change_pct": 681.3,
      "place": "District of Pezinok, Slovakia"
    }
  ]
}