{
  "generated_utc": "2026-03-31T12:36:23Z",
  "top": [
    {
      "lon": 14.25,
      "lat": 50.25,
      "type": "hotspot_cell",
      "score": 901.351,
      "count": 1535,
      "cell_deg": 0.5,
      "sources": {
        "GDELT": 123,
        "GDELT_DOC": 1409,
        "DIRECT_FEED": 3,
        "USGS": 0,
        "GDACS": 0
      },
      "last7_score": 893.606,
      "prev7_score": 7.745,
      "trend": "up",
      "trend_arrow": "🔺",
      "change_pct": 11437.8,
      "place": "SO ORP Kralupy nad Vltavou, Czechia"
    },
    {
      "lon": 26.25,
      "lat": 44.25,
      "type": "hotspot_cell",
      "score": 795.205,
      "count": 1284,
      "cell_deg": 0.5,
      "sources": {
        "GDELT": 135,
        "GDELT_DOC": 1146,
        "DIRECT_FEED": 3,
        "USGS": 0,
        "GDACS": 0
      },
      "last7_score": 785.359,
      "prev7_score": 9.846,
      "trend": "up",
      "trend_arrow": "🔺",
      "change_pct": 7876.3,
      "place": "Giurgiu, Romania"
    },
    {
      "lon": 25.25,
      "lat": 54.75,
      "type": "hotspot_cell",
      "score": 698.587,
      "count": 1139,
      "cell_deg": 0.5,
      "sources": {
        "GDELT": 91,
        "GDELT_DOC": 1048,
        "DIRECT_FEED": 0,
        "USGS": 0,
        "GDACS": 0
      },
      "last7_score": 691.253,
      "prev7_score": 7.335,
      "trend": "up",
      "trend_arrow": "🔺",
      "change_pct": 9324.7,
      "place": "Vilnius County, Lithuania"
    },
    {
      "lon": 19.25,
      "lat": 47.75,
      "type": "hotspot_cell",
      "score": 239.417,
      "count": 516,
      "cell_deg": 0.5,
      "sources": {
        "GDELT": 301,
        "GDELT_DOC": 0,
        "DIRECT_FEED": 215,
        "USGS": 0,
        "GDACS": 0
      },
      "last7_score": 217.34,
      "prev7_score": 22.077,
      "trend": "up",
      "trend_arrow": "🔺",
      "change_pct": 884.5,
      "place": "Pest, Hungary"
    },
    {
      "lon": 20.25,
      "lat": 52.25,
      "type": "hotspot_cell",
      "score": 172.868,
      "count": 449,
      "cell_deg": 0.5,
      "sources": {
        "GDELT": 449,
        "GDELT_DOC": 0,
        "DIRECT_FEED": 0,
        "USGS": 0,
        "GDACS": 0
      },
      "last7_score": 145.024,
      "prev7_score": 27.844,
      "trend": "up",
      "trend_arrow": "🔺",
      "change_pct": 420.8,
      "place": "Sochaczew County, Poland"
    },
    {
      "lon": 24.25,
      "lat": 56.75,
      "type": "hotspot_cell",
      "score": 116.548,
      "count": 191,
      "cell_deg": 0.5,
      "sources": {
        "GDELT": 44,
        "GDELT_DOC": 0,
        "DIRECT_FEED": 147,
        "USGS": 0,
        "GDACS": 0
      },
      "last7_score": 114.06,
      "prev7_score": 2.488,
      "trend": "up",
      "trend_arrow": "🔺",
      "change_pct": 4484.1,
      "place": "Ķekavas novads, Latvia"
    },
    {
      "lon": 20.25,
      "lat": 47.25,
      "type": "hotspot_cell",
      "score": 109.483,
      "count": 348,
      "cell_deg": 0.5,
      "sources": {
        "GDELT": 348,
        "GDELT_DOC": 0,
        "DIRECT_FEED": 0,
        "USGS": 0,
        "GDACS": 0
      },
      "last7_score": 82.828,
      "prev7_score": 26.656,
      "trend": "up",
      "trend_arrow": "🔺",
      "change_pct": 210.7,
      "place": "Jász-Nagykun-Szolnok, Hungary"
    },
    {
      "lon": 25.25,
      "lat": 46.25,
      "type": "hotspot_cell",
      "score": 103.831,
      "count": 312,
      "cell_deg": 0.5,
      "sources": {
        "GDELT": 312,
        "GDELT_DOC": 0,
        "DIRECT_FEED": 0,
        "USGS": 0,
        "GDACS": 0
      },
      "last7_score": 80.504,
      "prev7_score": 23.327,
      "trend": "up",
      "trend_arrow": "🔺",
      "change_pct": 245.1,
      "place": "Harghita, Romania"
    },
    {
      "lon": 15.25,
      "lat": 49.75,
      "type": "hotspot_cell",
      "score": 51.97,
      "count": 174,
      "cell_deg": 0.5,
      "sources": {
        "GDELT": 174,
        "GDELT_DOC": 0,
        "DIRECT_FEED": 0,
        "USGS": 0,
        "GDACS": 0
      },
      "last7_score": 38.434,
      "prev7_score": 13.536,
      "trend": "up",
      "trend_arrow": "🔺",
      "change_pct": 183.9,
      "place": "Vysočina Region, Czechia"
    },
    {
      "lon": 27.75,
      "lat": 47.25,
      "type": "hotspot_cell",
      "score": 47.987,
      "count": 88,
      "cell_deg": 0.5,
      "sources": {
        "GDELT": 0,
        "GDELT_DOC": 88,
        "DIRECT_FEED": 0,
        "USGS": 0,
        "GDACS": 0
      },
      "last7_score": 47.987,
      "prev7_score": 0.0,
      "trend": "new",
      "trend_arrow": "🆕",
      "change_pct": null,
      "place": "Iași, Romania"
    }
  ]
}