{
  "generated_utc": "2026-04-21T13:36:44Z",
  "top": [
    {
      "lon": 14.25,
      "lat": 50.25,
      "type": "hotspot_cell",
      "score": 796.194,
      "count": 1373,
      "cell_deg": 0.5,
      "sources": {
        "GDELT": 139,
        "GDELT_DOC": 1231,
        "DIRECT_FEED": 3,
        "USGS": 0,
        "GDACS": 0
      },
      "last7_score": 790.861,
      "prev7_score": 5.333,
      "trend": "up",
      "trend_arrow": "🔺",
      "change_pct": 14730.1,
      "place": "SO ORP Kralupy nad Vltavou, Czechia"
    },
    {
      "lon": 26.25,
      "lat": 44.25,
      "type": "hotspot_cell",
      "score": 744.629,
      "count": 1240,
      "cell_deg": 0.5,
      "sources": {
        "GDELT": 107,
        "GDELT_DOC": 1129,
        "DIRECT_FEED": 4,
        "USGS": 0,
        "GDACS": 0
      },
      "last7_score": 740.31,
      "prev7_score": 4.319,
      "trend": "up",
      "trend_arrow": "🔺",
      "change_pct": 17039.6,
      "place": "Giurgiu, Romania"
    },
    {
      "lon": 25.25,
      "lat": 54.75,
      "type": "hotspot_cell",
      "score": 599.198,
      "count": 920,
      "cell_deg": 0.5,
      "sources": {
        "GDELT": 74,
        "GDELT_DOC": 846,
        "DIRECT_FEED": 0,
        "USGS": 0,
        "GDACS": 0
      },
      "last7_score": 593.437,
      "prev7_score": 5.76,
      "trend": "up",
      "trend_arrow": "🔺",
      "change_pct": 10202.4,
      "place": "Vilnius County, Lithuania"
    },
    {
      "lon": 19.25,
      "lat": 47.75,
      "type": "hotspot_cell",
      "score": 482.642,
      "count": 1394,
      "cell_deg": 0.5,
      "sources": {
        "GDELT": 1114,
        "GDELT_DOC": 0,
        "DIRECT_FEED": 280,
        "USGS": 0,
        "GDACS": 0
      },
      "last7_score": 359.991,
      "prev7_score": 122.652,
      "trend": "up",
      "trend_arrow": "🔺",
      "change_pct": 193.5,
      "place": "Pest, Hungary"
    },
    {
      "lon": 20.25,
      "lat": 47.25,
      "type": "hotspot_cell",
      "score": 271.249,
      "count": 829,
      "cell_deg": 0.5,
      "sources": {
        "GDELT": 829,
        "GDELT_DOC": 0,
        "DIRECT_FEED": 0,
        "USGS": 0,
        "GDACS": 0
      },
      "last7_score": 195.671,
      "prev7_score": 75.578,
      "trend": "up",
      "trend_arrow": "🔺",
      "change_pct": 158.9,
      "place": "Jász-Nagykun-Szolnok, Hungary"
    },
    {
      "lon": 20.25,
      "lat": 52.25,
      "type": "hotspot_cell",
      "score": 158.203,
      "count": 424,
      "cell_deg": 0.5,
      "sources": {
        "GDELT": 424,
        "GDELT_DOC": 0,
        "DIRECT_FEED": 0,
        "USGS": 0,
        "GDACS": 0
      },
      "last7_score": 128.416,
      "prev7_score": 29.787,
      "trend": "up",
      "trend_arrow": "🔺",
      "change_pct": 331.1,
      "place": "Sochaczew County, Poland"
    },
    {
      "lon": 24.25,
      "lat": 56.75,
      "type": "hotspot_cell",
      "score": 103.426,
      "count": 165,
      "cell_deg": 0.5,
      "sources": {
        "GDELT": 35,
        "GDELT_DOC": 0,
        "DIRECT_FEED": 130,
        "USGS": 0,
        "GDACS": 0
      },
      "last7_score": 100.365,
      "prev7_score": 3.062,
      "trend": "up",
      "trend_arrow": "🔺",
      "change_pct": 3178.2,
      "place": "Ķekavas novads, Latvia"
    },
    {
      "lon": 25.25,
      "lat": 46.25,
      "type": "hotspot_cell",
      "score": 85.801,
      "count": 237,
      "cell_deg": 0.5,
      "sources": {
        "GDELT": 237,
        "GDELT_DOC": 0,
        "DIRECT_FEED": 0,
        "USGS": 0,
        "GDACS": 0
      },
      "last7_score": 70.43,
      "prev7_score": 15.372,
      "trend": "up",
      "trend_arrow": "🔺",
      "change_pct": 358.2,
      "place": "Harghita, Romania"
    },
    {
      "lon": 15.25,
      "lat": 49.75,
      "type": "hotspot_cell",
      "score": 79.553,
      "count": 193,
      "cell_deg": 0.5,
      "sources": {
        "GDELT": 193,
        "GDELT_DOC": 0,
        "DIRECT_FEED": 0,
        "USGS": 0,
        "GDACS": 0
      },
      "last7_score": 67.055,
      "prev7_score": 12.498,
      "trend": "up",
      "trend_arrow": "🔺",
      "change_pct": 436.5,
      "place": "Vysočina Region, Czechia"
    },
    {
      "lon": 21.25,
      "lat": 52.25,
      "type": "hotspot_cell",
      "score": 61.351,
      "count": 178,
      "cell_deg": 0.5,
      "sources": {
        "GDELT": 178,
        "GDELT_DOC": 0,
        "DIRECT_FEED": 0,
        "USGS": 0,
        "GDACS": 0
      },
      "last7_score": 48.154,
      "prev7_score": 13.196,
      "trend": "up",
      "trend_arrow": "🔺",
      "change_pct": 264.9,
      "place": "Warsaw, Poland"
    }
  ]
}