{
  "generated_utc": "2026-04-01T02:48:34Z",
  "top": [
    {
      "lon": 14.25,
      "lat": 50.25,
      "type": "hotspot_cell",
      "score": 988.004,
      "count": 1634,
      "cell_deg": 0.5,
      "sources": {
        "GDELT": 120,
        "GDELT_DOC": 1511,
        "DIRECT_FEED": 3,
        "USGS": 0,
        "GDACS": 0
      },
      "last7_score": 979.597,
      "prev7_score": 8.407,
      "trend": "up",
      "trend_arrow": "🔺",
      "change_pct": 11552.0,
      "place": "SO ORP Kralupy nad Vltavou, Czechia"
    },
    {
      "lon": 26.25,
      "lat": 44.25,
      "type": "hotspot_cell",
      "score": 852.792,
      "count": 1299,
      "cell_deg": 0.5,
      "sources": {
        "GDELT": 133,
        "GDELT_DOC": 1163,
        "DIRECT_FEED": 3,
        "USGS": 0,
        "GDACS": 0
      },
      "last7_score": 840.147,
      "prev7_score": 12.645,
      "trend": "up",
      "trend_arrow": "🔺",
      "change_pct": 6544.3,
      "place": "Giurgiu, Romania"
    },
    {
      "lon": 25.25,
      "lat": 54.75,
      "type": "hotspot_cell",
      "score": 731.024,
      "count": 1151,
      "cell_deg": 0.5,
      "sources": {
        "GDELT": 89,
        "GDELT_DOC": 1062,
        "DIRECT_FEED": 0,
        "USGS": 0,
        "GDACS": 0
      },
      "last7_score": 723.521,
      "prev7_score": 7.502,
      "trend": "up",
      "trend_arrow": "🔺",
      "change_pct": 9544.0,
      "place": "Vilnius County, Lithuania"
    },
    {
      "lon": 19.25,
      "lat": 47.75,
      "type": "hotspot_cell",
      "score": 245.509,
      "count": 502,
      "cell_deg": 0.5,
      "sources": {
        "GDELT": 288,
        "GDELT_DOC": 0,
        "DIRECT_FEED": 214,
        "USGS": 0,
        "GDACS": 0
      },
      "last7_score": 220.305,
      "prev7_score": 25.204,
      "trend": "up",
      "trend_arrow": "🔺",
      "change_pct": 774.1,
      "place": "Pest, Hungary"
    },
    {
      "lon": 20.25,
      "lat": 52.25,
      "type": "hotspot_cell",
      "score": 182.547,
      "count": 436,
      "cell_deg": 0.5,
      "sources": {
        "GDELT": 436,
        "GDELT_DOC": 0,
        "DIRECT_FEED": 0,
        "USGS": 0,
        "GDACS": 0
      },
      "last7_score": 151.945,
      "prev7_score": 30.602,
      "trend": "up",
      "trend_arrow": "🔺",
      "change_pct": 396.5,
      "place": "Sochaczew County, Poland"
    },
    {
      "lon": 20.25,
      "lat": 47.25,
      "type": "hotspot_cell",
      "score": 124.526,
      "count": 354,
      "cell_deg": 0.5,
      "sources": {
        "GDELT": 354,
        "GDELT_DOC": 0,
        "DIRECT_FEED": 0,
        "USGS": 0,
        "GDACS": 0
      },
      "last7_score": 93.464,
      "prev7_score": 31.063,
      "trend": "up",
      "trend_arrow": "🔺",
      "change_pct": 200.9,
      "place": "Jász-Nagykun-Szolnok, Hungary"
    },
    {
      "lon": 24.25,
      "lat": 56.75,
      "type": "hotspot_cell",
      "score": 116.907,
      "count": 192,
      "cell_deg": 0.5,
      "sources": {
        "GDELT": 43,
        "GDELT_DOC": 0,
        "DIRECT_FEED": 149,
        "USGS": 0,
        "GDACS": 0
      },
      "last7_score": 112.89,
      "prev7_score": 4.016,
      "trend": "up",
      "trend_arrow": "🔺",
      "change_pct": 2710.7,
      "place": "Ķekavas novads, Latvia"
    },
    {
      "lon": 25.25,
      "lat": 46.25,
      "type": "hotspot_cell",
      "score": 110.071,
      "count": 303,
      "cell_deg": 0.5,
      "sources": {
        "GDELT": 303,
        "GDELT_DOC": 0,
        "DIRECT_FEED": 0,
        "USGS": 0,
        "GDACS": 0
      },
      "last7_score": 80.178,
      "prev7_score": 29.893,
      "trend": "up",
      "trend_arrow": "🔺",
      "change_pct": 168.2,
      "place": "Harghita, Romania"
    },
    {
      "lon": 27.75,
      "lat": 47.25,
      "type": "hotspot_cell",
      "score": 59.423,
      "count": 93,
      "cell_deg": 0.5,
      "sources": {
        "GDELT": 0,
        "GDELT_DOC": 93,
        "DIRECT_FEED": 0,
        "USGS": 0,
        "GDACS": 0
      },
      "last7_score": 59.423,
      "prev7_score": 0.0,
      "trend": "new",
      "trend_arrow": "🆕",
      "change_pct": null,
      "place": "Iași, Romania"
    },
    {
      "lon": 15.25,
      "lat": 49.75,
      "type": "hotspot_cell",
      "score": 53.068,
      "count": 167,
      "cell_deg": 0.5,
      "sources": {
        "GDELT": 167,
        "GDELT_DOC": 0,
        "DIRECT_FEED": 0,
        "USGS": 0,
        "GDACS": 0
      },
      "last7_score": 38.846,
      "prev7_score": 14.222,
      "trend": "up",
      "trend_arrow": "🔺",
      "change_pct": 173.1,
      "place": "Vysočina Region, Czechia"
    }
  ]
}