{
  "generated_utc": "2026-05-02T19:06:03Z",
  "top": [
    {
      "lon": 26.25,
      "lat": 44.25,
      "type": "hotspot_cell",
      "score": 905.892,
      "count": 1469,
      "cell_deg": 0.5,
      "sources": {
        "GDELT": 152,
        "GDELT_DOC": 1314,
        "DIRECT_FEED": 3,
        "USGS": 0,
        "GDACS": 0
      },
      "last7_score": 896.357,
      "prev7_score": 9.536,
      "trend": "up",
      "trend_arrow": "🔺",
      "change_pct": 9300.1,
      "place": "Giurgiu, Romania"
    },
    {
      "lon": 14.25,
      "lat": 50.25,
      "type": "hotspot_cell",
      "score": 808.448,
      "count": 1384,
      "cell_deg": 0.5,
      "sources": {
        "GDELT": 187,
        "GDELT_DOC": 1194,
        "DIRECT_FEED": 3,
        "USGS": 0,
        "GDACS": 0
      },
      "last7_score": 796.364,
      "prev7_score": 12.084,
      "trend": "up",
      "trend_arrow": "🔺",
      "change_pct": 6490.2,
      "place": "SO ORP Kralupy nad Vltavou, Czechia"
    },
    {
      "lon": 25.25,
      "lat": 54.75,
      "type": "hotspot_cell",
      "score": 633.573,
      "count": 1014,
      "cell_deg": 0.5,
      "sources": {
        "GDELT": 66,
        "GDELT_DOC": 948,
        "DIRECT_FEED": 0,
        "USGS": 0,
        "GDACS": 0
      },
      "last7_score": 629.338,
      "prev7_score": 4.235,
      "trend": "up",
      "trend_arrow": "🔺",
      "change_pct": 14759.0,
      "place": "Vilnius County, Lithuania"
    },
    {
      "lon": 19.25,
      "lat": 47.75,
      "type": "hotspot_cell",
      "score": 210.925,
      "count": 543,
      "cell_deg": 0.5,
      "sources": {
        "GDELT": 356,
        "GDELT_DOC": 0,
        "DIRECT_FEED": 187,
        "USGS": 0,
        "GDACS": 0
      },
      "last7_score": 184.466,
      "prev7_score": 26.46,
      "trend": "up",
      "trend_arrow": "🔺",
      "change_pct": 597.2,
      "place": "Pest, Hungary"
    },
    {
      "lon": 20.25,
      "lat": 52.25,
      "type": "hotspot_cell",
      "score": 173.623,
      "count": 481,
      "cell_deg": 0.5,
      "sources": {
        "GDELT": 481,
        "GDELT_DOC": 0,
        "DIRECT_FEED": 0,
        "USGS": 0,
        "GDACS": 0
      },
      "last7_score": 140.763,
      "prev7_score": 32.859,
      "trend": "up",
      "trend_arrow": "🔺",
      "change_pct": 328.4,
      "place": "Sochaczew County, Poland"
    },
    {
      "lon": 25.25,
      "lat": 46.25,
      "type": "hotspot_cell",
      "score": 132.365,
      "count": 322,
      "cell_deg": 0.5,
      "sources": {
        "GDELT": 322,
        "GDELT_DOC": 0,
        "DIRECT_FEED": 0,
        "USGS": 0,
        "GDACS": 0
      },
      "last7_score": 115.613,
      "prev7_score": 16.752,
      "trend": "up",
      "trend_arrow": "🔺",
      "change_pct": 590.1,
      "place": "Harghita, Romania"
    },
    {
      "lon": 20.25,
      "lat": 47.25,
      "type": "hotspot_cell",
      "score": 131.446,
      "count": 511,
      "cell_deg": 0.5,
      "sources": {
        "GDELT": 511,
        "GDELT_DOC": 0,
        "DIRECT_FEED": 0,
        "USGS": 0,
        "GDACS": 0
      },
      "last7_score": 91.233,
      "prev7_score": 40.212,
      "trend": "up",
      "trend_arrow": "🔺",
      "change_pct": 126.9,
      "place": "Jász-Nagykun-Szolnok, Hungary"
    },
    {
      "lon": 24.25,
      "lat": 56.75,
      "type": "hotspot_cell",
      "score": 103.807,
      "count": 162,
      "cell_deg": 0.5,
      "sources": {
        "GDELT": 24,
        "GDELT_DOC": 0,
        "DIRECT_FEED": 138,
        "USGS": 0,
        "GDACS": 0
      },
      "last7_score": 102.184,
      "prev7_score": 1.622,
      "trend": "up",
      "trend_arrow": "🔺",
      "change_pct": 6198.3,
      "place": "Ķekavas novads, Latvia"
    },
    {
      "lon": 15.25,
      "lat": 49.75,
      "type": "hotspot_cell",
      "score": 83.198,
      "count": 220,
      "cell_deg": 0.5,
      "sources": {
        "GDELT": 220,
        "GDELT_DOC": 0,
        "DIRECT_FEED": 0,
        "USGS": 0,
        "GDACS": 0
      },
      "last7_score": 72.29,
      "prev7_score": 10.907,
      "trend": "up",
      "trend_arrow": "🔺",
      "change_pct": 562.8,
      "place": "Vysočina Region, Czechia"
    },
    {
      "lon": 21.25,
      "lat": 52.25,
      "type": "hotspot_cell",
      "score": 56.915,
      "count": 162,
      "cell_deg": 0.5,
      "sources": {
        "GDELT": 162,
        "GDELT_DOC": 0,
        "DIRECT_FEED": 0,
        "USGS": 0,
        "GDACS": 0
      },
      "last7_score": 47.3,
      "prev7_score": 9.615,
      "trend": "up",
      "trend_arrow": "🔺",
      "change_pct": 391.9,
      "place": "Warsaw, Poland"
    }
  ]
}