{
  "generated_utc": "2026-05-23T09:35:21Z",
  "top": [
    {
      "lon": 14.25,
      "lat": 50.25,
      "type": "hotspot_cell",
      "score": 920.82,
      "count": 1422,
      "cell_deg": 0.5,
      "sources": {
        "GDELT": 132,
        "GDELT_DOC": 1276,
        "DIRECT_FEED": 14,
        "USGS": 0,
        "GDACS": 0
      },
      "last7_score": 912.197,
      "prev7_score": 8.623,
      "trend": "up",
      "trend_arrow": "🔺",
      "change_pct": 10478.5,
      "place": "SO ORP Kralupy nad Vltavou, Czechia"
    },
    {
      "lon": 26.25,
      "lat": 44.25,
      "type": "hotspot_cell",
      "score": 913.005,
      "count": 1570,
      "cell_deg": 0.5,
      "sources": {
        "GDELT": 191,
        "GDELT_DOC": 1377,
        "DIRECT_FEED": 2,
        "USGS": 0,
        "GDACS": 0
      },
      "last7_score": 895.22,
      "prev7_score": 17.785,
      "trend": "up",
      "trend_arrow": "🔺",
      "change_pct": 4933.5,
      "place": "Giurgiu, Romania"
    },
    {
      "lon": 25.25,
      "lat": 54.75,
      "type": "hotspot_cell",
      "score": 695.221,
      "count": 1066,
      "cell_deg": 0.5,
      "sources": {
        "GDELT": 101,
        "GDELT_DOC": 964,
        "DIRECT_FEED": 1,
        "USGS": 0,
        "GDACS": 0
      },
      "last7_score": 690.234,
      "prev7_score": 4.987,
      "trend": "up",
      "trend_arrow": "🔺",
      "change_pct": 13740.9,
      "place": "Vilnius County, Lithuania"
    },
    {
      "lon": 20.25,
      "lat": 52.25,
      "type": "hotspot_cell",
      "score": 403.725,
      "count": 784,
      "cell_deg": 0.5,
      "sources": {
        "GDELT": 784,
        "GDELT_DOC": 0,
        "DIRECT_FEED": 0,
        "USGS": 0,
        "GDACS": 0
      },
      "last7_score": 354.506,
      "prev7_score": 49.219,
      "trend": "up",
      "trend_arrow": "🔺",
      "change_pct": 620.3,
      "place": "Sochaczew County, Poland"
    },
    {
      "lon": 19.25,
      "lat": 47.75,
      "type": "hotspot_cell",
      "score": 251.696,
      "count": 496,
      "cell_deg": 0.5,
      "sources": {
        "GDELT": 257,
        "GDELT_DOC": 0,
        "DIRECT_FEED": 239,
        "USGS": 0,
        "GDACS": 0
      },
      "last7_score": 232.826,
      "prev7_score": 18.87,
      "trend": "up",
      "trend_arrow": "🔺",
      "change_pct": 1133.8,
      "place": "Pest, Hungary"
    },
    {
      "lon": 21.25,
      "lat": 52.25,
      "type": "hotspot_cell",
      "score": 126.257,
      "count": 267,
      "cell_deg": 0.5,
      "sources": {
        "GDELT": 267,
        "GDELT_DOC": 0,
        "DIRECT_FEED": 0,
        "USGS": 0,
        "GDACS": 0
      },
      "last7_score": 108.105,
      "prev7_score": 18.152,
      "trend": "up",
      "trend_arrow": "🔺",
      "change_pct": 495.5,
      "place": "Warsaw, Poland"
    },
    {
      "lon": 25.25,
      "lat": 46.25,
      "type": "hotspot_cell",
      "score": 124.507,
      "count": 311,
      "cell_deg": 0.5,
      "sources": {
        "GDELT": 311,
        "GDELT_DOC": 0,
        "DIRECT_FEED": 0,
        "USGS": 0,
        "GDACS": 0
      },
      "last7_score": 104.355,
      "prev7_score": 20.152,
      "trend": "up",
      "trend_arrow": "🔺",
      "change_pct": 417.8,
      "place": "Harghita, Romania"
    },
    {
      "lon": 24.25,
      "lat": 56.75,
      "type": "hotspot_cell",
      "score": 118.766,
      "count": 178,
      "cell_deg": 0.5,
      "sources": {
        "GDELT": 51,
        "GDELT_DOC": 0,
        "DIRECT_FEED": 127,
        "USGS": 0,
        "GDACS": 0
      },
      "last7_score": 115.126,
      "prev7_score": 3.64,
      "trend": "up",
      "trend_arrow": "🔺",
      "change_pct": 3062.5,
      "place": "Ķekavas novads, Latvia"
    },
    {
      "lon": 20.25,
      "lat": 47.25,
      "type": "hotspot_cell",
      "score": 101.979,
      "count": 284,
      "cell_deg": 0.5,
      "sources": {
        "GDELT": 284,
        "GDELT_DOC": 0,
        "DIRECT_FEED": 0,
        "USGS": 0,
        "GDACS": 0
      },
      "last7_score": 81.624,
      "prev7_score": 20.355,
      "trend": "up",
      "trend_arrow": "🔺",
      "change_pct": 301.0,
      "place": "Jász-Nagykun-Szolnok, Hungary"
    },
    {
      "lon": 24.25,
      "lat": 56.25,
      "type": "hotspot_cell",
      "score": 77.023,
      "count": 176,
      "cell_deg": 0.5,
      "sources": {
        "GDELT": 176,
        "GDELT_DOC": 0,
        "DIRECT_FEED": 0,
        "USGS": 0,
        "GDACS": 0
      },
      "last7_score": 67.395,
      "prev7_score": 9.628,
      "trend": "up",
      "trend_arrow": "🔺",
      "change_pct": 600.0,
      "place": "Namišių seniūnija, Lithuania"
    }
  ]
}