{
  "generated_utc": "2026-07-10T09:26:55Z",
  "top": [
    {
      "lon": 14.25,
      "lat": 50.25,
      "type": "hotspot_cell",
      "score": 799.913,
      "count": 1027,
      "cell_deg": 0.5,
      "sources": {
        "GDELT": 107,
        "GDELT_DOC": 916,
        "DIRECT_FEED": 4,
        "USGS": 0,
        "GDACS": 0
      },
      "last7_score": 790.642,
      "prev7_score": 9.271,
      "trend": "up",
      "trend_arrow": "🔺",
      "change_pct": 8428.4,
      "place": "SO ORP Kralupy nad Vltavou, Czechia"
    },
    {
      "lon": 26.25,
      "lat": 44.25,
      "type": "hotspot_cell",
      "score": 576.678,
      "count": 852,
      "cell_deg": 0.5,
      "sources": {
        "GDELT": 124,
        "GDELT_DOC": 723,
        "DIRECT_FEED": 5,
        "USGS": 0,
        "GDACS": 0
      },
      "last7_score": 565.786,
      "prev7_score": 10.891,
      "trend": "up",
      "trend_arrow": "🔺",
      "change_pct": 5094.9,
      "place": "Giurgiu, Romania"
    },
    {
      "lon": 25.25,
      "lat": 54.75,
      "type": "hotspot_cell",
      "score": 472.071,
      "count": 614,
      "cell_deg": 0.5,
      "sources": {
        "GDELT": 70,
        "GDELT_DOC": 542,
        "DIRECT_FEED": 2,
        "USGS": 0,
        "GDACS": 0
      },
      "last7_score": 465.544,
      "prev7_score": 6.527,
      "trend": "up",
      "trend_arrow": "🔺",
      "change_pct": 7033.0,
      "place": "Vilnius County, Lithuania"
    },
    {
      "lon": 20.25,
      "lat": 52.25,
      "type": "hotspot_cell",
      "score": 191.552,
      "count": 515,
      "cell_deg": 0.5,
      "sources": {
        "GDELT": 515,
        "GDELT_DOC": 0,
        "DIRECT_FEED": 0,
        "USGS": 0,
        "GDACS": 0
      },
      "last7_score": 147.582,
      "prev7_score": 43.97,
      "trend": "up",
      "trend_arrow": "🔺",
      "change_pct": 235.6,
      "place": "Sochaczew County, Poland"
    },
    {
      "lon": 19.25,
      "lat": 47.75,
      "type": "hotspot_cell",
      "score": 180.048,
      "count": 311,
      "cell_deg": 0.5,
      "sources": {
        "GDELT": 154,
        "GDELT_DOC": 0,
        "DIRECT_FEED": 157,
        "USGS": 0,
        "GDACS": 0
      },
      "last7_score": 168.923,
      "prev7_score": 11.125,
      "trend": "up",
      "trend_arrow": "🔺",
      "change_pct": 1418.5,
      "place": "Pest, Hungary"
    },
    {
      "lon": 25.25,
      "lat": 46.25,
      "type": "hotspot_cell",
      "score": 139.114,
      "count": 336,
      "cell_deg": 0.5,
      "sources": {
        "GDELT": 336,
        "GDELT_DOC": 0,
        "DIRECT_FEED": 0,
        "USGS": 0,
        "GDACS": 0
      },
      "last7_score": 112.905,
      "prev7_score": 26.21,
      "trend": "up",
      "trend_arrow": "🔺",
      "change_pct": 330.8,
      "place": "Harghita, Romania"
    },
    {
      "lon": 24.25,
      "lat": 56.75,
      "type": "hotspot_cell",
      "score": 103.508,
      "count": 149,
      "cell_deg": 0.5,
      "sources": {
        "GDELT": 19,
        "GDELT_DOC": 0,
        "DIRECT_FEED": 130,
        "USGS": 0,
        "GDACS": 0
      },
      "last7_score": 102.094,
      "prev7_score": 1.414,
      "trend": "up",
      "trend_arrow": "🔺",
      "change_pct": 7121.5,
      "place": "Ķekavas novads, Latvia"
    },
    {
      "lon": 21.25,
      "lat": 52.25,
      "type": "hotspot_cell",
      "score": 90.001,
      "count": 250,
      "cell_deg": 0.5,
      "sources": {
        "GDELT": 250,
        "GDELT_DOC": 0,
        "DIRECT_FEED": 0,
        "USGS": 0,
        "GDACS": 0
      },
      "last7_score": 69.53,
      "prev7_score": 20.471,
      "trend": "up",
      "trend_arrow": "🔺",
      "change_pct": 239.7,
      "place": "Warsaw, Poland"
    },
    {
      "lon": 26.25,
      "lat": 59.25,
      "type": "hotspot_cell",
      "score": 74.372,
      "count": 150,
      "cell_deg": 0.5,
      "sources": {
        "GDELT": 150,
        "GDELT_DOC": 0,
        "DIRECT_FEED": 0,
        "USGS": 0,
        "GDACS": 0
      },
      "last7_score": 63.85,
      "prev7_score": 10.522,
      "trend": "up",
      "trend_arrow": "🔺",
      "change_pct": 506.8,
      "place": "Lääne-Viru County, Estonia"
    },
    {
      "lon": 20.25,
      "lat": 47.25,
      "type": "hotspot_cell",
      "score": 71.235,
      "count": 158,
      "cell_deg": 0.5,
      "sources": {
        "GDELT": 158,
        "GDELT_DOC": 0,
        "DIRECT_FEED": 0,
        "USGS": 0,
        "GDACS": 0
      },
      "last7_score": 59.75,
      "prev7_score": 11.485,
      "trend": "up",
      "trend_arrow": "🔺",
      "change_pct": 420.3,
      "place": "Jász-Nagykun-Szolnok, Hungary"
    }
  ]
}