{
  "generated_utc": "2026-03-11T19:03:37Z",
  "top": [
    {
      "lon": 26.25,
      "lat": 44.25,
      "type": "hotspot_cell",
      "score": 734.092,
      "count": 1101,
      "cell_deg": 0.5,
      "sources": {
        "GDELT": 179,
        "GDELT_DOC": 920,
        "DIRECT_FEED": 2,
        "USGS": 0,
        "GDACS": 0
      },
      "last7_score": 719.186,
      "prev7_score": 14.906,
      "trend": "up",
      "trend_arrow": "🔺",
      "change_pct": 4725.0,
      "place": "Giurgiu, Romania"
    },
    {
      "lon": 14.25,
      "lat": 50.25,
      "type": "hotspot_cell",
      "score": 583.671,
      "count": 969,
      "cell_deg": 0.5,
      "sources": {
        "GDELT": 147,
        "GDELT_DOC": 820,
        "DIRECT_FEED": 2,
        "USGS": 0,
        "GDACS": 0
      },
      "last7_score": 573.123,
      "prev7_score": 10.548,
      "trend": "up",
      "trend_arrow": "🔺",
      "change_pct": 5333.3,
      "place": "SO ORP Kralupy nad Vltavou, Czechia"
    },
    {
      "lon": 25.25,
      "lat": 54.75,
      "type": "hotspot_cell",
      "score": 477.54,
      "count": 694,
      "cell_deg": 0.5,
      "sources": {
        "GDELT": 70,
        "GDELT_DOC": 624,
        "DIRECT_FEED": 0,
        "USGS": 0,
        "GDACS": 0
      },
      "last7_score": 472.967,
      "prev7_score": 4.573,
      "trend": "up",
      "trend_arrow": "🔺",
      "change_pct": 10242.4,
      "place": "Vilnius County, Lithuania"
    },
    {
      "lon": 19.25,
      "lat": 47.75,
      "type": "hotspot_cell",
      "score": 284.42,
      "count": 550,
      "cell_deg": 0.5,
      "sources": {
        "GDELT": 407,
        "GDELT_DOC": 0,
        "DIRECT_FEED": 143,
        "USGS": 0,
        "GDACS": 0
      },
      "last7_score": 264.53,
      "prev7_score": 19.889,
      "trend": "up",
      "trend_arrow": "🔺",
      "change_pct": 1230.0,
      "place": "Pest, Hungary"
    },
    {
      "lon": 20.25,
      "lat": 52.25,
      "type": "hotspot_cell",
      "score": 156.271,
      "count": 502,
      "cell_deg": 0.5,
      "sources": {
        "GDELT": 502,
        "GDELT_DOC": 0,
        "DIRECT_FEED": 0,
        "USGS": 0,
        "GDACS": 0
      },
      "last7_score": 121.404,
      "prev7_score": 34.868,
      "trend": "up",
      "trend_arrow": "🔺",
      "change_pct": 248.2,
      "place": "Sochaczew County, Poland"
    },
    {
      "lon": 20.25,
      "lat": 47.25,
      "type": "hotspot_cell",
      "score": 134.654,
      "count": 340,
      "cell_deg": 0.5,
      "sources": {
        "GDELT": 340,
        "GDELT_DOC": 0,
        "DIRECT_FEED": 0,
        "USGS": 0,
        "GDACS": 0
      },
      "last7_score": 112.987,
      "prev7_score": 21.667,
      "trend": "up",
      "trend_arrow": "🔺",
      "change_pct": 421.5,
      "place": "Jász-Nagykun-Szolnok, Hungary"
    },
    {
      "lon": 24.25,
      "lat": 56.75,
      "type": "hotspot_cell",
      "score": 127.359,
      "count": 153,
      "cell_deg": 0.5,
      "sources": {
        "GDELT": 25,
        "GDELT_DOC": 0,
        "DIRECT_FEED": 128,
        "USGS": 0,
        "GDACS": 0
      },
      "last7_score": 126.11,
      "prev7_score": 1.248,
      "trend": "up",
      "trend_arrow": "🔺",
      "change_pct": 10001.4,
      "place": "Ķekavas novads, Latvia"
    },
    {
      "lon": 25.25,
      "lat": 46.25,
      "type": "hotspot_cell",
      "score": 125.347,
      "count": 321,
      "cell_deg": 0.5,
      "sources": {
        "GDELT": 321,
        "GDELT_DOC": 0,
        "DIRECT_FEED": 0,
        "USGS": 0,
        "GDACS": 0
      },
      "last7_score": 104.894,
      "prev7_score": 20.454,
      "trend": "up",
      "trend_arrow": "🔺",
      "change_pct": 412.8,
      "place": "Harghita, Romania"
    },
    {
      "lon": 21.25,
      "lat": 52.25,
      "type": "hotspot_cell",
      "score": 71.642,
      "count": 235,
      "cell_deg": 0.5,
      "sources": {
        "GDELT": 235,
        "GDELT_DOC": 0,
        "DIRECT_FEED": 0,
        "USGS": 0,
        "GDACS": 0
      },
      "last7_score": 54.948,
      "prev7_score": 16.694,
      "trend": "up",
      "trend_arrow": "🔺",
      "change_pct": 229.1,
      "place": "Warsaw, Poland"
    },
    {
      "lon": 15.25,
      "lat": 49.75,
      "type": "hotspot_cell",
      "score": 62.797,
      "count": 171,
      "cell_deg": 0.5,
      "sources": {
        "GDELT": 171,
        "GDELT_DOC": 0,
        "DIRECT_FEED": 0,
        "USGS": 0,
        "GDACS": 0
      },
      "last7_score": 52.348,
      "prev7_score": 10.448,
      "trend": "up",
      "trend_arrow": "🔺",
      "change_pct": 401.0,
      "place": "Vysočina Region, Czechia"
    }
  ]
}