{
  "generated_utc": "2026-04-12T07:18:24Z",
  "top": [
    {
      "lon": 26.25,
      "lat": 44.25,
      "type": "hotspot_cell",
      "score": 824.275,
      "count": 1456,
      "cell_deg": 0.5,
      "sources": {
        "GDELT": 156,
        "GDELT_DOC": 1294,
        "DIRECT_FEED": 6,
        "USGS": 0,
        "GDACS": 0
      },
      "last7_score": 812.443,
      "prev7_score": 11.832,
      "trend": "up",
      "trend_arrow": "🔺",
      "change_pct": 6766.4,
      "place": "Giurgiu, Romania"
    },
    {
      "lon": 14.25,
      "lat": 50.25,
      "type": "hotspot_cell",
      "score": 663.59,
      "count": 1114,
      "cell_deg": 0.5,
      "sources": {
        "GDELT": 85,
        "GDELT_DOC": 1029,
        "DIRECT_FEED": 0,
        "USGS": 0,
        "GDACS": 0
      },
      "last7_score": 657.379,
      "prev7_score": 6.211,
      "trend": "up",
      "trend_arrow": "🔺",
      "change_pct": 10483.9,
      "place": "SO ORP Kralupy nad Vltavou, Czechia"
    },
    {
      "lon": 25.25,
      "lat": 54.75,
      "type": "hotspot_cell",
      "score": 514.83,
      "count": 863,
      "cell_deg": 0.5,
      "sources": {
        "GDELT": 75,
        "GDELT_DOC": 786,
        "DIRECT_FEED": 2,
        "USGS": 0,
        "GDACS": 0
      },
      "last7_score": 509.52,
      "prev7_score": 5.311,
      "trend": "up",
      "trend_arrow": "🔺",
      "change_pct": 9494.3,
      "place": "Vilnius County, Lithuania"
    },
    {
      "lon": 19.25,
      "lat": 47.75,
      "type": "hotspot_cell",
      "score": 475.699,
      "count": 854,
      "cell_deg": 0.5,
      "sources": {
        "GDELT": 598,
        "GDELT_DOC": 0,
        "DIRECT_FEED": 256,
        "USGS": 0,
        "GDACS": 0
      },
      "last7_score": 459.331,
      "prev7_score": 16.368,
      "trend": "up",
      "trend_arrow": "🔺",
      "change_pct": 2706.2,
      "place": "Pest, Hungary"
    },
    {
      "lon": 20.25,
      "lat": 47.25,
      "type": "hotspot_cell",
      "score": 196.188,
      "count": 449,
      "cell_deg": 0.5,
      "sources": {
        "GDELT": 449,
        "GDELT_DOC": 0,
        "DIRECT_FEED": 0,
        "USGS": 0,
        "GDACS": 0
      },
      "last7_score": 173.116,
      "prev7_score": 23.072,
      "trend": "up",
      "trend_arrow": "🔺",
      "change_pct": 650.3,
      "place": "Jász-Nagykun-Szolnok, Hungary"
    },
    {
      "lon": 20.25,
      "lat": 52.25,
      "type": "hotspot_cell",
      "score": 138.662,
      "count": 415,
      "cell_deg": 0.5,
      "sources": {
        "GDELT": 415,
        "GDELT_DOC": 0,
        "DIRECT_FEED": 0,
        "USGS": 0,
        "GDACS": 0
      },
      "last7_score": 110.525,
      "prev7_score": 28.137,
      "trend": "up",
      "trend_arrow": "🔺",
      "change_pct": 292.8,
      "place": "Sochaczew County, Poland"
    },
    {
      "lon": 24.25,
      "lat": 56.75,
      "type": "hotspot_cell",
      "score": 97.544,
      "count": 158,
      "cell_deg": 0.5,
      "sources": {
        "GDELT": 26,
        "GDELT_DOC": 0,
        "DIRECT_FEED": 132,
        "USGS": 0,
        "GDACS": 0
      },
      "last7_score": 96.098,
      "prev7_score": 1.446,
      "trend": "up",
      "trend_arrow": "🔺",
      "change_pct": 6546.7,
      "place": "Ķekavas novads, Latvia"
    },
    {
      "lon": 25.25,
      "lat": 46.25,
      "type": "hotspot_cell",
      "score": 72.354,
      "count": 253,
      "cell_deg": 0.5,
      "sources": {
        "GDELT": 253,
        "GDELT_DOC": 0,
        "DIRECT_FEED": 0,
        "USGS": 0,
        "GDACS": 0
      },
      "last7_score": 56.03,
      "prev7_score": 16.324,
      "trend": "up",
      "trend_arrow": "🔺",
      "change_pct": 243.2,
      "place": "Harghita, Romania"
    },
    {
      "lon": 15.25,
      "lat": 49.75,
      "type": "hotspot_cell",
      "score": 47.22,
      "count": 126,
      "cell_deg": 0.5,
      "sources": {
        "GDELT": 126,
        "GDELT_DOC": 0,
        "DIRECT_FEED": 0,
        "USGS": 0,
        "GDACS": 0
      },
      "last7_score": 40.487,
      "prev7_score": 6.733,
      "trend": "up",
      "trend_arrow": "🔺",
      "change_pct": 501.3,
      "place": "Vysočina Region, Czechia"
    },
    {
      "lon": 24.25,
      "lat": 56.25,
      "type": "hotspot_cell",
      "score": 46.844,
      "count": 115,
      "cell_deg": 0.5,
      "sources": {
        "GDELT": 115,
        "GDELT_DOC": 0,
        "DIRECT_FEED": 0,
        "USGS": 0,
        "GDACS": 0
      },
      "last7_score": 41.722,
      "prev7_score": 5.122,
      "trend": "up",
      "trend_arrow": "🔺",
      "change_pct": 714.5,
      "place": "Namišių seniūnija, Lithuania"
    }
  ]
}