{
  "generated_utc": "2026-05-07T19:50:35Z",
  "top": [
    {
      "lon": 14.25,
      "lat": 50.25,
      "type": "hotspot_cell",
      "score": 813.034,
      "count": 1349,
      "cell_deg": 0.5,
      "sources": {
        "GDELT": 167,
        "GDELT_DOC": 1177,
        "DIRECT_FEED": 5,
        "USGS": 0,
        "GDACS": 0
      },
      "last7_score": 800.875,
      "prev7_score": 12.159,
      "trend": "up",
      "trend_arrow": "🔺",
      "change_pct": 6486.8,
      "place": "SO ORP Kralupy nad Vltavou, Czechia"
    },
    {
      "lon": 26.25,
      "lat": 44.25,
      "type": "hotspot_cell",
      "score": 697.589,
      "count": 1180,
      "cell_deg": 0.5,
      "sources": {
        "GDELT": 152,
        "GDELT_DOC": 1020,
        "DIRECT_FEED": 8,
        "USGS": 0,
        "GDACS": 0
      },
      "last7_score": 687.2,
      "prev7_score": 10.39,
      "trend": "up",
      "trend_arrow": "🔺",
      "change_pct": 6514.1,
      "place": "Giurgiu, Romania"
    },
    {
      "lon": 25.25,
      "lat": 54.75,
      "type": "hotspot_cell",
      "score": 556.262,
      "count": 942,
      "cell_deg": 0.5,
      "sources": {
        "GDELT": 67,
        "GDELT_DOC": 875,
        "DIRECT_FEED": 0,
        "USGS": 0,
        "GDACS": 0
      },
      "last7_score": 550.623,
      "prev7_score": 5.639,
      "trend": "up",
      "trend_arrow": "🔺",
      "change_pct": 9663.9,
      "place": "Vilnius County, Lithuania"
    },
    {
      "lon": 20.25,
      "lat": 52.25,
      "type": "hotspot_cell",
      "score": 228.691,
      "count": 530,
      "cell_deg": 0.5,
      "sources": {
        "GDELT": 530,
        "GDELT_DOC": 0,
        "DIRECT_FEED": 0,
        "USGS": 0,
        "GDACS": 0
      },
      "last7_score": 197.559,
      "prev7_score": 31.132,
      "trend": "up",
      "trend_arrow": "🔺",
      "change_pct": 534.6,
      "place": "Sochaczew County, Poland"
    },
    {
      "lon": 19.25,
      "lat": 47.75,
      "type": "hotspot_cell",
      "score": 219.219,
      "count": 377,
      "cell_deg": 0.5,
      "sources": {
        "GDELT": 215,
        "GDELT_DOC": 0,
        "DIRECT_FEED": 162,
        "USGS": 0,
        "GDACS": 0
      },
      "last7_score": 203.916,
      "prev7_score": 15.302,
      "trend": "up",
      "trend_arrow": "🔺",
      "change_pct": 1232.6,
      "place": "Pest, Hungary"
    },
    {
      "lon": 25.25,
      "lat": 46.25,
      "type": "hotspot_cell",
      "score": 140.713,
      "count": 362,
      "cell_deg": 0.5,
      "sources": {
        "GDELT": 362,
        "GDELT_DOC": 0,
        "DIRECT_FEED": 0,
        "USGS": 0,
        "GDACS": 0
      },
      "last7_score": 114.102,
      "prev7_score": 26.612,
      "trend": "up",
      "trend_arrow": "🔺",
      "change_pct": 328.8,
      "place": "Harghita, Romania"
    },
    {
      "lon": 24.25,
      "lat": 56.75,
      "type": "hotspot_cell",
      "score": 113.768,
      "count": 160,
      "cell_deg": 0.5,
      "sources": {
        "GDELT": 37,
        "GDELT_DOC": 0,
        "DIRECT_FEED": 123,
        "USGS": 0,
        "GDACS": 0
      },
      "last7_score": 112.1,
      "prev7_score": 1.668,
      "trend": "up",
      "trend_arrow": "🔺",
      "change_pct": 6621.4,
      "place": "Ķekavas novads, Latvia"
    },
    {
      "lon": 20.25,
      "lat": 47.25,
      "type": "hotspot_cell",
      "score": 102.564,
      "count": 320,
      "cell_deg": 0.5,
      "sources": {
        "GDELT": 320,
        "GDELT_DOC": 0,
        "DIRECT_FEED": 0,
        "USGS": 0,
        "GDACS": 0
      },
      "last7_score": 77.269,
      "prev7_score": 25.294,
      "trend": "up",
      "trend_arrow": "🔺",
      "change_pct": 205.5,
      "place": "Jász-Nagykun-Szolnok, Hungary"
    },
    {
      "lon": 21.25,
      "lat": 52.25,
      "type": "hotspot_cell",
      "score": 58.82,
      "count": 159,
      "cell_deg": 0.5,
      "sources": {
        "GDELT": 159,
        "GDELT_DOC": 0,
        "DIRECT_FEED": 0,
        "USGS": 0,
        "GDACS": 0
      },
      "last7_score": 47.821,
      "prev7_score": 10.999,
      "trend": "up",
      "trend_arrow": "🔺",
      "change_pct": 334.8,
      "place": "Warsaw, Poland"
    },
    {
      "lon": 15.25,
      "lat": 49.75,
      "type": "hotspot_cell",
      "score": 57.628,
      "count": 192,
      "cell_deg": 0.5,
      "sources": {
        "GDELT": 192,
        "GDELT_DOC": 0,
        "DIRECT_FEED": 0,
        "USGS": 0,
        "GDACS": 0
      },
      "last7_score": 41.207,
      "prev7_score": 16.422,
      "trend": "up",
      "trend_arrow": "🔺",
      "change_pct": 150.9,
      "place": "Vysočina Region, Czechia"
    }
  ]
}