{
  "generated_utc": "2026-06-05T14:34:54Z",
  "top": [
    {
      "lon": 25.25,
      "lat": 54.75,
      "type": "hotspot_cell",
      "score": 733.528,
      "count": 1076,
      "cell_deg": 0.5,
      "sources": {
        "GDELT": 83,
        "GDELT_DOC": 990,
        "DIRECT_FEED": 3,
        "USGS": 0,
        "GDACS": 0
      },
      "last7_score": 727.898,
      "prev7_score": 5.63,
      "trend": "up",
      "trend_arrow": "🔺",
      "change_pct": 12829.3,
      "place": "Vilnius County, Lithuania"
    },
    {
      "lon": 26.25,
      "lat": 44.25,
      "type": "hotspot_cell",
      "score": 718.171,
      "count": 1109,
      "cell_deg": 0.5,
      "sources": {
        "GDELT": 243,
        "GDELT_DOC": 855,
        "DIRECT_FEED": 11,
        "USGS": 0,
        "GDACS": 0
      },
      "last7_score": 689.718,
      "prev7_score": 28.454,
      "trend": "up",
      "trend_arrow": "🔺",
      "change_pct": 2324.0,
      "place": "Giurgiu, Romania"
    },
    {
      "lon": 14.25,
      "lat": 50.25,
      "type": "hotspot_cell",
      "score": 609.544,
      "count": 1049,
      "cell_deg": 0.5,
      "sources": {
        "GDELT": 136,
        "GDELT_DOC": 908,
        "DIRECT_FEED": 5,
        "USGS": 0,
        "GDACS": 0
      },
      "last7_score": 600.297,
      "prev7_score": 9.246,
      "trend": "up",
      "trend_arrow": "🔺",
      "change_pct": 6392.5,
      "place": "SO ORP Kralupy nad Vltavou, Czechia"
    },
    {
      "lon": 19.25,
      "lat": 47.75,
      "type": "hotspot_cell",
      "score": 249.803,
      "count": 444,
      "cell_deg": 0.5,
      "sources": {
        "GDELT": 254,
        "GDELT_DOC": 0,
        "DIRECT_FEED": 190,
        "USGS": 0,
        "GDACS": 0
      },
      "last7_score": 231.59,
      "prev7_score": 18.213,
      "trend": "up",
      "trend_arrow": "🔺",
      "change_pct": 1171.6,
      "place": "Pest, Hungary"
    },
    {
      "lon": 20.25,
      "lat": 52.25,
      "type": "hotspot_cell",
      "score": 212.343,
      "count": 580,
      "cell_deg": 0.5,
      "sources": {
        "GDELT": 580,
        "GDELT_DOC": 0,
        "DIRECT_FEED": 0,
        "USGS": 0,
        "GDACS": 0
      },
      "last7_score": 168.898,
      "prev7_score": 43.445,
      "trend": "up",
      "trend_arrow": "🔺",
      "change_pct": 288.8,
      "place": "Sochaczew County, Poland"
    },
    {
      "lon": 25.25,
      "lat": 46.25,
      "type": "hotspot_cell",
      "score": 211.238,
      "count": 491,
      "cell_deg": 0.5,
      "sources": {
        "GDELT": 491,
        "GDELT_DOC": 0,
        "DIRECT_FEED": 0,
        "USGS": 0,
        "GDACS": 0
      },
      "last7_score": 163.89,
      "prev7_score": 47.348,
      "trend": "up",
      "trend_arrow": "🔺",
      "change_pct": 246.1,
      "place": "Harghita, Romania"
    },
    {
      "lon": 24.25,
      "lat": 56.75,
      "type": "hotspot_cell",
      "score": 127.709,
      "count": 191,
      "cell_deg": 0.5,
      "sources": {
        "GDELT": 43,
        "GDELT_DOC": 0,
        "DIRECT_FEED": 148,
        "USGS": 0,
        "GDACS": 0
      },
      "last7_score": 123.71,
      "prev7_score": 3.999,
      "trend": "up",
      "trend_arrow": "🔺",
      "change_pct": 2993.5,
      "place": "Ķekavas novads, Latvia"
    },
    {
      "lon": 20.25,
      "lat": 47.25,
      "type": "hotspot_cell",
      "score": 99.76,
      "count": 256,
      "cell_deg": 0.5,
      "sources": {
        "GDELT": 256,
        "GDELT_DOC": 0,
        "DIRECT_FEED": 0,
        "USGS": 0,
        "GDACS": 0
      },
      "last7_score": 80.387,
      "prev7_score": 19.373,
      "trend": "up",
      "trend_arrow": "🔺",
      "change_pct": 314.9,
      "place": "Jász-Nagykun-Szolnok, Hungary"
    },
    {
      "lon": 21.25,
      "lat": 52.25,
      "type": "hotspot_cell",
      "score": 87.621,
      "count": 225,
      "cell_deg": 0.5,
      "sources": {
        "GDELT": 225,
        "GDELT_DOC": 0,
        "DIRECT_FEED": 0,
        "USGS": 0,
        "GDACS": 0
      },
      "last7_score": 70.187,
      "prev7_score": 17.433,
      "trend": "up",
      "trend_arrow": "🔺",
      "change_pct": 302.6,
      "place": "Warsaw, Poland"
    },
    {
      "lon": 24.25,
      "lat": 56.25,
      "type": "hotspot_cell",
      "score": 57.935,
      "count": 137,
      "cell_deg": 0.5,
      "sources": {
        "GDELT": 137,
        "GDELT_DOC": 0,
        "DIRECT_FEED": 0,
        "USGS": 0,
        "GDACS": 0
      },
      "last7_score": 47.166,
      "prev7_score": 10.769,
      "trend": "up",
      "trend_arrow": "🔺",
      "change_pct": 338.0,
      "place": "Namišių seniūnija, Lithuania"
    }
  ]
}