{
  "generated_utc": "2026-06-30T09:05:08Z",
  "top": [
    {
      "lon": 26.25,
      "lat": 44.25,
      "type": "hotspot_cell",
      "score": 547.605,
      "count": 987,
      "cell_deg": 0.5,
      "sources": {
        "GDELT": 135,
        "GDELT_DOC": 845,
        "DIRECT_FEED": 7,
        "USGS": 0,
        "GDACS": 0
      },
      "last7_score": 538.827,
      "prev7_score": 8.777,
      "trend": "up",
      "trend_arrow": "🔺",
      "change_pct": 6038.8,
      "place": "Giurgiu, Romania"
    },
    {
      "lon": 14.25,
      "lat": 50.25,
      "type": "hotspot_cell",
      "score": 534.31,
      "count": 1069,
      "cell_deg": 0.5,
      "sources": {
        "GDELT": 125,
        "GDELT_DOC": 935,
        "DIRECT_FEED": 9,
        "USGS": 0,
        "GDACS": 0
      },
      "last7_score": 524.294,
      "prev7_score": 10.016,
      "trend": "up",
      "trend_arrow": "🔺",
      "change_pct": 5134.7,
      "place": "SO ORP Kralupy nad Vltavou, Czechia"
    },
    {
      "lon": 25.25,
      "lat": 54.75,
      "type": "hotspot_cell",
      "score": 373.818,
      "count": 642,
      "cell_deg": 0.5,
      "sources": {
        "GDELT": 59,
        "GDELT_DOC": 583,
        "DIRECT_FEED": 0,
        "USGS": 0,
        "GDACS": 0
      },
      "last7_score": 368.321,
      "prev7_score": 5.497,
      "trend": "up",
      "trend_arrow": "🔺",
      "change_pct": 6599.9,
      "place": "Vilnius County, Lithuania"
    },
    {
      "lon": 19.25,
      "lat": 47.75,
      "type": "hotspot_cell",
      "score": 173.71,
      "count": 342,
      "cell_deg": 0.5,
      "sources": {
        "GDELT": 185,
        "GDELT_DOC": 0,
        "DIRECT_FEED": 157,
        "USGS": 0,
        "GDACS": 0
      },
      "last7_score": 159.757,
      "prev7_score": 13.953,
      "trend": "up",
      "trend_arrow": "🔺",
      "change_pct": 1045.0,
      "place": "Pest, Hungary"
    },
    {
      "lon": 20.25,
      "lat": 52.25,
      "type": "hotspot_cell",
      "score": 171.411,
      "count": 501,
      "cell_deg": 0.5,
      "sources": {
        "GDELT": 501,
        "GDELT_DOC": 0,
        "DIRECT_FEED": 0,
        "USGS": 0,
        "GDACS": 0
      },
      "last7_score": 137.211,
      "prev7_score": 34.2,
      "trend": "up",
      "trend_arrow": "🔺",
      "change_pct": 301.2,
      "place": "Sochaczew County, Poland"
    },
    {
      "lon": 25.25,
      "lat": 46.25,
      "type": "hotspot_cell",
      "score": 121.51,
      "count": 354,
      "cell_deg": 0.5,
      "sources": {
        "GDELT": 354,
        "GDELT_DOC": 0,
        "DIRECT_FEED": 0,
        "USGS": 0,
        "GDACS": 0
      },
      "last7_score": 94.279,
      "prev7_score": 27.231,
      "trend": "up",
      "trend_arrow": "🔺",
      "change_pct": 246.2,
      "place": "Harghita, Romania"
    },
    {
      "lon": 24.25,
      "lat": 56.75,
      "type": "hotspot_cell",
      "score": 111.845,
      "count": 179,
      "cell_deg": 0.5,
      "sources": {
        "GDELT": 29,
        "GDELT_DOC": 0,
        "DIRECT_FEED": 150,
        "USGS": 0,
        "GDACS": 0
      },
      "last7_score": 108.905,
      "prev7_score": 2.94,
      "trend": "up",
      "trend_arrow": "🔺",
      "change_pct": 3604.2,
      "place": "Ķekavas novads, Latvia"
    },
    {
      "lon": 21.25,
      "lat": 52.25,
      "type": "hotspot_cell",
      "score": 109.146,
      "count": 355,
      "cell_deg": 0.5,
      "sources": {
        "GDELT": 355,
        "GDELT_DOC": 0,
        "DIRECT_FEED": 0,
        "USGS": 0,
        "GDACS": 0
      },
      "last7_score": 79.34,
      "prev7_score": 29.806,
      "trend": "up",
      "trend_arrow": "🔺",
      "change_pct": 166.2,
      "place": "Warsaw, Poland"
    },
    {
      "lon": 20.25,
      "lat": 47.25,
      "type": "hotspot_cell",
      "score": 60.841,
      "count": 200,
      "cell_deg": 0.5,
      "sources": {
        "GDELT": 199,
        "GDELT_DOC": 0,
        "DIRECT_FEED": 0,
        "USGS": 0,
        "GDACS": 1
      },
      "last7_score": 43.119,
      "prev7_score": 17.722,
      "trend": "up",
      "trend_arrow": "🔺",
      "change_pct": 143.3,
      "place": "Jász-Nagykun-Szolnok, Hungary"
    },
    {
      "lon": 15.25,
      "lat": 49.75,
      "type": "hotspot_cell",
      "score": 59.24,
      "count": 154,
      "cell_deg": 0.5,
      "sources": {
        "GDELT": 154,
        "GDELT_DOC": 0,
        "DIRECT_FEED": 0,
        "USGS": 0,
        "GDACS": 0
      },
      "last7_score": 48.547,
      "prev7_score": 10.693,
      "trend": "up",
      "trend_arrow": "🔺",
      "change_pct": 354.0,
      "place": "Vysočina Region, Czechia"
    }
  ]
}