{
  "generated_utc": "2026-05-15T19:44:47Z",
  "top": [
    {
      "lon": 14.25,
      "lat": 50.25,
      "type": "hotspot_cell",
      "score": 1109.605,
      "count": 1690,
      "cell_deg": 0.5,
      "sources": {
        "GDELT": 126,
        "GDELT_DOC": 1560,
        "DIRECT_FEED": 4,
        "USGS": 0,
        "GDACS": 0
      },
      "last7_score": 1100.623,
      "prev7_score": 8.982,
      "trend": "up",
      "trend_arrow": "🔺",
      "change_pct": 12154.0,
      "place": "SO ORP Kralupy nad Vltavou, Czechia"
    },
    {
      "lon": 26.25,
      "lat": 44.25,
      "type": "hotspot_cell",
      "score": 851.192,
      "count": 1400,
      "cell_deg": 0.5,
      "sources": {
        "GDELT": 230,
        "GDELT_DOC": 1164,
        "DIRECT_FEED": 6,
        "USGS": 0,
        "GDACS": 0
      },
      "last7_score": 838.618,
      "prev7_score": 12.574,
      "trend": "up",
      "trend_arrow": "🔺",
      "change_pct": 6569.4,
      "place": "Giurgiu, Romania"
    },
    {
      "lon": 25.25,
      "lat": 54.75,
      "type": "hotspot_cell",
      "score": 690.181,
      "count": 1087,
      "cell_deg": 0.5,
      "sources": {
        "GDELT": 74,
        "GDELT_DOC": 1013,
        "DIRECT_FEED": 0,
        "USGS": 0,
        "GDACS": 0
      },
      "last7_score": 684.033,
      "prev7_score": 6.148,
      "trend": "up",
      "trend_arrow": "🔺",
      "change_pct": 11026.4,
      "place": "Vilnius County, Lithuania"
    },
    {
      "lon": 19.25,
      "lat": 47.75,
      "type": "hotspot_cell",
      "score": 294.163,
      "count": 525,
      "cell_deg": 0.5,
      "sources": {
        "GDELT": 299,
        "GDELT_DOC": 0,
        "DIRECT_FEED": 226,
        "USGS": 0,
        "GDACS": 0
      },
      "last7_score": 276.356,
      "prev7_score": 17.808,
      "trend": "up",
      "trend_arrow": "🔺",
      "change_pct": 1451.9,
      "place": "Pest, Hungary"
    },
    {
      "lon": 20.25,
      "lat": 52.25,
      "type": "hotspot_cell",
      "score": 248.544,
      "count": 601,
      "cell_deg": 0.5,
      "sources": {
        "GDELT": 601,
        "GDELT_DOC": 0,
        "DIRECT_FEED": 0,
        "USGS": 0,
        "GDACS": 0
      },
      "last7_score": 211.113,
      "prev7_score": 37.431,
      "trend": "up",
      "trend_arrow": "🔺",
      "change_pct": 464.0,
      "place": "Sochaczew County, Poland"
    },
    {
      "lon": 24.25,
      "lat": 56.75,
      "type": "hotspot_cell",
      "score": 134.048,
      "count": 188,
      "cell_deg": 0.5,
      "sources": {
        "GDELT": 39,
        "GDELT_DOC": 0,
        "DIRECT_FEED": 149,
        "USGS": 0,
        "GDACS": 0
      },
      "last7_score": 131.312,
      "prev7_score": 2.736,
      "trend": "up",
      "trend_arrow": "🔺",
      "change_pct": 4700.0,
      "place": "Ķekavas novads, Latvia"
    },
    {
      "lon": 25.25,
      "lat": 46.25,
      "type": "hotspot_cell",
      "score": 123.837,
      "count": 319,
      "cell_deg": 0.5,
      "sources": {
        "GDELT": 319,
        "GDELT_DOC": 0,
        "DIRECT_FEED": 0,
        "USGS": 0,
        "GDACS": 0
      },
      "last7_score": 102.275,
      "prev7_score": 21.562,
      "trend": "up",
      "trend_arrow": "🔺",
      "change_pct": 374.3,
      "place": "Harghita, Romania"
    },
    {
      "lon": 20.25,
      "lat": 47.25,
      "type": "hotspot_cell",
      "score": 122.791,
      "count": 292,
      "cell_deg": 0.5,
      "sources": {
        "GDELT": 292,
        "GDELT_DOC": 0,
        "DIRECT_FEED": 0,
        "USGS": 0,
        "GDACS": 0
      },
      "last7_score": 105.064,
      "prev7_score": 17.727,
      "trend": "up",
      "trend_arrow": "🔺",
      "change_pct": 492.7,
      "place": "Jász-Nagykun-Szolnok, Hungary"
    },
    {
      "lon": 25.25,
      "lat": 57.25,
      "type": "hotspot_cell",
      "score": 105.223,
      "count": 164,
      "cell_deg": 0.5,
      "sources": {
        "GDELT": 164,
        "GDELT_DOC": 0,
        "DIRECT_FEED": 0,
        "USGS": 0,
        "GDACS": 0
      },
      "last7_score": 98.806,
      "prev7_score": 6.417,
      "trend": "up",
      "trend_arrow": "🔺",
      "change_pct": 1439.7,
      "place": "Cēsu novads, Latvia"
    },
    {
      "lon": 21.25,
      "lat": 52.25,
      "type": "hotspot_cell",
      "score": 93.506,
      "count": 201,
      "cell_deg": 0.5,
      "sources": {
        "GDELT": 201,
        "GDELT_DOC": 0,
        "DIRECT_FEED": 0,
        "USGS": 0,
        "GDACS": 0
      },
      "last7_score": 79.987,
      "prev7_score": 13.519,
      "trend": "up",
      "trend_arrow": "🔺",
      "change_pct": 491.6,
      "place": "Warsaw, Poland"
    }
  ]
}