{
  "generated_utc": "2026-05-28T20:14:26Z",
  "top": [
    {
      "lon": 14.25,
      "lat": 50.25,
      "type": "hotspot_cell",
      "score": 948.269,
      "count": 1575,
      "cell_deg": 0.5,
      "sources": {
        "GDELT": 149,
        "GDELT_DOC": 1408,
        "DIRECT_FEED": 18,
        "USGS": 0,
        "GDACS": 0
      },
      "last7_score": 938.914,
      "prev7_score": 9.356,
      "trend": "up",
      "trend_arrow": "🔺",
      "change_pct": 9935.8,
      "place": "SO ORP Kralupy nad Vltavou, Czechia"
    },
    {
      "lon": 25.25,
      "lat": 54.75,
      "type": "hotspot_cell",
      "score": 826.267,
      "count": 1250,
      "cell_deg": 0.5,
      "sources": {
        "GDELT": 106,
        "GDELT_DOC": 1142,
        "DIRECT_FEED": 2,
        "USGS": 0,
        "GDACS": 0
      },
      "last7_score": 814.96,
      "prev7_score": 11.308,
      "trend": "up",
      "trend_arrow": "🔺",
      "change_pct": 7107.2,
      "place": "Vilnius County, Lithuania"
    },
    {
      "lon": 26.25,
      "lat": 44.25,
      "type": "hotspot_cell",
      "score": 767.509,
      "count": 1232,
      "cell_deg": 0.5,
      "sources": {
        "GDELT": 122,
        "GDELT_DOC": 1109,
        "DIRECT_FEED": 1,
        "USGS": 0,
        "GDACS": 0
      },
      "last7_score": 759.398,
      "prev7_score": 8.11,
      "trend": "up",
      "trend_arrow": "🔺",
      "change_pct": 9263.5,
      "place": "Giurgiu, Romania"
    },
    {
      "lon": 20.25,
      "lat": 52.25,
      "type": "hotspot_cell",
      "score": 286.417,
      "count": 827,
      "cell_deg": 0.5,
      "sources": {
        "GDELT": 827,
        "GDELT_DOC": 0,
        "DIRECT_FEED": 0,
        "USGS": 0,
        "GDACS": 0
      },
      "last7_score": 231.707,
      "prev7_score": 54.71,
      "trend": "up",
      "trend_arrow": "🔺",
      "change_pct": 323.5,
      "place": "Sochaczew County, Poland"
    },
    {
      "lon": 19.25,
      "lat": 47.75,
      "type": "hotspot_cell",
      "score": 219.55,
      "count": 402,
      "cell_deg": 0.5,
      "sources": {
        "GDELT": 198,
        "GDELT_DOC": 0,
        "DIRECT_FEED": 204,
        "USGS": 0,
        "GDACS": 0
      },
      "last7_score": 204.85,
      "prev7_score": 14.701,
      "trend": "up",
      "trend_arrow": "🔺",
      "change_pct": 1293.5,
      "place": "Pest, Hungary"
    },
    {
      "lon": 25.25,
      "lat": 46.25,
      "type": "hotspot_cell",
      "score": 123.511,
      "count": 329,
      "cell_deg": 0.5,
      "sources": {
        "GDELT": 329,
        "GDELT_DOC": 0,
        "DIRECT_FEED": 0,
        "USGS": 0,
        "GDACS": 0
      },
      "last7_score": 100.606,
      "prev7_score": 22.905,
      "trend": "up",
      "trend_arrow": "🔺",
      "change_pct": 339.2,
      "place": "Harghita, Romania"
    },
    {
      "lon": 24.25,
      "lat": 56.75,
      "type": "hotspot_cell",
      "score": 116.907,
      "count": 176,
      "cell_deg": 0.5,
      "sources": {
        "GDELT": 56,
        "GDELT_DOC": 0,
        "DIRECT_FEED": 120,
        "USGS": 0,
        "GDACS": 0
      },
      "last7_score": 112.423,
      "prev7_score": 4.484,
      "trend": "up",
      "trend_arrow": "🔺",
      "change_pct": 2407.2,
      "place": "Ķekavas novads, Latvia"
    },
    {
      "lon": 20.25,
      "lat": 47.25,
      "type": "hotspot_cell",
      "score": 102.279,
      "count": 253,
      "cell_deg": 0.5,
      "sources": {
        "GDELT": 253,
        "GDELT_DOC": 0,
        "DIRECT_FEED": 0,
        "USGS": 0,
        "GDACS": 0
      },
      "last7_score": 85.765,
      "prev7_score": 16.513,
      "trend": "up",
      "trend_arrow": "🔺",
      "change_pct": 419.4,
      "place": "Jász-Nagykun-Szolnok, Hungary"
    },
    {
      "lon": 21.25,
      "lat": 52.25,
      "type": "hotspot_cell",
      "score": 87.256,
      "count": 267,
      "cell_deg": 0.5,
      "sources": {
        "GDELT": 267,
        "GDELT_DOC": 0,
        "DIRECT_FEED": 0,
        "USGS": 0,
        "GDACS": 0
      },
      "last7_score": 67.67,
      "prev7_score": 19.586,
      "trend": "up",
      "trend_arrow": "🔺",
      "change_pct": 245.5,
      "place": "Warsaw, Poland"
    },
    {
      "lon": 15.25,
      "lat": 49.75,
      "type": "hotspot_cell",
      "score": 69.055,
      "count": 166,
      "cell_deg": 0.5,
      "sources": {
        "GDELT": 166,
        "GDELT_DOC": 0,
        "DIRECT_FEED": 0,
        "USGS": 0,
        "GDACS": 0
      },
      "last7_score": 57.361,
      "prev7_score": 11.694,
      "trend": "up",
      "trend_arrow": "🔺",
      "change_pct": 390.5,
      "place": "Vysočina Region, Czechia"
    }
  ]
}