{
  "generated_utc": "2026-04-06T13:18:12Z",
  "top": [
    {
      "lon": 26.25,
      "lat": 44.25,
      "type": "hotspot_cell",
      "score": 746.551,
      "count": 1339,
      "cell_deg": 0.5,
      "sources": {
        "GDELT": 162,
        "GDELT_DOC": 1171,
        "DIRECT_FEED": 6,
        "USGS": 0,
        "GDACS": 0
      },
      "last7_score": 738.588,
      "prev7_score": 7.963,
      "trend": "up",
      "trend_arrow": "🔺",
      "change_pct": 9175.0,
      "place": "Giurgiu, Romania"
    },
    {
      "lon": 14.25,
      "lat": 50.25,
      "type": "hotspot_cell",
      "score": 649.496,
      "count": 1298,
      "cell_deg": 0.5,
      "sources": {
        "GDELT": 109,
        "GDELT_DOC": 1187,
        "DIRECT_FEED": 2,
        "USGS": 0,
        "GDACS": 0
      },
      "last7_score": 641.583,
      "prev7_score": 7.913,
      "trend": "up",
      "trend_arrow": "🔺",
      "change_pct": 8008.3,
      "place": "SO ORP Kralupy nad Vltavou, Czechia"
    },
    {
      "lon": 25.25,
      "lat": 54.75,
      "type": "hotspot_cell",
      "score": 426.264,
      "count": 883,
      "cell_deg": 0.5,
      "sources": {
        "GDELT": 82,
        "GDELT_DOC": 801,
        "DIRECT_FEED": 0,
        "USGS": 0,
        "GDACS": 0
      },
      "last7_score": 420.192,
      "prev7_score": 6.072,
      "trend": "up",
      "trend_arrow": "🔺",
      "change_pct": 6819.9,
      "place": "Vilnius County, Lithuania"
    },
    {
      "lon": 19.25,
      "lat": 47.75,
      "type": "hotspot_cell",
      "score": 225.752,
      "count": 480,
      "cell_deg": 0.5,
      "sources": {
        "GDELT": 271,
        "GDELT_DOC": 0,
        "DIRECT_FEED": 209,
        "USGS": 0,
        "GDACS": 0
      },
      "last7_score": 209.604,
      "prev7_score": 16.148,
      "trend": "up",
      "trend_arrow": "🔺",
      "change_pct": 1198.0,
      "place": "Pest, Hungary"
    },
    {
      "lon": 20.25,
      "lat": 52.25,
      "type": "hotspot_cell",
      "score": 130.884,
      "count": 450,
      "cell_deg": 0.5,
      "sources": {
        "GDELT": 450,
        "GDELT_DOC": 0,
        "DIRECT_FEED": 0,
        "USGS": 0,
        "GDACS": 0
      },
      "last7_score": 98.03,
      "prev7_score": 32.854,
      "trend": "up",
      "trend_arrow": "🔺",
      "change_pct": 198.4,
      "place": "Sochaczew County, Poland"
    },
    {
      "lon": 20.25,
      "lat": 47.25,
      "type": "hotspot_cell",
      "score": 118.484,
      "count": 313,
      "cell_deg": 0.5,
      "sources": {
        "GDELT": 313,
        "GDELT_DOC": 0,
        "DIRECT_FEED": 0,
        "USGS": 0,
        "GDACS": 0
      },
      "last7_score": 100.628,
      "prev7_score": 17.856,
      "trend": "up",
      "trend_arrow": "🔺",
      "change_pct": 463.5,
      "place": "Jász-Nagykun-Szolnok, Hungary"
    },
    {
      "lon": 24.25,
      "lat": 56.75,
      "type": "hotspot_cell",
      "score": 93.041,
      "count": 171,
      "cell_deg": 0.5,
      "sources": {
        "GDELT": 39,
        "GDELT_DOC": 0,
        "DIRECT_FEED": 132,
        "USGS": 0,
        "GDACS": 0
      },
      "last7_score": 89.236,
      "prev7_score": 3.805,
      "trend": "up",
      "trend_arrow": "🔺",
      "change_pct": 2245.3,
      "place": "Ķekavas novads, Latvia"
    },
    {
      "lon": 25.25,
      "lat": 46.25,
      "type": "hotspot_cell",
      "score": 85.662,
      "count": 289,
      "cell_deg": 0.5,
      "sources": {
        "GDELT": 289,
        "GDELT_DOC": 0,
        "DIRECT_FEED": 0,
        "USGS": 0,
        "GDACS": 0
      },
      "last7_score": 67.596,
      "prev7_score": 18.066,
      "trend": "up",
      "trend_arrow": "🔺",
      "change_pct": 274.2,
      "place": "Harghita, Romania"
    },
    {
      "lon": 27.75,
      "lat": 47.25,
      "type": "hotspot_cell",
      "score": 45.13,
      "count": 82,
      "cell_deg": 0.5,
      "sources": {
        "GDELT": 0,
        "GDELT_DOC": 82,
        "DIRECT_FEED": 0,
        "USGS": 0,
        "GDACS": 0
      },
      "last7_score": 45.13,
      "prev7_score": 0.0,
      "trend": "new",
      "trend_arrow": "🆕",
      "change_pct": null,
      "place": "Iași, Romania"
    },
    {
      "lon": 15.25,
      "lat": 49.75,
      "type": "hotspot_cell",
      "score": 38.043,
      "count": 125,
      "cell_deg": 0.5,
      "sources": {
        "GDELT": 125,
        "GDELT_DOC": 0,
        "DIRECT_FEED": 0,
        "USGS": 0,
        "GDACS": 0
      },
      "last7_score": 29.29,
      "prev7_score": 8.753,
      "trend": "up",
      "trend_arrow": "🔺",
      "change_pct": 234.6,
      "place": "Vysočina Region, Czechia"
    }
  ]
}