{
  "generated_utc": "2026-04-08T19:23:55Z",
  "top": [
    {
      "lon": 26.25,
      "lat": 44.25,
      "type": "hotspot_cell",
      "score": 847.228,
      "count": 1335,
      "cell_deg": 0.5,
      "sources": {
        "GDELT": 162,
        "GDELT_DOC": 1167,
        "DIRECT_FEED": 6,
        "USGS": 0,
        "GDACS": 0
      },
      "last7_score": 835.409,
      "prev7_score": 11.819,
      "trend": "up",
      "trend_arrow": "🔺",
      "change_pct": 6968.4,
      "place": "Giurgiu, Romania"
    },
    {
      "lon": 14.25,
      "lat": 50.25,
      "type": "hotspot_cell",
      "score": 671.807,
      "count": 1090,
      "cell_deg": 0.5,
      "sources": {
        "GDELT": 106,
        "GDELT_DOC": 983,
        "DIRECT_FEED": 1,
        "USGS": 0,
        "GDACS": 0
      },
      "last7_score": 665.09,
      "prev7_score": 6.717,
      "trend": "up",
      "trend_arrow": "🔺",
      "change_pct": 9801.2,
      "place": "SO ORP Kralupy nad Vltavou, Czechia"
    },
    {
      "lon": 25.25,
      "lat": 54.75,
      "type": "hotspot_cell",
      "score": 504.179,
      "count": 802,
      "cell_deg": 0.5,
      "sources": {
        "GDELT": 81,
        "GDELT_DOC": 721,
        "DIRECT_FEED": 0,
        "USGS": 0,
        "GDACS": 0
      },
      "last7_score": 498.461,
      "prev7_score": 5.718,
      "trend": "up",
      "trend_arrow": "🔺",
      "change_pct": 8617.4,
      "place": "Vilnius County, Lithuania"
    },
    {
      "lon": 19.25,
      "lat": 47.75,
      "type": "hotspot_cell",
      "score": 453.661,
      "count": 672,
      "cell_deg": 0.5,
      "sources": {
        "GDELT": 447,
        "GDELT_DOC": 0,
        "DIRECT_FEED": 225,
        "USGS": 0,
        "GDACS": 0
      },
      "last7_score": 437.322,
      "prev7_score": 16.34,
      "trend": "up",
      "trend_arrow": "🔺",
      "change_pct": 2576.4,
      "place": "Pest, Hungary"
    },
    {
      "lon": 20.25,
      "lat": 47.25,
      "type": "hotspot_cell",
      "score": 171.592,
      "count": 359,
      "cell_deg": 0.5,
      "sources": {
        "GDELT": 359,
        "GDELT_DOC": 0,
        "DIRECT_FEED": 0,
        "USGS": 0,
        "GDACS": 0
      },
      "last7_score": 150.088,
      "prev7_score": 21.504,
      "trend": "up",
      "trend_arrow": "🔺",
      "change_pct": 598.0,
      "place": "Jász-Nagykun-Szolnok, Hungary"
    },
    {
      "lon": 20.25,
      "lat": 52.25,
      "type": "hotspot_cell",
      "score": 136.275,
      "count": 444,
      "cell_deg": 0.5,
      "sources": {
        "GDELT": 444,
        "GDELT_DOC": 0,
        "DIRECT_FEED": 0,
        "USGS": 0,
        "GDACS": 0
      },
      "last7_score": 101.535,
      "prev7_score": 34.74,
      "trend": "up",
      "trend_arrow": "🔺",
      "change_pct": 192.3,
      "place": "Sochaczew County, Poland"
    },
    {
      "lon": 25.25,
      "lat": 46.25,
      "type": "hotspot_cell",
      "score": 105.479,
      "count": 275,
      "cell_deg": 0.5,
      "sources": {
        "GDELT": 275,
        "GDELT_DOC": 0,
        "DIRECT_FEED": 0,
        "USGS": 0,
        "GDACS": 0
      },
      "last7_score": 86.989,
      "prev7_score": 18.49,
      "trend": "up",
      "trend_arrow": "🔺",
      "change_pct": 370.5,
      "place": "Harghita, Romania"
    },
    {
      "lon": 24.25,
      "lat": 56.75,
      "type": "hotspot_cell",
      "score": 104.989,
      "count": 157,
      "cell_deg": 0.5,
      "sources": {
        "GDELT": 30,
        "GDELT_DOC": 0,
        "DIRECT_FEED": 127,
        "USGS": 0,
        "GDACS": 0
      },
      "last7_score": 102.125,
      "prev7_score": 2.863,
      "trend": "up",
      "trend_arrow": "🔺",
      "change_pct": 3466.6,
      "place": "Ķekavas novads, Latvia"
    },
    {
      "lon": 27.75,
      "lat": 47.25,
      "type": "hotspot_cell",
      "score": 45.667,
      "count": 69,
      "cell_deg": 0.5,
      "sources": {
        "GDELT": 0,
        "GDELT_DOC": 69,
        "DIRECT_FEED": 0,
        "USGS": 0,
        "GDACS": 0
      },
      "last7_score": 45.667,
      "prev7_score": 0.0,
      "trend": "new",
      "trend_arrow": "🆕",
      "change_pct": null,
      "place": "Iași, Romania"
    },
    {
      "lon": 21.25,
      "lat": 52.25,
      "type": "hotspot_cell",
      "score": 44.584,
      "count": 124,
      "cell_deg": 0.5,
      "sources": {
        "GDELT": 124,
        "GDELT_DOC": 0,
        "DIRECT_FEED": 0,
        "USGS": 0,
        "GDACS": 0
      },
      "last7_score": 34.55,
      "prev7_score": 10.035,
      "trend": "up",
      "trend_arrow": "🔺",
      "change_pct": 244.3,
      "place": "Warsaw, Poland"
    }
  ]
}