{
  "generated_utc": "2026-07-07T09:34:41Z",
  "top": [
    {
      "lon": 26.25,
      "lat": 44.25,
      "type": "hotspot_cell",
      "score": 375.36,
      "count": 538,
      "cell_deg": 0.5,
      "sources": {
        "GDELT": 130,
        "GDELT_DOC": 402,
        "DIRECT_FEED": 6,
        "USGS": 0,
        "GDACS": 0
      },
      "last7_score": 364.664,
      "prev7_score": 10.696,
      "trend": "up",
      "trend_arrow": "🔺",
      "change_pct": 3309.4,
      "place": "Giurgiu, Romania"
    },
    {
      "lon": 14.25,
      "lat": 50.25,
      "type": "hotspot_cell",
      "score": 292.019,
      "count": 390,
      "cell_deg": 0.5,
      "sources": {
        "GDELT": 113,
        "GDELT_DOC": 276,
        "DIRECT_FEED": 1,
        "USGS": 0,
        "GDACS": 0
      },
      "last7_score": 282.286,
      "prev7_score": 9.733,
      "trend": "up",
      "trend_arrow": "🔺",
      "change_pct": 2800.3,
      "place": "SO ORP Kralupy nad Vltavou, Czechia"
    },
    {
      "lon": 20.25,
      "lat": 52.25,
      "type": "hotspot_cell",
      "score": 179.642,
      "count": 530,
      "cell_deg": 0.5,
      "sources": {
        "GDELT": 530,
        "GDELT_DOC": 0,
        "DIRECT_FEED": 0,
        "USGS": 0,
        "GDACS": 0
      },
      "last7_score": 141.412,
      "prev7_score": 38.23,
      "trend": "up",
      "trend_arrow": "🔺",
      "change_pct": 269.9,
      "place": "Sochaczew County, Poland"
    },
    {
      "lon": 25.25,
      "lat": 54.75,
      "type": "hotspot_cell",
      "score": 151.015,
      "count": 270,
      "cell_deg": 0.5,
      "sources": {
        "GDELT": 60,
        "GDELT_DOC": 209,
        "DIRECT_FEED": 1,
        "USGS": 0,
        "GDACS": 0
      },
      "last7_score": 145.762,
      "prev7_score": 5.254,
      "trend": "up",
      "trend_arrow": "🔺",
      "change_pct": 2674.4,
      "place": "Vilnius County, Lithuania"
    },
    {
      "lon": 19.25,
      "lat": 47.75,
      "type": "hotspot_cell",
      "score": 140.74,
      "count": 321,
      "cell_deg": 0.5,
      "sources": {
        "GDELT": 156,
        "GDELT_DOC": 0,
        "DIRECT_FEED": 165,
        "USGS": 0,
        "GDACS": 0
      },
      "last7_score": 128.106,
      "prev7_score": 12.635,
      "trend": "up",
      "trend_arrow": "🔺",
      "change_pct": 913.9,
      "place": "Pest, Hungary"
    },
    {
      "lon": 25.25,
      "lat": 46.25,
      "type": "hotspot_cell",
      "score": 127.574,
      "count": 336,
      "cell_deg": 0.5,
      "sources": {
        "GDELT": 336,
        "GDELT_DOC": 0,
        "DIRECT_FEED": 0,
        "USGS": 0,
        "GDACS": 0
      },
      "last7_score": 103.843,
      "prev7_score": 23.731,
      "trend": "up",
      "trend_arrow": "🔺",
      "change_pct": 337.6,
      "place": "Harghita, Romania"
    },
    {
      "lon": 24.25,
      "lat": 56.75,
      "type": "hotspot_cell",
      "score": 100.864,
      "count": 157,
      "cell_deg": 0.5,
      "sources": {
        "GDELT": 22,
        "GDELT_DOC": 0,
        "DIRECT_FEED": 135,
        "USGS": 0,
        "GDACS": 0
      },
      "last7_score": 99.34,
      "prev7_score": 1.524,
      "trend": "up",
      "trend_arrow": "🔺",
      "change_pct": 6418.3,
      "place": "Ķekavas novads, Latvia"
    },
    {
      "lon": 21.25,
      "lat": 52.25,
      "type": "hotspot_cell",
      "score": 93.822,
      "count": 279,
      "cell_deg": 0.5,
      "sources": {
        "GDELT": 279,
        "GDELT_DOC": 0,
        "DIRECT_FEED": 0,
        "USGS": 0,
        "GDACS": 0
      },
      "last7_score": 74.96,
      "prev7_score": 18.862,
      "trend": "up",
      "trend_arrow": "🔺",
      "change_pct": 297.4,
      "place": "Warsaw, Poland"
    },
    {
      "lon": 15.25,
      "lat": 49.75,
      "type": "hotspot_cell",
      "score": 57.836,
      "count": 165,
      "cell_deg": 0.5,
      "sources": {
        "GDELT": 165,
        "GDELT_DOC": 0,
        "DIRECT_FEED": 0,
        "USGS": 0,
        "GDACS": 0
      },
      "last7_score": 44.299,
      "prev7_score": 13.537,
      "trend": "up",
      "trend_arrow": "🔺",
      "change_pct": 227.3,
      "place": "Vysočina Region, Czechia"
    },
    {
      "lon": 20.25,
      "lat": 47.25,
      "type": "hotspot_cell",
      "score": 55.942,
      "count": 153,
      "cell_deg": 0.5,
      "sources": {
        "GDELT": 153,
        "GDELT_DOC": 0,
        "DIRECT_FEED": 0,
        "USGS": 0,
        "GDACS": 0
      },
      "last7_score": 45.382,
      "prev7_score": 10.561,
      "trend": "up",
      "trend_arrow": "🔺",
      "change_pct": 329.7,
      "place": "Jász-Nagykun-Szolnok, Hungary"
    }
  ]
}