{
  "generated_utc": "2026-06-26T08:57:47Z",
  "top": [
    {
      "lon": 14.25,
      "lat": 50.25,
      "type": "hotspot_cell",
      "score": 715.993,
      "count": 1110,
      "cell_deg": 0.5,
      "sources": {
        "GDELT": 124,
        "GDELT_DOC": 973,
        "DIRECT_FEED": 13,
        "USGS": 0,
        "GDACS": 0
      },
      "last7_score": 706.867,
      "prev7_score": 9.125,
      "trend": "up",
      "trend_arrow": "🔺",
      "change_pct": 7646.1,
      "place": "SO ORP Kralupy nad Vltavou, Czechia"
    },
    {
      "lon": 26.25,
      "lat": 44.25,
      "type": "hotspot_cell",
      "score": 694.467,
      "count": 1138,
      "cell_deg": 0.5,
      "sources": {
        "GDELT": 139,
        "GDELT_DOC": 989,
        "DIRECT_FEED": 10,
        "USGS": 0,
        "GDACS": 0
      },
      "last7_score": 683.808,
      "prev7_score": 10.659,
      "trend": "up",
      "trend_arrow": "🔺",
      "change_pct": 6315.1,
      "place": "Giurgiu, Romania"
    },
    {
      "lon": 25.25,
      "lat": 54.75,
      "type": "hotspot_cell",
      "score": 378.761,
      "count": 601,
      "cell_deg": 0.5,
      "sources": {
        "GDELT": 55,
        "GDELT_DOC": 546,
        "DIRECT_FEED": 0,
        "USGS": 0,
        "GDACS": 0
      },
      "last7_score": 374.731,
      "prev7_score": 4.03,
      "trend": "up",
      "trend_arrow": "🔺",
      "change_pct": 9199.4,
      "place": "Vilnius County, Lithuania"
    },
    {
      "lon": 20.25,
      "lat": 52.25,
      "type": "hotspot_cell",
      "score": 211.228,
      "count": 491,
      "cell_deg": 0.5,
      "sources": {
        "GDELT": 491,
        "GDELT_DOC": 0,
        "DIRECT_FEED": 0,
        "USGS": 0,
        "GDACS": 0
      },
      "last7_score": 174.715,
      "prev7_score": 36.513,
      "trend": "up",
      "trend_arrow": "🔺",
      "change_pct": 378.5,
      "place": "Sochaczew County, Poland"
    },
    {
      "lon": 19.25,
      "lat": 47.75,
      "type": "hotspot_cell",
      "score": 194.191,
      "count": 347,
      "cell_deg": 0.5,
      "sources": {
        "GDELT": 186,
        "GDELT_DOC": 0,
        "DIRECT_FEED": 161,
        "USGS": 0,
        "GDACS": 0
      },
      "last7_score": 180.954,
      "prev7_score": 13.237,
      "trend": "up",
      "trend_arrow": "🔺",
      "change_pct": 1267.0,
      "place": "Pest, Hungary"
    },
    {
      "lon": 21.25,
      "lat": 52.25,
      "type": "hotspot_cell",
      "score": 148.511,
      "count": 335,
      "cell_deg": 0.5,
      "sources": {
        "GDELT": 335,
        "GDELT_DOC": 0,
        "DIRECT_FEED": 0,
        "USGS": 0,
        "GDACS": 0
      },
      "last7_score": 126.937,
      "prev7_score": 21.574,
      "trend": "up",
      "trend_arrow": "🔺",
      "change_pct": 488.4,
      "place": "Warsaw, Poland"
    },
    {
      "lon": 25.25,
      "lat": 46.25,
      "type": "hotspot_cell",
      "score": 141.62,
      "count": 382,
      "cell_deg": 0.5,
      "sources": {
        "GDELT": 382,
        "GDELT_DOC": 0,
        "DIRECT_FEED": 0,
        "USGS": 0,
        "GDACS": 0
      },
      "last7_score": 107.756,
      "prev7_score": 33.863,
      "trend": "up",
      "trend_arrow": "🔺",
      "change_pct": 218.2,
      "place": "Harghita, Romania"
    },
    {
      "lon": 24.25,
      "lat": 56.75,
      "type": "hotspot_cell",
      "score": 123.813,
      "count": 174,
      "cell_deg": 0.5,
      "sources": {
        "GDELT": 29,
        "GDELT_DOC": 0,
        "DIRECT_FEED": 145,
        "USGS": 0,
        "GDACS": 0
      },
      "last7_score": 121.2,
      "prev7_score": 2.613,
      "trend": "up",
      "trend_arrow": "🔺",
      "change_pct": 4538.3,
      "place": "Ķekavas novads, Latvia"
    },
    {
      "lon": 20.25,
      "lat": 47.25,
      "type": "hotspot_cell",
      "score": 87.173,
      "count": 231,
      "cell_deg": 0.5,
      "sources": {
        "GDELT": 230,
        "GDELT_DOC": 0,
        "DIRECT_FEED": 0,
        "USGS": 0,
        "GDACS": 1
      },
      "last7_score": 68.8,
      "prev7_score": 18.373,
      "trend": "up",
      "trend_arrow": "🔺",
      "change_pct": 274.5,
      "place": "Jász-Nagykun-Szolnok, Hungary"
    },
    {
      "lon": 27.75,
      "lat": 47.25,
      "type": "hotspot_cell",
      "score": 55.735,
      "count": 83,
      "cell_deg": 0.5,
      "sources": {
        "GDELT": 0,
        "GDELT_DOC": 83,
        "DIRECT_FEED": 0,
        "USGS": 0,
        "GDACS": 0
      },
      "last7_score": 55.735,
      "prev7_score": 0.0,
      "trend": "new",
      "trend_arrow": "🆕",
      "change_pct": null,
      "place": "Iași, Romania"
    }
  ]
}