{
  "generated_utc": "2026-04-28T19:50:43Z",
  "top": [
    {
      "lon": 14.25,
      "lat": 50.25,
      "type": "hotspot_cell",
      "score": 1010.194,
      "count": 1791,
      "cell_deg": 0.5,
      "sources": {
        "GDELT": 207,
        "GDELT_DOC": 1583,
        "DIRECT_FEED": 1,
        "USGS": 0,
        "GDACS": 0
      },
      "last7_score": 997.604,
      "prev7_score": 12.591,
      "trend": "up",
      "trend_arrow": "🔺",
      "change_pct": 7823.3,
      "place": "SO ORP Kralupy nad Vltavou, Czechia"
    },
    {
      "lon": 26.25,
      "lat": 44.25,
      "type": "hotspot_cell",
      "score": 985.509,
      "count": 1636,
      "cell_deg": 0.5,
      "sources": {
        "GDELT": 161,
        "GDELT_DOC": 1467,
        "DIRECT_FEED": 8,
        "USGS": 0,
        "GDACS": 0
      },
      "last7_score": 974.494,
      "prev7_score": 11.015,
      "trend": "up",
      "trend_arrow": "🔺",
      "change_pct": 8747.2,
      "place": "Giurgiu, Romania"
    },
    {
      "lon": 25.25,
      "lat": 54.75,
      "type": "hotspot_cell",
      "score": 684.939,
      "count": 1151,
      "cell_deg": 0.5,
      "sources": {
        "GDELT": 72,
        "GDELT_DOC": 1079,
        "DIRECT_FEED": 0,
        "USGS": 0,
        "GDACS": 0
      },
      "last7_score": 680.863,
      "prev7_score": 4.076,
      "trend": "up",
      "trend_arrow": "🔺",
      "change_pct": 16603.2,
      "place": "Vilnius County, Lithuania"
    },
    {
      "lon": 19.25,
      "lat": 47.75,
      "type": "hotspot_cell",
      "score": 272.376,
      "count": 697,
      "cell_deg": 0.5,
      "sources": {
        "GDELT": 467,
        "GDELT_DOC": 0,
        "DIRECT_FEED": 230,
        "USGS": 0,
        "GDACS": 0
      },
      "last7_score": 234.397,
      "prev7_score": 37.979,
      "trend": "up",
      "trend_arrow": "🔺",
      "change_pct": 517.2,
      "place": "Pest, Hungary"
    },
    {
      "lon": 20.25,
      "lat": 47.25,
      "type": "hotspot_cell",
      "score": 189.131,
      "count": 633,
      "cell_deg": 0.5,
      "sources": {
        "GDELT": 633,
        "GDELT_DOC": 0,
        "DIRECT_FEED": 0,
        "USGS": 0,
        "GDACS": 0
      },
      "last7_score": 144.888,
      "prev7_score": 44.243,
      "trend": "up",
      "trend_arrow": "🔺",
      "change_pct": 227.5,
      "place": "Jász-Nagykun-Szolnok, Hungary"
    },
    {
      "lon": 20.25,
      "lat": 52.25,
      "type": "hotspot_cell",
      "score": 161.95,
      "count": 460,
      "cell_deg": 0.5,
      "sources": {
        "GDELT": 460,
        "GDELT_DOC": 0,
        "DIRECT_FEED": 0,
        "USGS": 0,
        "GDACS": 0
      },
      "last7_score": 134.029,
      "prev7_score": 27.921,
      "trend": "up",
      "trend_arrow": "🔺",
      "change_pct": 380.0,
      "place": "Sochaczew County, Poland"
    },
    {
      "lon": 24.25,
      "lat": 56.75,
      "type": "hotspot_cell",
      "score": 117.834,
      "count": 173,
      "cell_deg": 0.5,
      "sources": {
        "GDELT": 32,
        "GDELT_DOC": 0,
        "DIRECT_FEED": 141,
        "USGS": 0,
        "GDACS": 0
      },
      "last7_score": 116.147,
      "prev7_score": 1.687,
      "trend": "up",
      "trend_arrow": "🔺",
      "change_pct": 6785.4,
      "place": "Ķekavas novads, Latvia"
    },
    {
      "lon": 25.25,
      "lat": 46.25,
      "type": "hotspot_cell",
      "score": 114.819,
      "count": 293,
      "cell_deg": 0.5,
      "sources": {
        "GDELT": 293,
        "GDELT_DOC": 0,
        "DIRECT_FEED": 0,
        "USGS": 0,
        "GDACS": 0
      },
      "last7_score": 98.824,
      "prev7_score": 15.995,
      "trend": "up",
      "trend_arrow": "🔺",
      "change_pct": 517.8,
      "place": "Harghita, Romania"
    },
    {
      "lon": 26.75,
      "lat": 47.75,
      "type": "hotspot_cell",
      "score": 100.961,
      "count": 158,
      "cell_deg": 0.5,
      "sources": {
        "GDELT": 2,
        "GDELT_DOC": 153,
        "DIRECT_FEED": 3,
        "USGS": 0,
        "GDACS": 0
      },
      "last7_score": 100.699,
      "prev7_score": 0.262,
      "trend": "up",
      "trend_arrow": "🔺",
      "change_pct": 38312.0,
      "place": "Botoșani, Romania"
    },
    {
      "lon": 21.25,
      "lat": 52.25,
      "type": "hotspot_cell",
      "score": 74.588,
      "count": 193,
      "cell_deg": 0.5,
      "sources": {
        "GDELT": 193,
        "GDELT_DOC": 0,
        "DIRECT_FEED": 0,
        "USGS": 0,
        "GDACS": 0
      },
      "last7_score": 64.034,
      "prev7_score": 10.554,
      "trend": "up",
      "trend_arrow": "🔺",
      "change_pct": 506.7,
      "place": "Warsaw, Poland"
    }
  ]
}