{
  "generated_utc": "2026-04-08T13:24:49Z",
  "top": [
    {
      "lon": 26.25,
      "lat": 44.25,
      "type": "hotspot_cell",
      "score": 866.104,
      "count": 1353,
      "cell_deg": 0.5,
      "sources": {
        "GDELT": 159,
        "GDELT_DOC": 1188,
        "DIRECT_FEED": 6,
        "USGS": 0,
        "GDACS": 0
      },
      "last7_score": 853.584,
      "prev7_score": 12.52,
      "trend": "up",
      "trend_arrow": "🔺",
      "change_pct": 6717.8,
      "place": "Giurgiu, Romania"
    },
    {
      "lon": 14.25,
      "lat": 50.25,
      "type": "hotspot_cell",
      "score": 658.97,
      "count": 1106,
      "cell_deg": 0.5,
      "sources": {
        "GDELT": 104,
        "GDELT_DOC": 1001,
        "DIRECT_FEED": 1,
        "USGS": 0,
        "GDACS": 0
      },
      "last7_score": 651.854,
      "prev7_score": 7.116,
      "trend": "up",
      "trend_arrow": "🔺",
      "change_pct": 9060.8,
      "place": "SO ORP Kralupy nad Vltavou, Czechia"
    },
    {
      "lon": 25.25,
      "lat": 54.75,
      "type": "hotspot_cell",
      "score": 501.55,
      "count": 825,
      "cell_deg": 0.5,
      "sources": {
        "GDELT": 77,
        "GDELT_DOC": 748,
        "DIRECT_FEED": 0,
        "USGS": 0,
        "GDACS": 0
      },
      "last7_score": 495.493,
      "prev7_score": 6.057,
      "trend": "up",
      "trend_arrow": "🔺",
      "change_pct": 8080.3,
      "place": "Vilnius County, Lithuania"
    },
    {
      "lon": 19.25,
      "lat": 47.75,
      "type": "hotspot_cell",
      "score": 413.542,
      "count": 623,
      "cell_deg": 0.5,
      "sources": {
        "GDELT": 406,
        "GDELT_DOC": 0,
        "DIRECT_FEED": 217,
        "USGS": 0,
        "GDACS": 0
      },
      "last7_score": 396.233,
      "prev7_score": 17.309,
      "trend": "up",
      "trend_arrow": "🔺",
      "change_pct": 2189.2,
      "place": "Pest, Hungary"
    },
    {
      "lon": 20.25,
      "lat": 47.25,
      "type": "hotspot_cell",
      "score": 155.605,
      "count": 337,
      "cell_deg": 0.5,
      "sources": {
        "GDELT": 337,
        "GDELT_DOC": 0,
        "DIRECT_FEED": 0,
        "USGS": 0,
        "GDACS": 0
      },
      "last7_score": 132.826,
      "prev7_score": 22.779,
      "trend": "up",
      "trend_arrow": "🔺",
      "change_pct": 483.1,
      "place": "Jász-Nagykun-Szolnok, Hungary"
    },
    {
      "lon": 20.25,
      "lat": 52.25,
      "type": "hotspot_cell",
      "score": 138.416,
      "count": 439,
      "cell_deg": 0.5,
      "sources": {
        "GDELT": 439,
        "GDELT_DOC": 0,
        "DIRECT_FEED": 0,
        "USGS": 0,
        "GDACS": 0
      },
      "last7_score": 101.616,
      "prev7_score": 36.8,
      "trend": "up",
      "trend_arrow": "🔺",
      "change_pct": 176.1,
      "place": "Sochaczew County, Poland"
    },
    {
      "lon": 24.25,
      "lat": 56.75,
      "type": "hotspot_cell",
      "score": 103.445,
      "count": 158,
      "cell_deg": 0.5,
      "sources": {
        "GDELT": 29,
        "GDELT_DOC": 0,
        "DIRECT_FEED": 129,
        "USGS": 0,
        "GDACS": 0
      },
      "last7_score": 100.412,
      "prev7_score": 3.033,
      "trend": "up",
      "trend_arrow": "🔺",
      "change_pct": 3210.4,
      "place": "Ķekavas novads, Latvia"
    },
    {
      "lon": 25.25,
      "lat": 46.25,
      "type": "hotspot_cell",
      "score": 102.33,
      "count": 267,
      "cell_deg": 0.5,
      "sources": {
        "GDELT": 267,
        "GDELT_DOC": 0,
        "DIRECT_FEED": 0,
        "USGS": 0,
        "GDACS": 0
      },
      "last7_score": 82.743,
      "prev7_score": 19.587,
      "trend": "up",
      "trend_arrow": "🔺",
      "change_pct": 322.4,
      "place": "Harghita, Romania"
    },
    {
      "lon": 27.75,
      "lat": 47.25,
      "type": "hotspot_cell",
      "score": 50.255,
      "count": 80,
      "cell_deg": 0.5,
      "sources": {
        "GDELT": 0,
        "GDELT_DOC": 80,
        "DIRECT_FEED": 0,
        "USGS": 0,
        "GDACS": 0
      },
      "last7_score": 50.255,
      "prev7_score": 0.0,
      "trend": "new",
      "trend_arrow": "🆕",
      "change_pct": null,
      "place": "Iași, Romania"
    },
    {
      "lon": 15.25,
      "lat": 49.75,
      "type": "hotspot_cell",
      "score": 46.857,
      "count": 121,
      "cell_deg": 0.5,
      "sources": {
        "GDELT": 121,
        "GDELT_DOC": 0,
        "DIRECT_FEED": 0,
        "USGS": 0,
        "GDACS": 0
      },
      "last7_score": 37.925,
      "prev7_score": 8.932,
      "trend": "up",
      "trend_arrow": "🔺",
      "change_pct": 324.6,
      "place": "Vysočina Region, Czechia"
    }
  ]
}