{
  "generated_utc": "2026-05-01T13:24:55Z",
  "top": [
    {
      "lon": 14.25,
      "lat": 50.25,
      "type": "hotspot_cell",
      "score": 858.715,
      "count": 1445,
      "cell_deg": 0.5,
      "sources": {
        "GDELT": 184,
        "GDELT_DOC": 1258,
        "DIRECT_FEED": 3,
        "USGS": 0,
        "GDACS": 0
      },
      "last7_score": 843.356,
      "prev7_score": 15.36,
      "trend": "up",
      "trend_arrow": "🔺",
      "change_pct": 5390.7,
      "place": "SO ORP Kralupy nad Vltavou, Czechia"
    },
    {
      "lon": 26.25,
      "lat": 44.25,
      "type": "hotspot_cell",
      "score": 800.7,
      "count": 1434,
      "cell_deg": 0.5,
      "sources": {
        "GDELT": 150,
        "GDELT_DOC": 1280,
        "DIRECT_FEED": 4,
        "USGS": 0,
        "GDACS": 0
      },
      "last7_score": 789.225,
      "prev7_score": 11.475,
      "trend": "up",
      "trend_arrow": "🔺",
      "change_pct": 6777.7,
      "place": "Giurgiu, Romania"
    },
    {
      "lon": 25.25,
      "lat": 54.75,
      "type": "hotspot_cell",
      "score": 559.131,
      "count": 961,
      "cell_deg": 0.5,
      "sources": {
        "GDELT": 65,
        "GDELT_DOC": 896,
        "DIRECT_FEED": 0,
        "USGS": 0,
        "GDACS": 0
      },
      "last7_score": 554.665,
      "prev7_score": 4.465,
      "trend": "up",
      "trend_arrow": "🔺",
      "change_pct": 12321.3,
      "place": "Vilnius County, Lithuania"
    },
    {
      "lon": 19.25,
      "lat": 47.75,
      "type": "hotspot_cell",
      "score": 240.473,
      "count": 563,
      "cell_deg": 0.5,
      "sources": {
        "GDELT": 364,
        "GDELT_DOC": 0,
        "DIRECT_FEED": 199,
        "USGS": 0,
        "GDACS": 0
      },
      "last7_score": 206.585,
      "prev7_score": 33.888,
      "trend": "up",
      "trend_arrow": "🔺",
      "change_pct": 509.6,
      "place": "Pest, Hungary"
    },
    {
      "lon": 20.25,
      "lat": 52.25,
      "type": "hotspot_cell",
      "score": 174.185,
      "count": 461,
      "cell_deg": 0.5,
      "sources": {
        "GDELT": 461,
        "GDELT_DOC": 0,
        "DIRECT_FEED": 0,
        "USGS": 0,
        "GDACS": 0
      },
      "last7_score": 136.211,
      "prev7_score": 37.973,
      "trend": "up",
      "trend_arrow": "🔺",
      "change_pct": 258.7,
      "place": "Sochaczew County, Poland"
    },
    {
      "lon": 20.25,
      "lat": 47.25,
      "type": "hotspot_cell",
      "score": 157.676,
      "count": 520,
      "cell_deg": 0.5,
      "sources": {
        "GDELT": 520,
        "GDELT_DOC": 0,
        "DIRECT_FEED": 0,
        "USGS": 0,
        "GDACS": 0
      },
      "last7_score": 107.574,
      "prev7_score": 50.102,
      "trend": "up",
      "trend_arrow": "🔺",
      "change_pct": 114.7,
      "place": "Jász-Nagykun-Szolnok, Hungary"
    },
    {
      "lon": 25.25,
      "lat": 46.25,
      "type": "hotspot_cell",
      "score": 142.109,
      "count": 303,
      "cell_deg": 0.5,
      "sources": {
        "GDELT": 303,
        "GDELT_DOC": 0,
        "DIRECT_FEED": 0,
        "USGS": 0,
        "GDACS": 0
      },
      "last7_score": 122.657,
      "prev7_score": 19.452,
      "trend": "up",
      "trend_arrow": "🔺",
      "change_pct": 530.6,
      "place": "Harghita, Romania"
    },
    {
      "lon": 24.25,
      "lat": 56.75,
      "type": "hotspot_cell",
      "score": 117.087,
      "count": 164,
      "cell_deg": 0.5,
      "sources": {
        "GDELT": 24,
        "GDELT_DOC": 0,
        "DIRECT_FEED": 140,
        "USGS": 0,
        "GDACS": 0
      },
      "last7_score": 115.157,
      "prev7_score": 1.93,
      "trend": "up",
      "trend_arrow": "🔺",
      "change_pct": 5866.2,
      "place": "Ķekavas novads, Latvia"
    },
    {
      "lon": 15.25,
      "lat": 49.75,
      "type": "hotspot_cell",
      "score": 93.82,
      "count": 215,
      "cell_deg": 0.5,
      "sources": {
        "GDELT": 215,
        "GDELT_DOC": 0,
        "DIRECT_FEED": 0,
        "USGS": 0,
        "GDACS": 0
      },
      "last7_score": 80.699,
      "prev7_score": 13.121,
      "trend": "up",
      "trend_arrow": "🔺",
      "change_pct": 515.0,
      "place": "Vysočina Region, Czechia"
    },
    {
      "lon": 21.25,
      "lat": 52.25,
      "type": "hotspot_cell",
      "score": 62.136,
      "count": 160,
      "cell_deg": 0.5,
      "sources": {
        "GDELT": 160,
        "GDELT_DOC": 0,
        "DIRECT_FEED": 0,
        "USGS": 0,
        "GDACS": 0
      },
      "last7_score": 50.018,
      "prev7_score": 12.118,
      "trend": "up",
      "trend_arrow": "🔺",
      "change_pct": 312.8,
      "place": "Warsaw, Poland"
    }
  ]
}