{
  "generated_utc": "2026-06-08T15:38:24Z",
  "top": [
    {
      "lon": 26.25,
      "lat": 44.25,
      "type": "hotspot_cell",
      "score": 663.535,
      "count": 1220,
      "cell_deg": 0.5,
      "sources": {
        "GDELT": 256,
        "GDELT_DOC": 957,
        "DIRECT_FEED": 7,
        "USGS": 0,
        "GDACS": 0
      },
      "last7_score": 642.716,
      "prev7_score": 20.819,
      "trend": "up",
      "trend_arrow": "🔺",
      "change_pct": 2987.2,
      "place": "Giurgiu, Romania"
    },
    {
      "lon": 25.25,
      "lat": 54.75,
      "type": "hotspot_cell",
      "score": 626.377,
      "count": 1002,
      "cell_deg": 0.5,
      "sources": {
        "GDELT": 82,
        "GDELT_DOC": 917,
        "DIRECT_FEED": 3,
        "USGS": 0,
        "GDACS": 0
      },
      "last7_score": 620.302,
      "prev7_score": 6.075,
      "trend": "up",
      "trend_arrow": "🔺",
      "change_pct": 10110.2,
      "place": "Vilnius County, Lithuania"
    },
    {
      "lon": 14.25,
      "lat": 50.25,
      "type": "hotspot_cell",
      "score": 431.478,
      "count": 902,
      "cell_deg": 0.5,
      "sources": {
        "GDELT": 119,
        "GDELT_DOC": 779,
        "DIRECT_FEED": 4,
        "USGS": 0,
        "GDACS": 0
      },
      "last7_score": 422.57,
      "prev7_score": 8.909,
      "trend": "up",
      "trend_arrow": "🔺",
      "change_pct": 4643.2,
      "place": "SO ORP Kralupy nad Vltavou, Czechia"
    },
    {
      "lon": 25.25,
      "lat": 46.25,
      "type": "hotspot_cell",
      "score": 182.676,
      "count": 511,
      "cell_deg": 0.5,
      "sources": {
        "GDELT": 511,
        "GDELT_DOC": 0,
        "DIRECT_FEED": 0,
        "USGS": 0,
        "GDACS": 0
      },
      "last7_score": 147.533,
      "prev7_score": 35.142,
      "trend": "up",
      "trend_arrow": "🔺",
      "change_pct": 319.8,
      "place": "Harghita, Romania"
    },
    {
      "lon": 19.25,
      "lat": 47.75,
      "type": "hotspot_cell",
      "score": 182.051,
      "count": 424,
      "cell_deg": 0.5,
      "sources": {
        "GDELT": 254,
        "GDELT_DOC": 0,
        "DIRECT_FEED": 170,
        "USGS": 0,
        "GDACS": 0
      },
      "last7_score": 164.138,
      "prev7_score": 17.913,
      "trend": "up",
      "trend_arrow": "🔺",
      "change_pct": 816.3,
      "place": "Pest, Hungary"
    },
    {
      "lon": 20.25,
      "lat": 52.25,
      "type": "hotspot_cell",
      "score": 165.318,
      "count": 535,
      "cell_deg": 0.5,
      "sources": {
        "GDELT": 535,
        "GDELT_DOC": 0,
        "DIRECT_FEED": 0,
        "USGS": 0,
        "GDACS": 0
      },
      "last7_score": 128.201,
      "prev7_score": 37.117,
      "trend": "up",
      "trend_arrow": "🔺",
      "change_pct": 245.4,
      "place": "Sochaczew County, Poland"
    },
    {
      "lon": 24.25,
      "lat": 56.75,
      "type": "hotspot_cell",
      "score": 108.425,
      "count": 187,
      "cell_deg": 0.5,
      "sources": {
        "GDELT": 50,
        "GDELT_DOC": 0,
        "DIRECT_FEED": 137,
        "USGS": 0,
        "GDACS": 0
      },
      "last7_score": 105.316,
      "prev7_score": 3.109,
      "trend": "up",
      "trend_arrow": "🔺",
      "change_pct": 3287.3,
      "place": "Ķekavas novads, Latvia"
    },
    {
      "lon": 20.25,
      "lat": 47.25,
      "type": "hotspot_cell",
      "score": 87.043,
      "count": 267,
      "cell_deg": 0.5,
      "sources": {
        "GDELT": 267,
        "GDELT_DOC": 0,
        "DIRECT_FEED": 0,
        "USGS": 0,
        "GDACS": 0
      },
      "last7_score": 68.299,
      "prev7_score": 18.744,
      "trend": "up",
      "trend_arrow": "🔺",
      "change_pct": 264.4,
      "place": "Jász-Nagykun-Szolnok, Hungary"
    },
    {
      "lon": 21.25,
      "lat": 52.25,
      "type": "hotspot_cell",
      "score": 70.471,
      "count": 225,
      "cell_deg": 0.5,
      "sources": {
        "GDELT": 225,
        "GDELT_DOC": 0,
        "DIRECT_FEED": 0,
        "USGS": 0,
        "GDACS": 0
      },
      "last7_score": 54.586,
      "prev7_score": 15.885,
      "trend": "up",
      "trend_arrow": "🔺",
      "change_pct": 243.6,
      "place": "Warsaw, Poland"
    },
    {
      "lon": 15.25,
      "lat": 49.75,
      "type": "hotspot_cell",
      "score": 51.168,
      "count": 161,
      "cell_deg": 0.5,
      "sources": {
        "GDELT": 161,
        "GDELT_DOC": 0,
        "DIRECT_FEED": 0,
        "USGS": 0,
        "GDACS": 0
      },
      "last7_score": 40.188,
      "prev7_score": 10.98,
      "trend": "up",
      "trend_arrow": "🔺",
      "change_pct": 266.0,
      "place": "Vysočina Region, Czechia"
    }
  ]
}