{
  "generated_utc": "2026-07-09T09:29:39Z",
  "top": [
    {
      "lon": 14.25,
      "lat": 50.25,
      "type": "hotspot_cell",
      "score": 638.461,
      "count": 771,
      "cell_deg": 0.5,
      "sources": {
        "GDELT": 111,
        "GDELT_DOC": 658,
        "DIRECT_FEED": 2,
        "USGS": 0,
        "GDACS": 0
      },
      "last7_score": 628.973,
      "prev7_score": 9.488,
      "trend": "up",
      "trend_arrow": "🔺",
      "change_pct": 6529.2,
      "place": "SO ORP Kralupy nad Vltavou, Czechia"
    },
    {
      "lon": 26.25,
      "lat": 44.25,
      "type": "hotspot_cell",
      "score": 534.526,
      "count": 725,
      "cell_deg": 0.5,
      "sources": {
        "GDELT": 124,
        "GDELT_DOC": 596,
        "DIRECT_FEED": 5,
        "USGS": 0,
        "GDACS": 0
      },
      "last7_score": 522.003,
      "prev7_score": 12.523,
      "trend": "up",
      "trend_arrow": "🔺",
      "change_pct": 4068.4,
      "place": "Giurgiu, Romania"
    },
    {
      "lon": 25.25,
      "lat": 54.75,
      "type": "hotspot_cell",
      "score": 461.405,
      "count": 521,
      "cell_deg": 0.5,
      "sources": {
        "GDELT": 69,
        "GDELT_DOC": 451,
        "DIRECT_FEED": 1,
        "USGS": 0,
        "GDACS": 0
      },
      "last7_score": 455.53,
      "prev7_score": 5.875,
      "trend": "up",
      "trend_arrow": "🔺",
      "change_pct": 7653.9,
      "place": "Vilnius County, Lithuania"
    },
    {
      "lon": 20.25,
      "lat": 52.25,
      "type": "hotspot_cell",
      "score": 209.859,
      "count": 533,
      "cell_deg": 0.5,
      "sources": {
        "GDELT": 533,
        "GDELT_DOC": 0,
        "DIRECT_FEED": 0,
        "USGS": 0,
        "GDACS": 0
      },
      "last7_score": 165.621,
      "prev7_score": 44.239,
      "trend": "up",
      "trend_arrow": "🔺",
      "change_pct": 274.4,
      "place": "Sochaczew County, Poland"
    },
    {
      "lon": 19.25,
      "lat": 47.75,
      "type": "hotspot_cell",
      "score": 160.104,
      "count": 301,
      "cell_deg": 0.5,
      "sources": {
        "GDELT": 138,
        "GDELT_DOC": 0,
        "DIRECT_FEED": 163,
        "USGS": 0,
        "GDACS": 0
      },
      "last7_score": 147.598,
      "prev7_score": 12.506,
      "trend": "up",
      "trend_arrow": "🔺",
      "change_pct": 1080.2,
      "place": "Pest, Hungary"
    },
    {
      "lon": 25.25,
      "lat": 46.25,
      "type": "hotspot_cell",
      "score": 131.827,
      "count": 335,
      "cell_deg": 0.5,
      "sources": {
        "GDELT": 335,
        "GDELT_DOC": 0,
        "DIRECT_FEED": 0,
        "USGS": 0,
        "GDACS": 0
      },
      "last7_score": 106.876,
      "prev7_score": 24.952,
      "trend": "up",
      "trend_arrow": "🔺",
      "change_pct": 328.3,
      "place": "Harghita, Romania"
    },
    {
      "lon": 24.25,
      "lat": 56.75,
      "type": "hotspot_cell",
      "score": 111.679,
      "count": 159,
      "cell_deg": 0.5,
      "sources": {
        "GDELT": 23,
        "GDELT_DOC": 0,
        "DIRECT_FEED": 136,
        "USGS": 0,
        "GDACS": 0
      },
      "last7_score": 110.007,
      "prev7_score": 1.672,
      "trend": "up",
      "trend_arrow": "🔺",
      "change_pct": 6478.8,
      "place": "Ķekavas novads, Latvia"
    },
    {
      "lon": 21.25,
      "lat": 52.25,
      "type": "hotspot_cell",
      "score": 92.004,
      "count": 254,
      "cell_deg": 0.5,
      "sources": {
        "GDELT": 254,
        "GDELT_DOC": 0,
        "DIRECT_FEED": 0,
        "USGS": 0,
        "GDACS": 0
      },
      "last7_score": 74.625,
      "prev7_score": 17.38,
      "trend": "up",
      "trend_arrow": "🔺",
      "change_pct": 329.4,
      "place": "Warsaw, Poland"
    },
    {
      "lon": 20.25,
      "lat": 47.25,
      "type": "hotspot_cell",
      "score": 70.595,
      "count": 160,
      "cell_deg": 0.5,
      "sources": {
        "GDELT": 160,
        "GDELT_DOC": 0,
        "DIRECT_FEED": 0,
        "USGS": 0,
        "GDACS": 0
      },
      "last7_score": 59.701,
      "prev7_score": 10.894,
      "trend": "up",
      "trend_arrow": "🔺",
      "change_pct": 448.0,
      "place": "Jász-Nagykun-Szolnok, Hungary"
    },
    {
      "lon": 26.25,
      "lat": 59.25,
      "type": "hotspot_cell",
      "score": 68.47,
      "count": 135,
      "cell_deg": 0.5,
      "sources": {
        "GDELT": 135,
        "GDELT_DOC": 0,
        "DIRECT_FEED": 0,
        "USGS": 0,
        "GDACS": 0
      },
      "last7_score": 59.751,
      "prev7_score": 8.719,
      "trend": "up",
      "trend_arrow": "🔺",
      "change_pct": 585.3,
      "place": "Lääne-Viru County, Estonia"
    }
  ]
}