{
  "generated_utc": "2026-04-06T19:07:35Z",
  "top": [
    {
      "lon": 26.25,
      "lat": 44.25,
      "type": "hotspot_cell",
      "score": 784.686,
      "count": 1403,
      "cell_deg": 0.5,
      "sources": {
        "GDELT": 164,
        "GDELT_DOC": 1232,
        "DIRECT_FEED": 7,
        "USGS": 0,
        "GDACS": 0
      },
      "last7_score": 777.157,
      "prev7_score": 7.529,
      "trend": "up",
      "trend_arrow": "🔺",
      "change_pct": 10222.1,
      "place": "Giurgiu, Romania"
    },
    {
      "lon": 14.25,
      "lat": 50.25,
      "type": "hotspot_cell",
      "score": 661.258,
      "count": 1324,
      "cell_deg": 0.5,
      "sources": {
        "GDELT": 114,
        "GDELT_DOC": 1208,
        "DIRECT_FEED": 2,
        "USGS": 0,
        "GDACS": 0
      },
      "last7_score": 653.777,
      "prev7_score": 7.481,
      "trend": "up",
      "trend_arrow": "🔺",
      "change_pct": 8638.8,
      "place": "SO ORP Kralupy nad Vltavou, Czechia"
    },
    {
      "lon": 25.25,
      "lat": 54.75,
      "type": "hotspot_cell",
      "score": 455.132,
      "count": 893,
      "cell_deg": 0.5,
      "sources": {
        "GDELT": 82,
        "GDELT_DOC": 811,
        "DIRECT_FEED": 0,
        "USGS": 0,
        "GDACS": 0
      },
      "last7_score": 449.39,
      "prev7_score": 5.741,
      "trend": "up",
      "trend_arrow": "🔺",
      "change_pct": 7727.5,
      "place": "Vilnius County, Lithuania"
    },
    {
      "lon": 19.25,
      "lat": 47.75,
      "type": "hotspot_cell",
      "score": 231.566,
      "count": 485,
      "cell_deg": 0.5,
      "sources": {
        "GDELT": 281,
        "GDELT_DOC": 0,
        "DIRECT_FEED": 204,
        "USGS": 0,
        "GDACS": 0
      },
      "last7_score": 216.298,
      "prev7_score": 15.268,
      "trend": "up",
      "trend_arrow": "🔺",
      "change_pct": 1316.7,
      "place": "Pest, Hungary"
    },
    {
      "lon": 20.25,
      "lat": 52.25,
      "type": "hotspot_cell",
      "score": 130.453,
      "count": 456,
      "cell_deg": 0.5,
      "sources": {
        "GDELT": 456,
        "GDELT_DOC": 0,
        "DIRECT_FEED": 0,
        "USGS": 0,
        "GDACS": 0
      },
      "last7_score": 99.39,
      "prev7_score": 31.063,
      "trend": "up",
      "trend_arrow": "🔺",
      "change_pct": 220.0,
      "place": "Sochaczew County, Poland"
    },
    {
      "lon": 20.25,
      "lat": 47.25,
      "type": "hotspot_cell",
      "score": 125.901,
      "count": 325,
      "cell_deg": 0.5,
      "sources": {
        "GDELT": 325,
        "GDELT_DOC": 0,
        "DIRECT_FEED": 0,
        "USGS": 0,
        "GDACS": 0
      },
      "last7_score": 109.018,
      "prev7_score": 16.883,
      "trend": "up",
      "trend_arrow": "🔺",
      "change_pct": 545.7,
      "place": "Jász-Nagykun-Szolnok, Hungary"
    },
    {
      "lon": 25.25,
      "lat": 46.25,
      "type": "hotspot_cell",
      "score": 91.049,
      "count": 298,
      "cell_deg": 0.5,
      "sources": {
        "GDELT": 298,
        "GDELT_DOC": 0,
        "DIRECT_FEED": 0,
        "USGS": 0,
        "GDACS": 0
      },
      "last7_score": 73.968,
      "prev7_score": 17.081,
      "trend": "up",
      "trend_arrow": "🔺",
      "change_pct": 333.0,
      "place": "Harghita, Romania"
    },
    {
      "lon": 24.25,
      "lat": 56.75,
      "type": "hotspot_cell",
      "score": 88.267,
      "count": 164,
      "cell_deg": 0.5,
      "sources": {
        "GDELT": 39,
        "GDELT_DOC": 0,
        "DIRECT_FEED": 125,
        "USGS": 0,
        "GDACS": 0
      },
      "last7_score": 84.67,
      "prev7_score": 3.597,
      "trend": "up",
      "trend_arrow": "🔺",
      "change_pct": 2253.6,
      "place": "Ķekavas novads, Latvia"
    },
    {
      "lon": 27.75,
      "lat": 47.25,
      "type": "hotspot_cell",
      "score": 48.711,
      "count": 87,
      "cell_deg": 0.5,
      "sources": {
        "GDELT": 0,
        "GDELT_DOC": 87,
        "DIRECT_FEED": 0,
        "USGS": 0,
        "GDACS": 0
      },
      "last7_score": 48.711,
      "prev7_score": 0.0,
      "trend": "new",
      "trend_arrow": "🆕",
      "change_pct": null,
      "place": "Iași, Romania"
    },
    {
      "lon": 21.25,
      "lat": 52.25,
      "type": "hotspot_cell",
      "score": 38.61,
      "count": 128,
      "cell_deg": 0.5,
      "sources": {
        "GDELT": 128,
        "GDELT_DOC": 0,
        "DIRECT_FEED": 0,
        "USGS": 0,
        "GDACS": 0
      },
      "last7_score": 31.464,
      "prev7_score": 7.146,
      "trend": "up",
      "trend_arrow": "🔺",
      "change_pct": 340.3,
      "place": "Warsaw, Poland"
    }
  ]
}