{
  "generated_utc": "2026-03-11T07:04:04Z",
  "top": [
    {
      "lon": 26.25,
      "lat": 44.25,
      "type": "hotspot_cell",
      "score": 634.545,
      "count": 959,
      "cell_deg": 0.5,
      "sources": {
        "GDELT": 165,
        "GDELT_DOC": 793,
        "DIRECT_FEED": 1,
        "USGS": 0,
        "GDACS": 0
      },
      "last7_score": 617.815,
      "prev7_score": 16.73,
      "trend": "up",
      "trend_arrow": "🔺",
      "change_pct": 3592.9,
      "place": "Giurgiu, Romania"
    },
    {
      "lon": 14.25,
      "lat": 50.25,
      "type": "hotspot_cell",
      "score": 543.152,
      "count": 886,
      "cell_deg": 0.5,
      "sources": {
        "GDELT": 140,
        "GDELT_DOC": 745,
        "DIRECT_FEED": 1,
        "USGS": 0,
        "GDACS": 0
      },
      "last7_score": 531.313,
      "prev7_score": 11.839,
      "trend": "up",
      "trend_arrow": "🔺",
      "change_pct": 4387.8,
      "place": "SO ORP Kralupy nad Vltavou, Czechia"
    },
    {
      "lon": 25.25,
      "lat": 54.75,
      "type": "hotspot_cell",
      "score": 415.079,
      "count": 602,
      "cell_deg": 0.5,
      "sources": {
        "GDELT": 68,
        "GDELT_DOC": 534,
        "DIRECT_FEED": 0,
        "USGS": 0,
        "GDACS": 0
      },
      "last7_score": 409.946,
      "prev7_score": 5.133,
      "trend": "up",
      "trend_arrow": "🔺",
      "change_pct": 7886.9,
      "place": "Vilnius County, Lithuania"
    },
    {
      "lon": 19.25,
      "lat": 47.75,
      "type": "hotspot_cell",
      "score": 252.215,
      "count": 502,
      "cell_deg": 0.5,
      "sources": {
        "GDELT": 379,
        "GDELT_DOC": 0,
        "DIRECT_FEED": 123,
        "USGS": 0,
        "GDACS": 0
      },
      "last7_score": 229.892,
      "prev7_score": 22.323,
      "trend": "up",
      "trend_arrow": "🔺",
      "change_pct": 929.8,
      "place": "Pest, Hungary"
    },
    {
      "lon": 20.25,
      "lat": 52.25,
      "type": "hotspot_cell",
      "score": 151.301,
      "count": 483,
      "cell_deg": 0.5,
      "sources": {
        "GDELT": 483,
        "GDELT_DOC": 0,
        "DIRECT_FEED": 0,
        "USGS": 0,
        "GDACS": 0
      },
      "last7_score": 112.166,
      "prev7_score": 39.135,
      "trend": "up",
      "trend_arrow": "🔺",
      "change_pct": 186.6,
      "place": "Sochaczew County, Poland"
    },
    {
      "lon": 20.25,
      "lat": 47.25,
      "type": "hotspot_cell",
      "score": 125.269,
      "count": 320,
      "cell_deg": 0.5,
      "sources": {
        "GDELT": 320,
        "GDELT_DOC": 0,
        "DIRECT_FEED": 0,
        "USGS": 0,
        "GDACS": 0
      },
      "last7_score": 100.951,
      "prev7_score": 24.318,
      "trend": "up",
      "trend_arrow": "🔺",
      "change_pct": 315.1,
      "place": "Jász-Nagykun-Szolnok, Hungary"
    },
    {
      "lon": 24.25,
      "lat": 56.75,
      "type": "hotspot_cell",
      "score": 117.983,
      "count": 137,
      "cell_deg": 0.5,
      "sources": {
        "GDELT": 24,
        "GDELT_DOC": 0,
        "DIRECT_FEED": 113,
        "USGS": 0,
        "GDACS": 0
      },
      "last7_score": 116.582,
      "prev7_score": 1.401,
      "trend": "up",
      "trend_arrow": "🔺",
      "change_pct": 8220.0,
      "place": "Ķekavas novads, Latvia"
    },
    {
      "lon": 25.25,
      "lat": 46.25,
      "type": "hotspot_cell",
      "score": 103.16,
      "count": 291,
      "cell_deg": 0.5,
      "sources": {
        "GDELT": 291,
        "GDELT_DOC": 0,
        "DIRECT_FEED": 0,
        "USGS": 0,
        "GDACS": 0
      },
      "last7_score": 80.203,
      "prev7_score": 22.957,
      "trend": "up",
      "trend_arrow": "🔺",
      "change_pct": 249.4,
      "place": "Harghita, Romania"
    },
    {
      "lon": 21.25,
      "lat": 52.25,
      "type": "hotspot_cell",
      "score": 67.779,
      "count": 225,
      "cell_deg": 0.5,
      "sources": {
        "GDELT": 225,
        "GDELT_DOC": 0,
        "DIRECT_FEED": 0,
        "USGS": 0,
        "GDACS": 0
      },
      "last7_score": 49.042,
      "prev7_score": 18.738,
      "trend": "up",
      "trend_arrow": "🔺",
      "change_pct": 161.7,
      "place": "Warsaw, Poland"
    },
    {
      "lon": 15.25,
      "lat": 49.75,
      "type": "hotspot_cell",
      "score": 60.159,
      "count": 163,
      "cell_deg": 0.5,
      "sources": {
        "GDELT": 163,
        "GDELT_DOC": 0,
        "DIRECT_FEED": 0,
        "USGS": 0,
        "GDACS": 0
      },
      "last7_score": 48.432,
      "prev7_score": 11.727,
      "trend": "up",
      "trend_arrow": "🔺",
      "change_pct": 313.0,
      "place": "Vysočina Region, Czechia"
    }
  ]
}