{
  "generated_utc": "2026-06-09T14:37:52Z",
  "top": [
    {
      "lon": 26.25,
      "lat": 44.25,
      "type": "hotspot_cell",
      "score": 611.048,
      "count": 1203,
      "cell_deg": 0.5,
      "sources": {
        "GDELT": 252,
        "GDELT_DOC": 941,
        "DIRECT_FEED": 10,
        "USGS": 0,
        "GDACS": 0
      },
      "last7_score": 590.606,
      "prev7_score": 20.442,
      "trend": "up",
      "trend_arrow": "🔺",
      "change_pct": 2789.2,
      "place": "Giurgiu, Romania"
    },
    {
      "lon": 25.25,
      "lat": 54.75,
      "type": "hotspot_cell",
      "score": 610.518,
      "count": 1036,
      "cell_deg": 0.5,
      "sources": {
        "GDELT": 80,
        "GDELT_DOC": 954,
        "DIRECT_FEED": 2,
        "USGS": 0,
        "GDACS": 0
      },
      "last7_score": 603.281,
      "prev7_score": 7.238,
      "trend": "up",
      "trend_arrow": "🔺",
      "change_pct": 8235.1,
      "place": "Vilnius County, Lithuania"
    },
    {
      "lon": 14.25,
      "lat": 50.25,
      "type": "hotspot_cell",
      "score": 426.716,
      "count": 818,
      "cell_deg": 0.5,
      "sources": {
        "GDELT": 111,
        "GDELT_DOC": 704,
        "DIRECT_FEED": 3,
        "USGS": 0,
        "GDACS": 0
      },
      "last7_score": 419.013,
      "prev7_score": 7.703,
      "trend": "up",
      "trend_arrow": "🔺",
      "change_pct": 5339.3,
      "place": "SO ORP Kralupy nad Vltavou, Czechia"
    },
    {
      "lon": 19.25,
      "lat": 47.75,
      "type": "hotspot_cell",
      "score": 187.319,
      "count": 435,
      "cell_deg": 0.5,
      "sources": {
        "GDELT": 258,
        "GDELT_DOC": 0,
        "DIRECT_FEED": 177,
        "USGS": 0,
        "GDACS": 0
      },
      "last7_score": 168.774,
      "prev7_score": 18.545,
      "trend": "up",
      "trend_arrow": "🔺",
      "change_pct": 810.1,
      "place": "Pest, Hungary"
    },
    {
      "lon": 25.25,
      "lat": 46.25,
      "type": "hotspot_cell",
      "score": 176.738,
      "count": 517,
      "cell_deg": 0.5,
      "sources": {
        "GDELT": 517,
        "GDELT_DOC": 0,
        "DIRECT_FEED": 0,
        "USGS": 0,
        "GDACS": 0
      },
      "last7_score": 138.175,
      "prev7_score": 38.563,
      "trend": "up",
      "trend_arrow": "🔺",
      "change_pct": 258.3,
      "place": "Harghita, Romania"
    },
    {
      "lon": 20.25,
      "lat": 52.25,
      "type": "hotspot_cell",
      "score": 159.042,
      "count": 517,
      "cell_deg": 0.5,
      "sources": {
        "GDELT": 517,
        "GDELT_DOC": 0,
        "DIRECT_FEED": 0,
        "USGS": 0,
        "GDACS": 0
      },
      "last7_score": 119.439,
      "prev7_score": 39.603,
      "trend": "up",
      "trend_arrow": "🔺",
      "change_pct": 201.6,
      "place": "Sochaczew County, Poland"
    },
    {
      "lon": 24.25,
      "lat": 56.75,
      "type": "hotspot_cell",
      "score": 105.451,
      "count": 188,
      "cell_deg": 0.5,
      "sources": {
        "GDELT": 49,
        "GDELT_DOC": 0,
        "DIRECT_FEED": 139,
        "USGS": 0,
        "GDACS": 0
      },
      "last7_score": 102.425,
      "prev7_score": 3.026,
      "trend": "up",
      "trend_arrow": "🔺",
      "change_pct": 3284.6,
      "place": "Ķekavas novads, Latvia"
    },
    {
      "lon": 20.25,
      "lat": 47.25,
      "type": "hotspot_cell",
      "score": 89.432,
      "count": 272,
      "cell_deg": 0.5,
      "sources": {
        "GDELT": 272,
        "GDELT_DOC": 0,
        "DIRECT_FEED": 0,
        "USGS": 0,
        "GDACS": 0
      },
      "last7_score": 69.792,
      "prev7_score": 19.64,
      "trend": "up",
      "trend_arrow": "🔺",
      "change_pct": 255.3,
      "place": "Jász-Nagykun-Szolnok, Hungary"
    },
    {
      "lon": 21.25,
      "lat": 52.25,
      "type": "hotspot_cell",
      "score": 66.288,
      "count": 220,
      "cell_deg": 0.5,
      "sources": {
        "GDELT": 220,
        "GDELT_DOC": 0,
        "DIRECT_FEED": 0,
        "USGS": 0,
        "GDACS": 0
      },
      "last7_score": 49.714,
      "prev7_score": 16.574,
      "trend": "up",
      "trend_arrow": "🔺",
      "change_pct": 199.9,
      "place": "Warsaw, Poland"
    },
    {
      "lon": 15.25,
      "lat": 49.75,
      "type": "hotspot_cell",
      "score": 52.878,
      "count": 161,
      "cell_deg": 0.5,
      "sources": {
        "GDELT": 161,
        "GDELT_DOC": 0,
        "DIRECT_FEED": 0,
        "USGS": 0,
        "GDACS": 0
      },
      "last7_score": 41.501,
      "prev7_score": 11.377,
      "trend": "up",
      "trend_arrow": "🔺",
      "change_pct": 264.8,
      "place": "Vysočina Region, Czechia"
    }
  ]
}