{
  "generated_utc": "2026-07-03T19:11:21Z",
  "top": [
    {
      "lon": 26.25,
      "lat": 44.25,
      "type": "hotspot_cell",
      "score": 245.508,
      "count": 581,
      "cell_deg": 0.5,
      "sources": {
        "GDELT": 148,
        "GDELT_DOC": 428,
        "DIRECT_FEED": 5,
        "USGS": 0,
        "GDACS": 0
      },
      "last7_score": 235.334,
      "prev7_score": 10.174,
      "trend": "up",
      "trend_arrow": "🔺",
      "change_pct": 2213.1,
      "place": "Giurgiu, Romania"
    },
    {
      "lon": 20.25,
      "lat": 52.25,
      "type": "hotspot_cell",
      "score": 231.357,
      "count": 568,
      "cell_deg": 0.5,
      "sources": {
        "GDELT": 568,
        "GDELT_DOC": 0,
        "DIRECT_FEED": 0,
        "USGS": 0,
        "GDACS": 0
      },
      "last7_score": 193.258,
      "prev7_score": 38.099,
      "trend": "up",
      "trend_arrow": "🔺",
      "change_pct": 407.3,
      "place": "Sochaczew County, Poland"
    },
    {
      "lon": 14.25,
      "lat": 50.25,
      "type": "hotspot_cell",
      "score": 209.562,
      "count": 513,
      "cell_deg": 0.5,
      "sources": {
        "GDELT": 131,
        "GDELT_DOC": 381,
        "DIRECT_FEED": 1,
        "USGS": 0,
        "GDACS": 0
      },
      "last7_score": 201.167,
      "prev7_score": 8.395,
      "trend": "up",
      "trend_arrow": "🔺",
      "change_pct": 2296.1,
      "place": "SO ORP Kralupy nad Vltavou, Czechia"
    },
    {
      "lon": 25.25,
      "lat": 54.75,
      "type": "hotspot_cell",
      "score": 206.236,
      "count": 474,
      "cell_deg": 0.5,
      "sources": {
        "GDELT": 71,
        "GDELT_DOC": 403,
        "DIRECT_FEED": 0,
        "USGS": 0,
        "GDACS": 0
      },
      "last7_score": 202.54,
      "prev7_score": 3.696,
      "trend": "up",
      "trend_arrow": "🔺",
      "change_pct": 5380.5,
      "place": "Vilnius County, Lithuania"
    },
    {
      "lon": 19.25,
      "lat": 47.75,
      "type": "hotspot_cell",
      "score": 206.135,
      "count": 372,
      "cell_deg": 0.5,
      "sources": {
        "GDELT": 187,
        "GDELT_DOC": 0,
        "DIRECT_FEED": 185,
        "USGS": 0,
        "GDACS": 0
      },
      "last7_score": 192.475,
      "prev7_score": 13.66,
      "trend": "up",
      "trend_arrow": "🔺",
      "change_pct": 1309.0,
      "place": "Pest, Hungary"
    },
    {
      "lon": 25.25,
      "lat": 46.25,
      "type": "hotspot_cell",
      "score": 140.842,
      "count": 352,
      "cell_deg": 0.5,
      "sources": {
        "GDELT": 352,
        "GDELT_DOC": 0,
        "DIRECT_FEED": 0,
        "USGS": 0,
        "GDACS": 0
      },
      "last7_score": 115.376,
      "prev7_score": 25.466,
      "trend": "up",
      "trend_arrow": "🔺",
      "change_pct": 353.1,
      "place": "Harghita, Romania"
    },
    {
      "lon": 24.25,
      "lat": 56.75,
      "type": "hotspot_cell",
      "score": 118.293,
      "count": 173,
      "cell_deg": 0.5,
      "sources": {
        "GDELT": 26,
        "GDELT_DOC": 0,
        "DIRECT_FEED": 147,
        "USGS": 0,
        "GDACS": 0
      },
      "last7_score": 116.324,
      "prev7_score": 1.969,
      "trend": "up",
      "trend_arrow": "🔺",
      "change_pct": 5809.1,
      "place": "Ķekavas novads, Latvia"
    },
    {
      "lon": 21.25,
      "lat": 52.25,
      "type": "hotspot_cell",
      "score": 111.982,
      "count": 344,
      "cell_deg": 0.5,
      "sources": {
        "GDELT": 344,
        "GDELT_DOC": 0,
        "DIRECT_FEED": 0,
        "USGS": 0,
        "GDACS": 0
      },
      "last7_score": 86.64,
      "prev7_score": 25.341,
      "trend": "up",
      "trend_arrow": "🔺",
      "change_pct": 241.9,
      "place": "Warsaw, Poland"
    },
    {
      "lon": 15.25,
      "lat": 49.75,
      "type": "hotspot_cell",
      "score": 65.571,
      "count": 167,
      "cell_deg": 0.5,
      "sources": {
        "GDELT": 167,
        "GDELT_DOC": 0,
        "DIRECT_FEED": 0,
        "USGS": 0,
        "GDACS": 0
      },
      "last7_score": 54.306,
      "prev7_score": 11.266,
      "trend": "up",
      "trend_arrow": "🔺",
      "change_pct": 382.0,
      "place": "Vysočina Region, Czechia"
    },
    {
      "lon": 20.25,
      "lat": 47.25,
      "type": "hotspot_cell",
      "score": 65.504,
      "count": 186,
      "cell_deg": 0.5,
      "sources": {
        "GDELT": 186,
        "GDELT_DOC": 0,
        "DIRECT_FEED": 0,
        "USGS": 0,
        "GDACS": 0
      },
      "last7_score": 50.429,
      "prev7_score": 15.075,
      "trend": "up",
      "trend_arrow": "🔺",
      "change_pct": 234.5,
      "place": "Jász-Nagykun-Szolnok, Hungary"
    }
  ]
}