{
  "generated_utc": "2026-03-09T13:11:17Z",
  "top": [
    {
      "lon": 14.25,
      "lat": 50.25,
      "type": "hotspot_cell",
      "score": 548.468,
      "count": 731,
      "cell_deg": 0.5,
      "sources": {
        "GDELT": 152,
        "GDELT_DOC": 579,
        "DIRECT_FEED": 0,
        "USGS": 0,
        "GDACS": 0
      },
      "last7_score": 539.44,
      "prev7_score": 9.027,
      "trend": "up",
      "trend_arrow": "🔺",
      "change_pct": 5875.5,
      "place": "SO ORP Kralupy nad Vltavou, Czechia"
    },
    {
      "lon": 26.25,
      "lat": 44.25,
      "type": "hotspot_cell",
      "score": 525.694,
      "count": 698,
      "cell_deg": 0.5,
      "sources": {
        "GDELT": 168,
        "GDELT_DOC": 529,
        "DIRECT_FEED": 1,
        "USGS": 0,
        "GDACS": 0
      },
      "last7_score": 515.243,
      "prev7_score": 10.451,
      "trend": "up",
      "trend_arrow": "🔺",
      "change_pct": 4830.2,
      "place": "Giurgiu, Romania"
    },
    {
      "lon": 25.25,
      "lat": 54.75,
      "type": "hotspot_cell",
      "score": 279.548,
      "count": 393,
      "cell_deg": 0.5,
      "sources": {
        "GDELT": 70,
        "GDELT_DOC": 323,
        "DIRECT_FEED": 0,
        "USGS": 0,
        "GDACS": 0
      },
      "last7_score": 274.57,
      "prev7_score": 4.978,
      "trend": "up",
      "trend_arrow": "🔺",
      "change_pct": 5416.1,
      "place": "Vilnius County, Lithuania"
    },
    {
      "lon": 19.25,
      "lat": 47.75,
      "type": "hotspot_cell",
      "score": 226.67,
      "count": 494,
      "cell_deg": 0.5,
      "sources": {
        "GDELT": 413,
        "GDELT_DOC": 0,
        "DIRECT_FEED": 81,
        "USGS": 0,
        "GDACS": 0
      },
      "last7_score": 206.77,
      "prev7_score": 19.899,
      "trend": "up",
      "trend_arrow": "🔺",
      "change_pct": 939.1,
      "place": "Pest, Hungary"
    },
    {
      "lon": 20.25,
      "lat": 52.25,
      "type": "hotspot_cell",
      "score": 170.803,
      "count": 538,
      "cell_deg": 0.5,
      "sources": {
        "GDELT": 538,
        "GDELT_DOC": 0,
        "DIRECT_FEED": 0,
        "USGS": 0,
        "GDACS": 0
      },
      "last7_score": 132.972,
      "prev7_score": 37.831,
      "trend": "up",
      "trend_arrow": "🔺",
      "change_pct": 251.5,
      "place": "Sochaczew County, Poland"
    },
    {
      "lon": 20.25,
      "lat": 47.25,
      "type": "hotspot_cell",
      "score": 116.758,
      "count": 377,
      "cell_deg": 0.5,
      "sources": {
        "GDELT": 377,
        "GDELT_DOC": 0,
        "DIRECT_FEED": 0,
        "USGS": 0,
        "GDACS": 0
      },
      "last7_score": 95.337,
      "prev7_score": 21.421,
      "trend": "up",
      "trend_arrow": "🔺",
      "change_pct": 345.1,
      "place": "Jász-Nagykun-Szolnok, Hungary"
    },
    {
      "lon": 25.25,
      "lat": 46.25,
      "type": "hotspot_cell",
      "score": 88.493,
      "count": 302,
      "cell_deg": 0.5,
      "sources": {
        "GDELT": 302,
        "GDELT_DOC": 0,
        "DIRECT_FEED": 0,
        "USGS": 0,
        "GDACS": 0
      },
      "last7_score": 67.569,
      "prev7_score": 20.923,
      "trend": "up",
      "trend_arrow": "🔺",
      "change_pct": 222.9,
      "place": "Harghita, Romania"
    },
    {
      "lon": 21.25,
      "lat": 52.25,
      "type": "hotspot_cell",
      "score": 72.985,
      "count": 241,
      "cell_deg": 0.5,
      "sources": {
        "GDELT": 241,
        "GDELT_DOC": 0,
        "DIRECT_FEED": 0,
        "USGS": 0,
        "GDACS": 0
      },
      "last7_score": 57.466,
      "prev7_score": 15.519,
      "trend": "up",
      "trend_arrow": "🔺",
      "change_pct": 270.3,
      "place": "Warsaw, Poland"
    },
    {
      "lon": 24.25,
      "lat": 56.75,
      "type": "hotspot_cell",
      "score": 61.795,
      "count": 82,
      "cell_deg": 0.5,
      "sources": {
        "GDELT": 30,
        "GDELT_DOC": 0,
        "DIRECT_FEED": 52,
        "USGS": 0,
        "GDACS": 0
      },
      "last7_score": 59.702,
      "prev7_score": 2.093,
      "trend": "up",
      "trend_arrow": "🔺",
      "change_pct": 2751.9,
      "place": "Ķekavas novads, Latvia"
    },
    {
      "lon": 15.25,
      "lat": 49.75,
      "type": "hotspot_cell",
      "score": 57.101,
      "count": 168,
      "cell_deg": 0.5,
      "sources": {
        "GDELT": 168,
        "GDELT_DOC": 0,
        "DIRECT_FEED": 0,
        "USGS": 0,
        "GDACS": 0
      },
      "last7_score": 45.723,
      "prev7_score": 11.377,
      "trend": "up",
      "trend_arrow": "🔺",
      "change_pct": 301.9,
      "place": "Vysočina Region, Czechia"
    }
  ]
}