{
  "generated_utc": "2026-06-20T13:37:09Z",
  "top": [
    {
      "lon": 26.25,
      "lat": 44.25,
      "type": "hotspot_cell",
      "score": 549.168,
      "count": 936,
      "cell_deg": 0.5,
      "sources": {
        "GDELT": 154,
        "GDELT_DOC": 777,
        "DIRECT_FEED": 5,
        "USGS": 0,
        "GDACS": 0
      },
      "last7_score": 538.608,
      "prev7_score": 10.559,
      "trend": "up",
      "trend_arrow": "🔺",
      "change_pct": 5000.7,
      "place": "Giurgiu, Romania"
    },
    {
      "lon": 25.25,
      "lat": 54.75,
      "type": "hotspot_cell",
      "score": 514.714,
      "count": 835,
      "cell_deg": 0.5,
      "sources": {
        "GDELT": 54,
        "GDELT_DOC": 780,
        "DIRECT_FEED": 1,
        "USGS": 0,
        "GDACS": 0
      },
      "last7_score": 511.286,
      "prev7_score": 3.428,
      "trend": "up",
      "trend_arrow": "🔺",
      "change_pct": 14813.6,
      "place": "Vilnius County, Lithuania"
    },
    {
      "lon": 14.25,
      "lat": 50.25,
      "type": "hotspot_cell",
      "score": 338.172,
      "count": 612,
      "cell_deg": 0.5,
      "sources": {
        "GDELT": 98,
        "GDELT_DOC": 504,
        "DIRECT_FEED": 10,
        "USGS": 0,
        "GDACS": 0
      },
      "last7_score": 332.316,
      "prev7_score": 5.857,
      "trend": "up",
      "trend_arrow": "🔺",
      "change_pct": 5574.3,
      "place": "SO ORP Kralupy nad Vltavou, Czechia"
    },
    {
      "lon": 20.25,
      "lat": 52.25,
      "type": "hotspot_cell",
      "score": 190.847,
      "count": 464,
      "cell_deg": 0.5,
      "sources": {
        "GDELT": 464,
        "GDELT_DOC": 0,
        "DIRECT_FEED": 0,
        "USGS": 0,
        "GDACS": 0
      },
      "last7_score": 160.78,
      "prev7_score": 30.067,
      "trend": "up",
      "trend_arrow": "🔺",
      "change_pct": 434.7,
      "place": "Sochaczew County, Poland"
    },
    {
      "lon": 19.25,
      "lat": 47.75,
      "type": "hotspot_cell",
      "score": 180.135,
      "count": 329,
      "cell_deg": 0.5,
      "sources": {
        "GDELT": 161,
        "GDELT_DOC": 0,
        "DIRECT_FEED": 168,
        "USGS": 0,
        "GDACS": 0
      },
      "last7_score": 169.365,
      "prev7_score": 10.77,
      "trend": "up",
      "trend_arrow": "🔺",
      "change_pct": 1472.5,
      "place": "Pest, Hungary"
    },
    {
      "lon": 25.25,
      "lat": 46.25,
      "type": "hotspot_cell",
      "score": 152.642,
      "count": 412,
      "cell_deg": 0.5,
      "sources": {
        "GDELT": 412,
        "GDELT_DOC": 0,
        "DIRECT_FEED": 0,
        "USGS": 0,
        "GDACS": 0
      },
      "last7_score": 128.322,
      "prev7_score": 24.321,
      "trend": "up",
      "trend_arrow": "🔺",
      "change_pct": 427.6,
      "place": "Harghita, Romania"
    },
    {
      "lon": 21.25,
      "lat": 52.25,
      "type": "hotspot_cell",
      "score": 119.932,
      "count": 227,
      "cell_deg": 0.5,
      "sources": {
        "GDELT": 227,
        "GDELT_DOC": 0,
        "DIRECT_FEED": 0,
        "USGS": 0,
        "GDACS": 0
      },
      "last7_score": 110.161,
      "prev7_score": 9.772,
      "trend": "up",
      "trend_arrow": "🔺",
      "change_pct": 1027.4,
      "place": "Warsaw, Poland"
    },
    {
      "lon": 24.25,
      "lat": 56.75,
      "type": "hotspot_cell",
      "score": 112.661,
      "count": 177,
      "cell_deg": 0.5,
      "sources": {
        "GDELT": 35,
        "GDELT_DOC": 0,
        "DIRECT_FEED": 142,
        "USGS": 0,
        "GDACS": 0
      },
      "last7_score": 110.086,
      "prev7_score": 2.574,
      "trend": "up",
      "trend_arrow": "🔺",
      "change_pct": 4176.4,
      "place": "Ķekavas novads, Latvia"
    },
    {
      "lon": 20.25,
      "lat": 47.25,
      "type": "hotspot_cell",
      "score": 91.7,
      "count": 250,
      "cell_deg": 0.5,
      "sources": {
        "GDELT": 250,
        "GDELT_DOC": 0,
        "DIRECT_FEED": 0,
        "USGS": 0,
        "GDACS": 0
      },
      "last7_score": 73.9,
      "prev7_score": 17.8,
      "trend": "up",
      "trend_arrow": "🔺",
      "change_pct": 315.2,
      "place": "Jász-Nagykun-Szolnok, Hungary"
    },
    {
      "lon": 17.25,
      "lat": 48.25,
      "type": "hotspot_cell",
      "score": 66.284,
      "count": 169,
      "cell_deg": 0.5,
      "sources": {
        "GDELT": 167,
        "GDELT_DOC": 0,
        "DIRECT_FEED": 2,
        "USGS": 0,
        "GDACS": 0
      },
      "last7_score": 58.763,
      "prev7_score": 7.521,
      "trend": "up",
      "trend_arrow": "🔺",
      "change_pct": 681.3,
      "place": "District of Pezinok, Slovakia"
    }
  ]
}