{
  "generated_utc": "2026-03-31T13:26:40Z",
  "top": [
    {
      "lon": 14.25,
      "lat": 50.25,
      "type": "hotspot_cell",
      "score": 943.802,
      "count": 1565,
      "cell_deg": 0.5,
      "sources": {
        "GDELT": 123,
        "GDELT_DOC": 1439,
        "DIRECT_FEED": 3,
        "USGS": 0,
        "GDACS": 0
      },
      "last7_score": 936.119,
      "prev7_score": 7.683,
      "trend": "up",
      "trend_arrow": "🔺",
      "change_pct": 12084.6,
      "place": "SO ORP Kralupy nad Vltavou, Czechia"
    },
    {
      "lon": 26.25,
      "lat": 44.25,
      "type": "hotspot_cell",
      "score": 833.046,
      "count": 1308,
      "cell_deg": 0.5,
      "sources": {
        "GDELT": 135,
        "GDELT_DOC": 1170,
        "DIRECT_FEED": 3,
        "USGS": 0,
        "GDACS": 0
      },
      "last7_score": 823.279,
      "prev7_score": 9.767,
      "trend": "up",
      "trend_arrow": "🔺",
      "change_pct": 8329.2,
      "place": "Giurgiu, Romania"
    },
    {
      "lon": 25.25,
      "lat": 54.75,
      "type": "hotspot_cell",
      "score": 735.071,
      "count": 1169,
      "cell_deg": 0.5,
      "sources": {
        "GDELT": 91,
        "GDELT_DOC": 1078,
        "DIRECT_FEED": 0,
        "USGS": 0,
        "GDACS": 0
      },
      "last7_score": 727.795,
      "prev7_score": 7.276,
      "trend": "up",
      "trend_arrow": "🔺",
      "change_pct": 9903.3,
      "place": "Vilnius County, Lithuania"
    },
    {
      "lon": 19.25,
      "lat": 47.75,
      "type": "hotspot_cell",
      "score": 239.509,
      "count": 515,
      "cell_deg": 0.5,
      "sources": {
        "GDELT": 302,
        "GDELT_DOC": 0,
        "DIRECT_FEED": 213,
        "USGS": 0,
        "GDACS": 0
      },
      "last7_score": 217.61,
      "prev7_score": 21.899,
      "trend": "up",
      "trend_arrow": "🔺",
      "change_pct": 893.7,
      "place": "Pest, Hungary"
    },
    {
      "lon": 20.25,
      "lat": 52.25,
      "type": "hotspot_cell",
      "score": 173.763,
      "count": 451,
      "cell_deg": 0.5,
      "sources": {
        "GDELT": 451,
        "GDELT_DOC": 0,
        "DIRECT_FEED": 0,
        "USGS": 0,
        "GDACS": 0
      },
      "last7_score": 146.143,
      "prev7_score": 27.62,
      "trend": "up",
      "trend_arrow": "🔺",
      "change_pct": 429.1,
      "place": "Sochaczew County, Poland"
    },
    {
      "lon": 24.25,
      "lat": 56.75,
      "type": "hotspot_cell",
      "score": 119.786,
      "count": 194,
      "cell_deg": 0.5,
      "sources": {
        "GDELT": 44,
        "GDELT_DOC": 0,
        "DIRECT_FEED": 150,
        "USGS": 0,
        "GDACS": 0
      },
      "last7_score": 117.318,
      "prev7_score": 2.468,
      "trend": "up",
      "trend_arrow": "🔺",
      "change_pct": 4653.3,
      "place": "Ķekavas novads, Latvia"
    },
    {
      "lon": 20.25,
      "lat": 47.25,
      "type": "hotspot_cell",
      "score": 109.86,
      "count": 349,
      "cell_deg": 0.5,
      "sources": {
        "GDELT": 349,
        "GDELT_DOC": 0,
        "DIRECT_FEED": 0,
        "USGS": 0,
        "GDACS": 0
      },
      "last7_score": 83.418,
      "prev7_score": 26.442,
      "trend": "up",
      "trend_arrow": "🔺",
      "change_pct": 215.5,
      "place": "Jász-Nagykun-Szolnok, Hungary"
    },
    {
      "lon": 25.25,
      "lat": 46.25,
      "type": "hotspot_cell",
      "score": 104.139,
      "count": 313,
      "cell_deg": 0.5,
      "sources": {
        "GDELT": 313,
        "GDELT_DOC": 0,
        "DIRECT_FEED": 0,
        "USGS": 0,
        "GDACS": 0
      },
      "last7_score": 80.999,
      "prev7_score": 23.14,
      "trend": "up",
      "trend_arrow": "🔺",
      "change_pct": 250.0,
      "place": "Harghita, Romania"
    },
    {
      "lon": 27.75,
      "lat": 47.25,
      "type": "hotspot_cell",
      "score": 55.045,
      "count": 93,
      "cell_deg": 0.5,
      "sources": {
        "GDELT": 0,
        "GDELT_DOC": 93,
        "DIRECT_FEED": 0,
        "USGS": 0,
        "GDACS": 0
      },
      "last7_score": 55.045,
      "prev7_score": 0.0,
      "trend": "new",
      "trend_arrow": "🆕",
      "change_pct": null,
      "place": "Iași, Romania"
    },
    {
      "lon": 15.25,
      "lat": 49.75,
      "type": "hotspot_cell",
      "score": 52.808,
      "count": 175,
      "cell_deg": 0.5,
      "sources": {
        "GDELT": 175,
        "GDELT_DOC": 0,
        "DIRECT_FEED": 0,
        "USGS": 0,
        "GDACS": 0
      },
      "last7_score": 39.382,
      "prev7_score": 13.427,
      "trend": "up",
      "trend_arrow": "🔺",
      "change_pct": 193.3,
      "place": "Vysočina Region, Czechia"
    }
  ]
}