{
  "generated_utc": "2026-06-29T10:29:41Z",
  "top": [
    {
      "lon": 26.25,
      "lat": 44.25,
      "type": "hotspot_cell",
      "score": 598.524,
      "count": 1063,
      "cell_deg": 0.5,
      "sources": {
        "GDELT": 132,
        "GDELT_DOC": 923,
        "DIRECT_FEED": 8,
        "USGS": 0,
        "GDACS": 0
      },
      "last7_score": 589.851,
      "prev7_score": 8.673,
      "trend": "up",
      "trend_arrow": "🔺",
      "change_pct": 6700.7,
      "place": "Giurgiu, Romania"
    },
    {
      "lon": 14.25,
      "lat": 50.25,
      "type": "hotspot_cell",
      "score": 591.469,
      "count": 1141,
      "cell_deg": 0.5,
      "sources": {
        "GDELT": 122,
        "GDELT_DOC": 1011,
        "DIRECT_FEED": 8,
        "USGS": 0,
        "GDACS": 0
      },
      "last7_score": 581.79,
      "prev7_score": 9.679,
      "trend": "up",
      "trend_arrow": "🔺",
      "change_pct": 5911.0,
      "place": "SO ORP Kralupy nad Vltavou, Czechia"
    },
    {
      "lon": 25.25,
      "lat": 54.75,
      "type": "hotspot_cell",
      "score": 384.672,
      "count": 644,
      "cell_deg": 0.5,
      "sources": {
        "GDELT": 59,
        "GDELT_DOC": 585,
        "DIRECT_FEED": 0,
        "USGS": 0,
        "GDACS": 0
      },
      "last7_score": 380.572,
      "prev7_score": 4.1,
      "trend": "up",
      "trend_arrow": "🔺",
      "change_pct": 9182.7,
      "place": "Vilnius County, Lithuania"
    },
    {
      "lon": 20.25,
      "lat": 52.25,
      "type": "hotspot_cell",
      "score": 179.569,
      "count": 522,
      "cell_deg": 0.5,
      "sources": {
        "GDELT": 522,
        "GDELT_DOC": 0,
        "DIRECT_FEED": 0,
        "USGS": 0,
        "GDACS": 0
      },
      "last7_score": 145.863,
      "prev7_score": 33.706,
      "trend": "up",
      "trend_arrow": "🔺",
      "change_pct": 332.8,
      "place": "Sochaczew County, Poland"
    },
    {
      "lon": 19.25,
      "lat": 47.75,
      "type": "hotspot_cell",
      "score": 159.212,
      "count": 350,
      "cell_deg": 0.5,
      "sources": {
        "GDELT": 188,
        "GDELT_DOC": 0,
        "DIRECT_FEED": 162,
        "USGS": 0,
        "GDACS": 0
      },
      "last7_score": 148.477,
      "prev7_score": 10.735,
      "trend": "up",
      "trend_arrow": "🔺",
      "change_pct": 1283.1,
      "place": "Pest, Hungary"
    },
    {
      "lon": 25.25,
      "lat": 46.25,
      "type": "hotspot_cell",
      "score": 112.587,
      "count": 366,
      "cell_deg": 0.5,
      "sources": {
        "GDELT": 366,
        "GDELT_DOC": 0,
        "DIRECT_FEED": 0,
        "USGS": 0,
        "GDACS": 0
      },
      "last7_score": 87.888,
      "prev7_score": 24.699,
      "trend": "up",
      "trend_arrow": "🔺",
      "change_pct": 255.8,
      "place": "Harghita, Romania"
    },
    {
      "lon": 24.25,
      "lat": 56.75,
      "type": "hotspot_cell",
      "score": 107.66,
      "count": 177,
      "cell_deg": 0.5,
      "sources": {
        "GDELT": 27,
        "GDELT_DOC": 0,
        "DIRECT_FEED": 150,
        "USGS": 0,
        "GDACS": 0
      },
      "last7_score": 104.945,
      "prev7_score": 2.714,
      "trend": "up",
      "trend_arrow": "🔺",
      "change_pct": 3766.5,
      "place": "Ķekavas novads, Latvia"
    },
    {
      "lon": 21.25,
      "lat": 52.25,
      "type": "hotspot_cell",
      "score": 105.995,
      "count": 349,
      "cell_deg": 0.5,
      "sources": {
        "GDELT": 349,
        "GDELT_DOC": 0,
        "DIRECT_FEED": 0,
        "USGS": 0,
        "GDACS": 0
      },
      "last7_score": 79.364,
      "prev7_score": 26.631,
      "trend": "up",
      "trend_arrow": "🔺",
      "change_pct": 198.0,
      "place": "Warsaw, Poland"
    },
    {
      "lon": 20.25,
      "lat": 47.25,
      "type": "hotspot_cell",
      "score": 61.85,
      "count": 221,
      "cell_deg": 0.5,
      "sources": {
        "GDELT": 220,
        "GDELT_DOC": 0,
        "DIRECT_FEED": 0,
        "USGS": 0,
        "GDACS": 1
      },
      "last7_score": 45.764,
      "prev7_score": 16.086,
      "trend": "up",
      "trend_arrow": "🔺",
      "change_pct": 184.5,
      "place": "Jász-Nagykun-Szolnok, Hungary"
    },
    {
      "lon": 15.25,
      "lat": 49.75,
      "type": "hotspot_cell",
      "score": 56.864,
      "count": 151,
      "cell_deg": 0.5,
      "sources": {
        "GDELT": 151,
        "GDELT_DOC": 0,
        "DIRECT_FEED": 0,
        "USGS": 0,
        "GDACS": 0
      },
      "last7_score": 47.67,
      "prev7_score": 9.193,
      "trend": "up",
      "trend_arrow": "🔺",
      "change_pct": 418.5,
      "place": "Vysočina Region, Czechia"
    }
  ]
}