{
  "generated_utc": "2026-03-24T19:10:02Z",
  "top": [
    {
      "lon": 26.25,
      "lat": 44.25,
      "type": "hotspot_cell",
      "score": 734.495,
      "count": 1272,
      "cell_deg": 0.5,
      "sources": {
        "GDELT": 189,
        "GDELT_DOC": 1083,
        "DIRECT_FEED": 0,
        "USGS": 0,
        "GDACS": 0
      },
      "last7_score": 721.143,
      "prev7_score": 13.352,
      "trend": "up",
      "trend_arrow": "🔺",
      "change_pct": 5301.1,
      "place": "Giurgiu, Romania"
    },
    {
      "lon": 14.25,
      "lat": 50.25,
      "type": "hotspot_cell",
      "score": 682.331,
      "count": 1226,
      "cell_deg": 0.5,
      "sources": {
        "GDELT": 117,
        "GDELT_DOC": 1106,
        "DIRECT_FEED": 3,
        "USGS": 0,
        "GDACS": 0
      },
      "last7_score": 674.794,
      "prev7_score": 7.537,
      "trend": "up",
      "trend_arrow": "🔺",
      "change_pct": 8853.0,
      "place": "SO ORP Kralupy nad Vltavou, Czechia"
    },
    {
      "lon": 25.25,
      "lat": 54.75,
      "type": "hotspot_cell",
      "score": 577.208,
      "count": 921,
      "cell_deg": 0.5,
      "sources": {
        "GDELT": 88,
        "GDELT_DOC": 833,
        "DIRECT_FEED": 0,
        "USGS": 0,
        "GDACS": 0
      },
      "last7_score": 572.701,
      "prev7_score": 4.507,
      "trend": "up",
      "trend_arrow": "🔺",
      "change_pct": 12607.4,
      "place": "Vilnius County, Lithuania"
    },
    {
      "lon": 19.25,
      "lat": 47.75,
      "type": "hotspot_cell",
      "score": 287.895,
      "count": 602,
      "cell_deg": 0.5,
      "sources": {
        "GDELT": 371,
        "GDELT_DOC": 0,
        "DIRECT_FEED": 231,
        "USGS": 0,
        "GDACS": 0
      },
      "last7_score": 263.22,
      "prev7_score": 24.676,
      "trend": "up",
      "trend_arrow": "🔺",
      "change_pct": 966.7,
      "place": "Pest, Hungary"
    },
    {
      "lon": 20.25,
      "lat": 47.25,
      "type": "hotspot_cell",
      "score": 151.088,
      "count": 418,
      "cell_deg": 0.5,
      "sources": {
        "GDELT": 418,
        "GDELT_DOC": 0,
        "DIRECT_FEED": 0,
        "USGS": 0,
        "GDACS": 0
      },
      "last7_score": 124.925,
      "prev7_score": 26.163,
      "trend": "up",
      "trend_arrow": "🔺",
      "change_pct": 377.5,
      "place": "Jász-Nagykun-Szolnok, Hungary"
    },
    {
      "lon": 20.25,
      "lat": 52.25,
      "type": "hotspot_cell",
      "score": 150.833,
      "count": 422,
      "cell_deg": 0.5,
      "sources": {
        "GDELT": 422,
        "GDELT_DOC": 0,
        "DIRECT_FEED": 0,
        "USGS": 0,
        "GDACS": 0
      },
      "last7_score": 123.099,
      "prev7_score": 27.734,
      "trend": "up",
      "trend_arrow": "🔺",
      "change_pct": 343.9,
      "place": "Sochaczew County, Poland"
    },
    {
      "lon": 25.25,
      "lat": 46.25,
      "type": "hotspot_cell",
      "score": 125.414,
      "count": 334,
      "cell_deg": 0.5,
      "sources": {
        "GDELT": 334,
        "GDELT_DOC": 0,
        "DIRECT_FEED": 0,
        "USGS": 0,
        "GDACS": 0
      },
      "last7_score": 105.826,
      "prev7_score": 19.588,
      "trend": "up",
      "trend_arrow": "🔺",
      "change_pct": 440.3,
      "place": "Harghita, Romania"
    },
    {
      "lon": 24.25,
      "lat": 56.75,
      "type": "hotspot_cell",
      "score": 112.831,
      "count": 174,
      "cell_deg": 0.5,
      "sources": {
        "GDELT": 36,
        "GDELT_DOC": 0,
        "DIRECT_FEED": 138,
        "USGS": 0,
        "GDACS": 0
      },
      "last7_score": 110.123,
      "prev7_score": 2.708,
      "trend": "up",
      "trend_arrow": "🔺",
      "change_pct": 3966.4,
      "place": "Ķekavas novads, Latvia"
    },
    {
      "lon": 15.25,
      "lat": 49.75,
      "type": "hotspot_cell",
      "score": 69.748,
      "count": 174,
      "cell_deg": 0.5,
      "sources": {
        "GDELT": 174,
        "GDELT_DOC": 0,
        "DIRECT_FEED": 0,
        "USGS": 0,
        "GDACS": 0
      },
      "last7_score": 61.878,
      "prev7_score": 7.87,
      "trend": "up",
      "trend_arrow": "🔺",
      "change_pct": 686.2,
      "place": "Vysočina Region, Czechia"
    },
    {
      "lon": 21.25,
      "lat": 52.25,
      "type": "hotspot_cell",
      "score": 64.236,
      "count": 193,
      "cell_deg": 0.5,
      "sources": {
        "GDELT": 193,
        "GDELT_DOC": 0,
        "DIRECT_FEED": 0,
        "USGS": 0,
        "GDACS": 0
      },
      "last7_score": 52.636,
      "prev7_score": 11.6,
      "trend": "up",
      "trend_arrow": "🔺",
      "change_pct": 353.8,
      "place": "Warsaw, Poland"
    }
  ]
}