{
  "generated_utc": "2026-03-06T06:55:32Z",
  "top": [
    {
      "lon": 21.25,
      "lat": 52.25,
      "type": "hotspot_cell",
      "score": 18.198,
      "count": 48,
      "cell_deg": 0.5,
      "sources": {
        "GDELT": 48,
        "USGS": 0,
        "GDACS": 0
      },
      "last7_score": 14.387,
      "prev7_score": 3.811,
      "trend": "up",
      "trend_arrow": "🔺",
      "change_pct": 277.5,
      "place": "Warsaw, Poland"
    },
    {
      "lon": 25.25,
      "lat": 46.25,
      "type": "hotspot_cell",
      "score": 17.318,
      "count": 39,
      "cell_deg": 0.5,
      "sources": {
        "GDELT": 39,
        "USGS": 0,
        "GDACS": 0
      },
      "last7_score": 15.32,
      "prev7_score": 1.998,
      "trend": "up",
      "trend_arrow": "🔺",
      "change_pct": 666.6,
      "place": "Harghita, Romania"
    },
    {
      "lon": 14.25,
      "lat": 50.25,
      "type": "hotspot_cell",
      "score": 16.608,
      "count": 41,
      "cell_deg": 0.5,
      "sources": {
        "GDELT": 41,
        "USGS": 0,
        "GDACS": 0
      },
      "last7_score": 13.647,
      "prev7_score": 2.961,
      "trend": "up",
      "trend_arrow": "🔺",
      "change_pct": 360.9,
      "place": "SO ORP Kralupy nad Vltavou, Czechia"
    },
    {
      "lon": 20.25,
      "lat": 47.25,
      "type": "hotspot_cell",
      "score": 16.133,
      "count": 42,
      "cell_deg": 0.5,
      "sources": {
        "GDELT": 42,
        "USGS": 0,
        "GDACS": 0
      },
      "last7_score": 13.264,
      "prev7_score": 2.869,
      "trend": "up",
      "trend_arrow": "🔺",
      "change_pct": 362.3,
      "place": "Jász-Nagykun-Szolnok, Hungary"
    },
    {
      "lon": 19.25,
      "lat": 47.75,
      "type": "hotspot_cell",
      "score": 15.709,
      "count": 40,
      "cell_deg": 0.5,
      "sources": {
        "GDELT": 40,
        "USGS": 0,
        "GDACS": 0
      },
      "last7_score": 12.86,
      "prev7_score": 2.848,
      "trend": "up",
      "trend_arrow": "🔺",
      "change_pct": 351.5,
      "place": "Pest, Hungary"
    },
    {
      "lon": 20.25,
      "lat": 52.25,
      "type": "hotspot_cell",
      "score": 15.127,
      "count": 44,
      "cell_deg": 0.5,
      "sources": {
        "GDELT": 44,
        "USGS": 0,
        "GDACS": 0
      },
      "last7_score": 11.665,
      "prev7_score": 3.462,
      "trend": "up",
      "trend_arrow": "🔺",
      "change_pct": 236.9,
      "place": "Sochaczew County, Poland"
    },
    {
      "lon": 26.25,
      "lat": 59.25,
      "type": "hotspot_cell",
      "score": 13.131,
      "count": 33,
      "cell_deg": 0.5,
      "sources": {
        "GDELT": 33,
        "USGS": 0,
        "GDACS": 0
      },
      "last7_score": 11.136,
      "prev7_score": 1.995,
      "trend": "up",
      "trend_arrow": "🔺",
      "change_pct": 458.2,
      "place": "Lääne-Viru County, Estonia"
    },
    {
      "lon": 25.25,
      "lat": 57.25,
      "type": "hotspot_cell",
      "score": 13.016,
      "count": 32,
      "cell_deg": 0.5,
      "sources": {
        "GDELT": 32,
        "USGS": 0,
        "GDACS": 0
      },
      "last7_score": 10.653,
      "prev7_score": 2.363,
      "trend": "up",
      "trend_arrow": "🔺",
      "change_pct": 350.8,
      "place": "Cēsu novads, Latvia"
    },
    {
      "lon": 15.25,
      "lat": 49.75,
      "type": "hotspot_cell",
      "score": 11.194,
      "count": 33,
      "cell_deg": 0.5,
      "sources": {
        "GDELT": 33,
        "USGS": 0,
        "GDACS": 0
      },
      "last7_score": 8.539,
      "prev7_score": 2.656,
      "trend": "up",
      "trend_arrow": "🔺",
      "change_pct": 221.5,
      "place": "Vysočina Region, Czechia"
    },
    {
      "lon": 26.25,
      "lat": 44.25,
      "type": "hotspot_cell",
      "score": 10.16,
      "count": 28,
      "cell_deg": 0.5,
      "sources": {
        "GDELT": 28,
        "USGS": 0,
        "GDACS": 0
      },
      "last7_score": 7.937,
      "prev7_score": 2.223,
      "trend": "up",
      "trend_arrow": "🔺",
      "change_pct": 257.1,
      "place": "Giurgiu, Romania"
    }
  ]
}